~Version
VERS.           2.0   :CWLS Log ASCII Standard - VERSION 2.0
WRAP.           NO   :One line per index step
~Well
#  MNEM.UNIT                             DATA:  DESCRIPTION      
#-----------             ---------------------  -----------------
STRT  .M        149.0470                     : START INDEX
STOP  .M       1003.7062                     : STOP INDEX
STEP  .M          0.1524                     : STEP
NULL  .       -999.25                        : NULL VALUE
COMP  .                                      : COMPANY
WELL  .       AC-2                           : WELL
FLD   .       AC                             : FIELD
LOC   .                                      : LOCATION
PROV  .                                      : PROVINCE
CNTY  .                                      : COUNTY
STAT  .                                      : STATE
CTRY  .                                      : COUNTRY
SRVC  .                                      : SERVICE COMPANY
API   .                                      : API NUMBER
UWI   .       AC-2		                     : UNIQUE WELL ID
LATI  .DEG                                   : LATITUDE
LONG  .DEG                                   : LONGITUDE
~Curve
#  MNEM.UNIT                        LOG CODES:  CURVE DESCRIPTION
#-----------             ---------------------  -----------------
DEPT  .M                                     : Depth Index
CALI  .IN                                    : 
GR    .GAPI                                  : 
ILD   .ohmm                                  : 
ILM   .ohmm                                  : 
LLG3  .ohmm                                  : 
NPHI  .M3M3                                  : 
RHOB  .G/C3                                  : 
SP    .MV                                    : 
#
#----------------------------------------------------------------------------------------------------------------------------
# DEPT          CALI          GR            ILD           ILM           LLG3          NPHI          RHOB          SP            
# 
~Ascii
# ...
   821.131010        8.7963       50.6000        1.8176        1.8461        1.3996        0.5488        2.3332      102.1332 
   821.283434        8.8062       51.5000        1.8545        1.9173        1.4421        0.5274        2.3249      102.1686 
   821.435858        8.8039       51.7000        1.8844        1.9311        1.5136        0.5073        2.3047      102.0705 
   821.588282        8.8000       51.1000        1.9085        1.9243        1.5066        0.4906        2.2814      101.9172 
   821.740606        8.8060       50.1000        1.9212        1.9149        1.5453        0.4811        2.2607      101.7774 
   821.893030        8.8041       48.6000        1.9231        1.9055        1.5704        0.4831        2.2441      102.0000 
   822.045454        8.8058       47.2000        1.9154        1.8915        1.5922        0.4935        2.2336      101.8674 
   822.197878        8.8100       46.9000        1.9062        1.8776        1.6218        0.5029        2.2289      101.3797 
   822.350202        8.8100       46.2000        1.8929        1.8655        1.6032        0.5049        2.2287      101.2632 
   822.502626        8.8100       44.9000        1.8793        1.8544        1.5382        0.5063        2.2312      101.0337 
   822.655050        8.7989       43.8000        1.8655        1.8408        1.5631        0.5166        2.2320      100.6704 
   822.807474        8.8119       43.1000        1.8428        1.8239        1.5849        0.5323        2.2275      100.5388 
   822.959898        8.8138       42.6000        1.8148        1.8030        1.6032        0.5381        2.2184      100.8000 
   823.112222        8.7893       43.3000        1.7733        1.7701        1.5812        0.5323        2.2121      100.7907 
   823.264646        8.7800       44.9000        1.7162        1.7255        1.5453        0.5289        2.2134      100.7148 
   823.417070        8.7852       45.6000        1.6506        1.6651        1.5382        0.5352        2.2188      100.9000 
   823.569494        8.8053       44.3000        1.5856        1.5936        1.4962        0.5454        2.2216      100.8926 
   823.721818        8.8099       43.8000        1.5294        1.5203        1.4723        0.5502        2.2187      100.7019 
   823.874242        8.7901       45.7000        1.4837        1.4546        1.5031        0.5545        2.2104      100.8000 
   824.026666        8.7751       47.9000        1.4430        1.4026        1.4962        0.5632        2.2004      100.9778 
   824.179090        8.7796       48.2000        1.4023        1.3649        1.4125        0.5738        2.1964      100.8444 
   824.331414        8.7853       46.6000        1.3576        1.3419        1.3274        0.5795        2.2013      101.0000 
   824.483838        8.7753       46.3000        1.3126        1.3101        1.3183        0.5828        2.2110      101.4888 
   824.636262        8.7562       47.2000        1.2727        1.2613        1.2274        0.5881        2.2157      101.7111 
   824.788686        8.7491       47.8000        1.2402        1.2119        1.1194        0.5938        2.2113      101.6667 
   824.941010        8.7511       47.0000        1.2127        1.1772        1.1535        0.5914        2.2082      101.8222 
   825.093434        8.7400       46.7000        1.1828        1.1547        1.1940        0.5752        2.2147      101.9445 
   825.245858        8.7529       49.7000        1.1498        1.1316        1.2050        0.5531        2.2238      102.3000 
   825.398282        8.7869       55.0000        1.1129        1.1000        1.1561        0.5381        2.2230      102.4000 
   825.550606        8.8058       59.9000        1.0633        1.0582        1.1298        0.5362        2.2050      102.4461 
   825.703030        8.7959       62.0000        0.9966        1.0151        1.0351        0.5400        2.1773      102.3614 
   825.855454        8.7780       63.5000        0.9074        0.9595        1.0209        0.5473        2.1516      102.5769 
   826.007878        8.7482       67.5000        0.8166        0.8884        1.0209        0.5632        2.1414      102.7000 
   826.160202        8.7145       71.5000        0.7447        0.8052        1.0666        0.5852        2.1486      102.7384 
   826.312626        8.6938       72.1000        0.7112        0.7207        1.0789        0.6014        2.1621      102.7384 
   826.465050        8.7112       69.6000        0.7096        0.6507        1.0399        0.6042        2.1676      102.4460 
   826.617474        8.7300       67.3000        0.7295        0.6139        0.9863        0.6014        2.1634      102.5077 
   826.769898        8.7300       66.7000        0.7516        0.6271        0.9727        0.5966        2.1594      102.5692 
   826.922222        8.7195       65.8000        0.7691        0.6887        0.9638        0.5881        2.1626      102.5000 
   827.074646        8.7137       64.7000        0.7998        0.7810        0.9638        0.5785        2.1727      102.5000 
   827.227070        8.7568       64.2000        0.8590        0.8693        0.8995        0.5781        2.1852      102.7000 
   827.379494        8.7736       61.9000        0.9271        0.9441        0.7178        0.5900        2.1938      102.5000 
   827.531818        8.7464       55.6000        0.9963        1.0130        0.7551        0.5976        2.1900      102.4000 
   827.684242        8.7506       49.9000        1.0553        1.0758        0.9661        0.5890        2.1749      102.5000 
   827.836666        8.7300       49.0000        1.0943        1.1184        1.0889        0.5763        2.1581      102.2000 
   827.989090        8.7180       50.0000        1.1001        1.1247        1.1143        0.5802        2.1502      102.3000 
   828.141414        8.6900       48.3000        1.0886        1.0954        1.0940        0.5962        2.1530      101.9000 
   828.293838        8.6985       46.3000        1.0683        1.0569        1.0495        0.6033        2.1633      101.3000 
   828.446262        8.7255       48.5000        1.0444        1.0267        1.0568        0.5990        2.1752      101.9000 
   828.598686        8.7535       52.9000        1.0227        1.0136        1.0814        0.5947        2.1788      102.1000 
   828.751010        8.7874       55.3000        1.0057        1.0143        1.0304        0.5945        2.1672      101.8000 
   828.903434        8.7698       55.6000        0.9925        1.0233        0.9484        0.5925        2.1448      102.0000 
   829.055858        8.7301       55.0000        0.9834        1.0270        0.9462        0.5889        2.1265      101.9000 
   829.208282        8.6952       53.0000        0.9799        1.0288        0.9638        0.5918        2.1185      101.9000 
   829.360606        8.6706       50.6000        0.9810        1.0288        0.9817        0.6002        2.1205      101.9000 
   829.513030        8.6355       48.7000        0.9827        1.0251        0.9908        0.6050        2.1288      102.1000 
   829.665454        8.6200       47.6000        0.9844        1.0233        1.0000        0.6011        2.1420      102.1000 
   829.817878        8.6306       47.3000        0.9862        1.0248        1.0093        0.5941        2.1581      101.9000 
   829.970202        8.6741       48.7000        0.9879        1.0320        1.0069        0.5918        2.1704      102.1000 
   830.122626        8.6900       53.4000        0.9907        1.0422        1.0069        0.5946        2.1727      102.2000 
   830.275050        8.6881       58.4000        0.9959        1.0575        1.0000        0.6006        2.1609      101.8000 
   830.427474        8.6782       60.1000        1.0046        1.0772        0.9863        0.6057        2.1371      101.9000 
   830.579898        8.6543       59.1000        1.0230        1.1045        0.9886        0.6039        2.1130      102.3000 
