~Version
VERS.           2.0   :CWLS Log ASCII Standard - VERSION 2.0
WRAP.           NO   :One line per index step
~Well
#  MNEM.UNIT                             DATA:  DESCRIPTION      
#-----------             ---------------------  -----------------
STRT  .M        149.0470                     : START INDEX
STOP  .M       1003.7062                     : STOP INDEX
STEP  .M          0.1524                     : STEP
NULL  .       -999.25                        : NULL VALUE
COMP  .                                      : COMPANY
WELL  .       AC-2                           : WELL
FLD   .       AC                             : FIELD
LOC   .                                      : LOCATION
PROV  .                                      : PROVINCE
CNTY  .                                      : COUNTY
STAT  .                                      : STATE
CTRY  .                                      : COUNTRY
SRVC  .                                      : SERVICE COMPANY
API   .                                      : API NUMBER
UWI   .       AC-2		                     : UNIQUE WELL ID
LATI  .DEG                                   : LATITUDE
LONG  .DEG                                   : LONGITUDE
~Curve
#  MNEM.UNIT                        LOG CODES:  CURVE DESCRIPTION
#-----------             ---------------------  -----------------
DEPT  .M                                     : Depth Index
CALI  .IN                                    : 
GR    .GAPI                                  : 
ILD   .ohmm                                  : 
ILM   .ohmm                                  : 
LLG3  .ohmm                                  : 
NPHI  .M3M3                                  : 
RHOB  .G/C3                                  : 
SP    .MV                                    : 
#
#----------------------------------------------------------------------------------------------------------------------------
# DEPT          CALI          GR            ILD           ILM           LLG3          NPHI          RHOB          SP            
# 
~Ascii
# ...
   485.089090     -999.2500       69.3000        6.6952        6.8536        4.2364     -999.2500     -999.2500       95.9000 
   485.241414     -999.2500       65.9000        6.2059        5.7344        4.5709     -999.2500     -999.2500       96.3000 
   485.393838     -999.2500       62.4000        5.6778        4.6702        5.4076     -999.2500     -999.2500       96.5000 
   485.546262     -999.2500       58.9000        5.2550        3.9711        6.2806     -999.2500     -999.2500       96.2000 
   485.698686     -999.2500       57.0000        4.9798        3.7338        5.9429     -999.2500     -999.2500       96.6000 
   485.851010     -999.2500       57.7000        4.8091        3.9768        5.5081     -999.2500     -999.2500       96.9000 
   486.003434     -999.2500       60.4000        4.6681        4.3214        4.4875     -999.2500     -999.2500       97.2000 
   486.155858     -999.2500       62.9000        4.4907        4.4043        3.4995     -999.2500     -999.2500       97.6000 
   486.308282     -999.2500       64.5000        4.2644        4.0710        3.3343     -999.2500     -999.2500       98.0000 
   486.460606     -999.2500       65.7000        3.9850        3.3773        2.8708     -999.2500     -999.2500       97.9000 
   486.613030     -999.2500       65.5000        3.6425        2.9107        2.5061     -999.2500     -999.2500       97.6000 
   486.765454     -999.2500       64.0000        3.2469        2.5134        4.0458     -999.2500     -999.2500       97.5000 
   486.917878     -999.2500       62.6000        2.8407        2.1984        4.9774     -999.2500     -999.2500       97.8000 
   487.070202     -999.2500       62.7000        2.4760        1.9663        3.5975     -999.2500     -999.2500       97.9000 
   487.222626     -999.2500       63.7000        2.1827        1.8050        3.2211     -999.2500     -999.2500       98.8000 
   487.375050     -999.2500       65.7000        1.9861        1.7015        3.8019     -999.2500     -999.2500      100.2000 
   487.527474     -999.2500       70.2000        1.8707        1.6390        3.2810     -999.2500     -999.2500      101.4000 
   487.679898     -999.2500       75.9000        1.8408        1.6193        1.8113     -999.2500     -999.2500      101.6000 
   487.832222     -999.2500       79.4000        1.8923        1.6458        1.6406     -999.2500     -999.2500      102.3000 
   487.984646     -999.2500       80.2000        2.0230        1.7232        1.6672     -999.2500     -999.2500      102.9000 
   488.137070     -999.2500       80.1000        2.2233        1.9136        1.6520     -999.2500     -999.2500      102.8000 
   488.289494     -999.2500       77.5000        2.4889        2.1961        1.6406     -999.2500     -999.2500      101.8000 
   488.441818     -999.2500       71.6000        2.8379        2.5572        1.6255     -999.2500     -999.2500      100.4000 
   488.594242     -999.2500       64.6000        3.2528        2.9648        1.6827     -999.2500     -999.2500       99.2000 
   488.746666     -999.2500       59.2000        3.7366        3.4679        1.9588     -999.2500     -999.2500       97.6000 
   488.899090     -999.2500       55.2000        4.2293        3.9582        2.9580     -999.2500     -999.2500       96.8000 
   489.051414     -999.2500       51.2000        4.6476        4.3511        3.3113     -999.2500     -999.2500       96.1598 
   489.203838     -999.2500       48.5000        4.9546        4.6048        3.4041     -999.2500     -999.2500       95.7001 
   489.356262     -999.2500       48.5000        5.1247        4.7674        3.6392     -999.2500     -999.2500       95.5000 
   489.508686     -999.2500       51.0000        5.2277        4.8924        3.7932     -999.2500     -999.2500       95.5000 
   489.661010     -999.2500       52.3000        5.2941        4.9958        3.6560     -999.2500     -999.2500       95.5000 
   489.813434     -999.2500       50.9000        5.3806        5.0573        3.2961     -999.2500     -999.2500       95.7399 
   489.965858     -999.2500       50.1000        5.5131        5.1240        3.2137     -999.2500     -999.2500       95.7400 
   490.118282     -999.2500       52.2000        5.6804        5.3074        3.3037     -999.2500     -999.2500       95.5799 
   490.270606     -999.2500       55.3000        5.8521        5.6393        3.7844     -999.2500     -999.2500       95.2799 
   490.423030     -999.2500       56.4000        5.9907        5.9164        3.8994     -999.2500     -999.2500       94.8000 
   490.575454     -999.2500       56.5000        6.0798        6.1317        4.0832     -999.2500     -999.2500       94.6000 
   490.727878     -999.2500       56.3000        6.1558        6.2861        3.7844     -999.2500     -999.2500       94.9000 
   490.880202     -999.2500       55.1000        6.2463        6.3842        3.5156     -999.2500     -999.2500       95.3000 
   491.032626     -999.2500       54.2000        6.3518        6.4493        3.9995     -999.2500     -999.2500       95.2000 
   491.185050     -999.2500       57.5000        6.4595        6.4905        4.8084     -999.2500     -999.2500       95.0000 
   491.337474     -999.2500       63.7000        6.5483        6.4998        4.8529     -999.2500     -999.2500       94.8000 
   491.489898     -999.2500       67.6000        6.6097        6.4836        4.3551     -999.2500     -999.2500       94.9000 
   491.642222     -999.2500       68.9000        6.6430        6.4602        4.4361     -999.2500     -999.2500       94.9000 
   491.794646     -999.2500       69.5000        6.6528        6.4495        4.6666     -999.2500     -999.2500       94.7000 
   491.947070     -999.2500       69.3000        6.6528        6.4626        4.7098     -999.2500     -999.2500       94.7000 
   492.099494     -999.2500       65.6000        6.6569        6.4853        4.4668     -999.2500     -999.2500       94.3000 
   492.251818     -999.2500       59.8000        6.6718        6.4988        4.2170     -999.2500     -999.2500       94.1000 
   492.404242     -999.2500       57.4000        6.6933        6.5013        4.2756     -999.2500     -999.2500       94.0000 
   492.556666     -999.2500       59.0000        6.7326        6.5086        4.3954     -999.2500     -999.2500       93.7000 
   492.709090     -999.2500       61.0000        6.7429        6.5246        4.4157     -999.2500     -999.2500       93.4000 
   492.861414     -999.2500       61.1000        6.7186        6.5234        4.4668     -999.2500     -999.2500       93.3000 
   493.013838     -999.2500       60.4000        6.6224        6.4634        4.4157     -999.2500     -999.2500       93.1000 
   493.166262     -999.2500       61.8000        6.4608        6.3209        4.2170     -999.2500     -999.2500       92.9000 
   493.318686     -999.2500       65.3000        6.2899        6.0972        4.1976     -999.2500     -999.2500       92.7000 
   493.471010     -999.2500       68.2000        6.1235        5.8057        4.1976     -999.2500     -999.2500       93.2000 
   493.623434     -999.2500       68.6000        6.0017        5.5146        4.3351     -999.2500     -999.2500       93.3000 
   493.775858     -999.2500       67.0000        5.8951        5.3118        4.3152     -999.2500     -999.2500       93.9000 
   493.928282     -999.2500       65.9000        5.7426        5.2083        4.2170     -999.2500     -999.2500       94.8000 
   494.080606     -999.2500       65.9000        5.5348        5.1450        4.0644     -999.2500     -999.2500       95.1000 
   494.233030     -999.2500       64.4000        5.2876        5.0044        3.3190     -999.2500     -999.2500       95.3000 
   494.385454     -999.2500       61.0000        5.0360        4.7529        3.2584     -999.2500     -999.2500       95.8000 
   494.537878     -999.2500       57.8000        4.8033        4.4274        3.3884     -999.2500     -999.2500       95.9000 
