~Version
VERS.           2.0   :CWLS Log ASCII Standard - VERSION 2.0
WRAP.           NO   :One line per index step
~Well
#  MNEM.UNIT                             DATA:  DESCRIPTION      
#-----------             ---------------------  -----------------
STRT  .M        148.2850                     : START INDEX
STOP  .M        995.9338                     : STOP INDEX
STEP  .M          0.1524                     : STEP
NULL  .       -999.25                        : NULL VALUE
COMP  .                                      : COMPANY
WELL  .       AD-3                           : WELL
FLD   .       AD                             : FIELD
LOC   .                                      : LOCATION
PROV  .                                      : PROVINCE
CNTY  .                                      : COUNTY
STAT  .                                      : STATE
CTRY  .                                      : COUNTRY
SRVC  .                                      : SERVICE COMPANY
API   .                                      : API NUMBER
UWI   .       AD-3		                     : UNIQUE WELL ID
LATI  .DEG                                   : LATITUDE
LONG  .DEG                                   : LONGITUDE
~Curve
#  MNEM.UNIT                        LOG CODES:  CURVE DESCRIPTION
#-----------             ---------------------  -----------------
DEPT  .M                                     : Depth Index
CALI  .IN                                    : 
GR    .GAPI                                  : 
ILD   .ohmm                                  : 
ILM   .ohmm                                  : 
LL3   .ohmm                                  : 
NPHI  .M3M3                                  : 
RHOB  .G/C3                                  : 
SP    .MV                                    : 
#
#----------------------------------------------------------------------------------------------------------
# DEPT        CALI        GR          ILD         ILM         LL3         NPHI        RHOB        SP          
# 
~Ascii
# ...
   486.6130   -999.2500     43.3385      7.3484      7.1628      6.3366   -999.2500   -999.2500    120.4594 
   486.7654   -999.2500     44.2877      6.8481      6.8758      6.3647   -999.2500   -999.2500    120.6193 
   486.9178   -999.2500     46.0887      6.5003      6.5108      6.7284   -999.2500   -999.2500    120.8794 
   487.0702   -999.2500     47.8691      6.1366      6.0848      6.9959   -999.2500   -999.2500    121.4432 
   487.2226   -999.2500     49.9139      5.7570      5.6166      6.7955   -999.2500   -999.2500    122.3111 
   487.3750   -999.2500     50.5783      5.3880      5.1509      6.3536   -999.2500   -999.2500    123.4602 
   487.5274   -999.2500     50.3627      5.0341      4.7114      5.8059   -999.2500   -999.2500    124.3633 
   487.6798   -999.2500     50.9853      4.6952      4.3107      4.8841   -999.2500   -999.2500    125.8161 
   487.8322   -999.2500     53.6440      4.3894      4.0020      4.1215   -999.2500   -999.2500    127.6134 
   487.9846   -999.2500     60.0593      4.1034      3.7442      3.7249   -999.2500   -999.2500    129.0776 
   488.1370   -999.2500     66.8742      3.8372      3.5234      3.5142   -999.2500   -999.2500    130.2894 
   488.2894   -999.2500     70.8247      3.6158      3.3361      3.3397   -999.2500   -999.2500    131.5626 
   488.4418   -999.2500     71.5803      3.4214      3.1105      3.2545   -999.2500   -999.2500    132.1334 
   488.5942   -999.2500     71.2043      3.2541      2.9252      3.1775   -999.2500   -999.2500    132.4859 
   488.7466   -999.2500     68.5645      3.0528      2.7715      3.0987   -999.2500   -999.2500    132.8519 
   488.8990   -999.2500     68.3245      2.9653      2.6918      3.1213   -999.2500   -999.2500    133.1325 
   489.0514   -999.2500     68.7659      2.9614      2.6893      3.1957   -999.2500   -999.2500    132.8763 
   489.2038   -999.2500     68.3471      3.0501      2.7452      3.2646   -999.2500   -999.2500    132.2907 
   489.3562   -999.2500     68.9362      3.2440      2.8424      3.3521   -999.2500   -999.2500    131.8027 
   489.5086   -999.2500     69.4087      3.5691      2.9882      3.7286   -999.2500   -999.2500    131.1195 
   489.6610   -999.2500     68.3524      3.9168      3.2439      4.3348   -999.2500   -999.2500    131.0219 
   489.8134   -999.2500     66.5203      4.3312      3.7371      4.9868   -999.2500   -999.2500    131.0097 
   489.9658   -999.2500     64.0789      4.7983      4.4189      5.8855   -999.2500   -999.2500    129.9733 
   490.1182   -999.2500     61.7522      5.3141      5.1879      7.1668   -999.2500   -999.2500    128.5301 
   490.2706   -999.2500     59.9743      5.8456      5.8953      7.5842   -999.2500   -999.2500    127.1183 
   490.4230   -999.2500     58.1440      6.3038      6.4443      7.4572   -999.2500   -999.2500    125.7939 
   490.5754   -999.2500     56.2519      6.5470      6.7698      7.4190   -999.2500   -999.2500    123.8943 
   490.7278   -999.2500     52.9457      6.4669      6.7093      7.4187   -999.2500   -999.2500    122.4649 
   490.8802   -999.2500     50.1045      6.1273      6.2304      6.6206   -999.2500   -999.2500    121.6523 
   491.0326   -999.2500     50.6874      5.7330      5.5185      6.0665   -999.2500   -999.2500    121.5242 
   491.1850   -999.2500     51.7910      5.4224      4.8799      5.5338   -999.2500   -999.2500    122.2318 
   491.3374   -999.2500     54.2491      5.2289      4.5029      5.1026   -999.2500   -999.2500    123.4091 
   491.4898   -999.2500     54.7938      5.1127      4.4118      4.6259   -999.2500   -999.2500    124.3851 
   491.6422   -999.2500     52.6623      5.0118      4.5283      4.5904   -999.2500   -999.2500    125.5502 
   491.7946   -999.2500     48.2298      4.9097      4.7114      4.8853   -999.2500   -999.2500    124.3851 
   491.9470   -999.2500     44.0289      4.8569      4.8222      5.3328   -999.2500   -999.2500    122.3355 
   492.0994   -999.2500     38.6794      4.9150      4.8440      5.4145   -999.2500   -999.2500    121.1399 
   492.2518   -999.2500     36.7168      5.0855      4.8732      5.1708   -999.2500   -999.2500    120.7495 
   492.4042   -999.2500     37.4665      5.2978      4.9790      4.9567   -999.2500   -999.2500    121.1643 
   492.5566   -999.2500     39.4624      5.4597      5.1388      4.9361   -999.2500   -999.2500    121.8475 
   492.7090   -999.2500     42.0796      5.5464      5.2896      4.9865   -999.2500   -999.2500    122.6283 
   492.8614   -999.2500     42.9433      5.6117      5.3984      5.0902   -999.2500   -999.2500    122.5246 
   493.0138   -999.2500     42.8209      5.7180      5.4904      5.3466   -999.2500   -999.2500    122.1159 
   493.1662   -999.2500     43.3722      5.8449      5.5977      5.5748   -999.2500   -999.2500    122.1403 
   493.3186   -999.2500     45.6149      5.9809      5.7430      5.6324   -999.2500   -999.2500    122.4331 
   493.4710   -999.2500     47.8556      6.0956      5.8943      5.6637   -999.2500   -999.2500    122.5516 
   493.6234   -999.2500     50.5213      6.1670      6.0179      5.7824   -999.2500   -999.2500    122.0638 
   493.7758   -999.2500     53.3360      6.1851      6.0873      5.8904   -999.2500   -999.2500    121.5025 
   493.9282   -999.2500     55.6369      6.1508      6.0633      5.9719   -999.2500   -999.2500    121.2375 
   494.0806   -999.2500     58.1760      6.0720      5.9112      5.9634   -999.2500   -999.2500    121.0162 
   494.2330   -999.2500     59.3084      5.9573      5.6597      5.8441   -999.2500   -999.2500    120.9673 
   494.3854   -999.2500     60.0302      5.8125      5.4780      5.6051   -999.2500   -999.2500    121.6279 
   494.5378   -999.2500     60.8308      5.6547      5.3011      5.3592   -999.2500   -999.2500    122.7770 
   494.6902   -999.2500     63.0275      5.4795      5.1293      5.1254   -999.2500   -999.2500    124.3579 
   494.8426   -999.2500     64.9088      5.2933      4.9642      4.8692   -999.2500   -999.2500    125.4644 
   494.9950   -999.2500     67.0276      5.1059      4.8020      4.7002   -999.2500   -999.2500    125.9954 
   495.1474   -999.2500     69.5814      4.9312      4.6428      4.5748   -999.2500   -999.2500    126.3478 
   495.2998   -999.2500     72.4901      4.8007      4.4887      4.3997   -999.2500   -999.2500    126.7762 
   495.4522   -999.2500     76.1700      4.7144      4.3510      4.3208   -999.2500   -999.2500    127.1991 
   495.6046   -999.2500     78.3672      4.6713      4.2433      4.3085   -999.2500   -999.2500    127.5190 
   495.7570   -999.2500     79.3207      4.6658      4.1692      4.5379   -999.2500   -999.2500    127.8011 
   495.9094   -999.2500     78.2857      4.6882      4.1344      5.0088   -999.2500   -999.2500    127.3863 
   496.0618   -999.2500     76.2975      4.7194      4.2421      5.2126   -999.2500   -999.2500    126.8251 
   496.2142   -999.2500     73.9535      4.7363      4.4587      5.2568   -999.2500   -999.2500    126.3371 
   496.3666   -999.2500     71.6739      4.7304      4.6765      5.2248   -999.2500   -999.2500    126.1175 
   496.5190   -999.2500     69.9348      4.6974      4.7772      4.9569   -999.2500   -999.2500    126.9227 
   496.6714   -999.2500     70.5004      4.6343      4.6954      4.3466   -999.2500   -999.2500    127.6059 
   496.8238   -999.2500     73.3886      4.5375      4.4634      4.0397   -999.2500   -999.2500    128.2891 
   496.9762   -999.2500     76.2622      4.4036      4.2808      3.7965   -999.2500   -999.2500    128.6551 
   497.1286   -999.2500     80.0492      4.2336      4.0894      3.5683   -999.2500   -999.2500    129.1518 
   497.2810   -999.2500     80.7163      4.0423      3.8969      3.3910   -999.2500   -999.2500    129.7041 
   497.4334   -999.2500     80.8648      3.8519      3.6477      3.3863   -999.2500   -999.2500    130.1080 
   497.5858   -999.2500     83.1745      3.6813      3.2226      3.4225   -999.2500   -999.2500    129.9661 
   497.7382   -999.2500     86.2278      3.5402      3.1160      3.4542   -999.2500   -999.2500    129.8707 
