~Version
VERS.           2.0   :CWLS Log ASCII Standard - VERSION 2.0
WRAP.           NO   :One line per index step
~Well
#  MNEM.UNIT                             DATA:  DESCRIPTION      
#-----------             ---------------------  -----------------
STRT  .M        131.9780                     : START INDEX
STOP  .M       1012.2404                     : STOP INDEX
STEP  .M          0.1524                     : STEP
NULL  .       -999.25                        : NULL VALUE
COMP  .                                      : COMPANY
WELL  .       AB-1                           : WELL
FLD   .       AB                       : FIELD
LOC   .                                      : LOCATION
PROV  .                                      : PROVINCE
CNTY  .                                      : COUNTY
STAT  .                                      : STATE
CTRY  .                                      : COUNTRY
SRVC  .                                      : SERVICE COMPANY
API   .                                      : API NUMBER
UWI   .       AB-1		                     : UNIQUE WELL ID
LATI  .DEG                                   : LATITUDE
LONG  .DEG                                   : LONGITUDE
~Curve
#  MNEM.UNIT                        LOG CODES:  CURVE DESCRIPTION
#-----------             ---------------------  -----------------
DEPT  .M                                     : Depth Index
CALI  .IN                                    : 
GR    .GAPI                                  : 
ILD   .ohmm                                  : 
ILM   .ohmm                                  : 
NPHI  .M3M3                                  : 
RHOB  .G/C3                                  : 
SP    .MV                                    : 
LL3   .ohmm                                  : 
#
#----------------------------------------------------------------------------------------------------------------------------
# DEPT          CALI          GR            ILD           ILM           NPHI          RHOB          SP            LL3           
# 
~Ascii
# ...
   362.406868     -999.2500       61.1000        5.7743        5.0816        0.4769     -999.2500       89.2019        5.3703 
   362.559292     -999.2500       57.4000        5.6319        4.9317        0.4575     -999.2500       89.2884        5.3580 
   362.711616     -999.2500       56.0000        5.4886        4.7863        0.4398     -999.2500       88.8806        5.2966 
   362.864040     -999.2500       58.1000        5.3576        4.6774        0.4379     -999.2500       88.3951        5.1880 
   363.016464     -999.2500       60.4000        5.2509        4.5920        0.4510     -999.2500       88.2942        5.0583 
   363.168888     -999.2500       60.8000        5.1709        4.5499        0.4670     -999.2500       88.2204        4.8978 
   363.321212     -999.2500       60.7000        5.1165        4.5186        0.4740     -999.2500       88.5156        4.8084 
   363.473636     -999.2500       62.7000        5.0960        4.5290        0.4675     -999.2500       88.6912        4.7534 
   363.626060     -999.2500       66.9000        5.1119        4.5709        0.4495     -999.2500       88.5805        4.7315 
   363.778484     -999.2500       70.7000        5.1455        4.6238        0.4345     -999.2500       88.3680        4.7206 
   363.930808     -999.2500       73.0000        5.1818        4.6666        0.4374     -999.2500       88.0883        4.7753 
   364.083232     -999.2500       73.5000        5.2489        4.6989        0.4565     -999.2500       88.0000        4.8306 
   364.235656     -999.2500       70.8000        5.3338        4.7315        0.4730     -999.2500       87.9864        4.8641 
   364.388080     -999.2500       64.9000        5.4330        4.7643        0.4705     -999.2500       87.9000        4.9204 
   364.540404     -999.2500       58.3000        5.5357        4.8529        0.4495     -999.2500       87.9310        4.9545 
   364.692828     -999.2500       54.8000        5.6286        4.9545        0.4211     -999.2500       88.1165        4.9545 
   364.845252     -999.2500       54.7000        5.6849        5.0583        0.3989     -999.2500       88.2000        4.9431 
   364.997676     -999.2500       55.5000        5.7510        5.1067        0.3938     -999.2500       88.2000        4.9204 
   365.150000     -999.2500       54.9000        5.8447        5.1270        0.4009     -999.2500       88.2000        4.9889 
   365.302424     -999.2500       52.5000        5.9953        5.2037        0.4055     -999.2500       88.1796        5.2120 
   365.454848     -999.2500       50.6000        6.2087        5.3925        0.4065     -999.2500       88.0145        5.2481 
   365.607272     -999.2500       50.2000        6.4323        5.7243        0.4136     -999.2500       87.5883        5.2120 
   365.759696     -999.2500       50.9000        6.6500        6.2025        0.4201     -999.2500       87.0836        5.2602 
   365.912020     -999.2500       52.1000        6.7772        6.6222        0.4101     -999.2500       86.7485        5.2120 
   366.064444     -999.2500       53.5000        6.7920        6.6528        0.3876     -999.2500       86.9252        4.9774 
   366.216868     -999.2500       54.7000        6.6806        6.2806        0.3757     -999.2500       87.1049        5.2966 
   366.369292     -999.2500       55.1000        6.5036        5.8010        0.3757     -999.2500       87.4544        6.2661 
   366.521616     -999.2500       54.7000        6.3091        5.3202        0.3715     -999.2500       87.5436        6.8865 
   366.674040     -999.2500       55.0000        6.1359        4.9241        0.3637     -999.2500       87.3708        7.1945 
   366.826464     -999.2500       56.2000        5.9840        4.6725        0.3700     -999.2500       87.3000        7.4645 
   366.978888     -999.2500       60.3000        5.8403        4.5814        0.3974     -999.2500       87.5488        7.1945 
   367.131212     -999.2500       67.6000        5.6855        4.6170        0.4320     -999.2500       88.4848        6.1518 
   367.283636     -999.2500       75.0000        5.5114        4.7002        0.4630     -999.2500       89.3661        5.2845 
   367.436060     -999.2500       79.4000        5.3491        4.7352        0.4848     -999.2500       89.5000        4.7753 
   367.588484     -999.2500       78.2000        5.2564        4.6774        0.4839     -999.2500       89.3601        4.6989 
   367.740808     -999.2500       72.9000        5.2996        4.6015        0.4565     -999.2500       88.7050        4.8978 
   367.893232     -999.2500       67.0000        5.5102        4.6333        0.4206     -999.2500       87.5205        5.2240 
   368.045656     -999.2500       64.4000        5.8411        4.7935        0.3969     -999.2500       86.6621        5.4076 
   368.198080     -999.2500       65.2000        6.2108        5.0725        0.3943     -999.2500       86.4058        5.3580 
   368.350404     -999.2500       67.1000        6.5409        5.4401        0.4055     -999.2500       85.9407        5.1168 
   368.502828     -999.2500       69.1000        6.8180        5.8514        0.4126     -999.2500       85.9447        4.9889 
   368.655252     -999.2500       69.8000        7.1028        6.2635        0.4101     -999.2500       87.0098        5.0933 
   368.807676     -999.2500       66.9000        7.4531        6.6462        0.4080     -999.2500       88.0000        5.4828 
   368.960000     -999.2500       60.7000        7.9079        6.9810        0.4176     -999.2500       88.1748        6.1660 
   369.112424     -999.2500       54.7000        8.3526        7.2559        0.4276     -999.2500       88.4000        6.6681 
   369.264848     -999.2500       50.6000        8.7297        7.4817        0.4216     -999.2500       88.4913        6.7608 
   369.417272     -999.2500       49.3000        8.8968        7.6208        0.4035     -999.2500       88.6000        6.7764 
   369.569696     -999.2500       50.8000        8.8955        7.6736        0.3912     -999.2500       88.5524        6.7143 
   369.722020     -999.2500       51.9000        8.7864        7.6208        0.3907     -999.2500       88.4029        6.5313 
   369.874444     -999.2500       51.3000        8.6579        7.4990        0.3958     -999.2500       88.3495        6.3974 
   370.026868     -999.2500       50.5000        8.5313        7.3791        0.4030     -999.2500       88.4000        6.3680 
   370.179292     -999.2500       51.7000        8.4158        7.2778        0.4080     -999.2500       88.4514        6.2951 
   370.331616     -999.2500       54.5000        8.3330        7.2111        0.4075     -999.2500       88.4476        6.2374 
   370.484040     -999.2500       56.3000        8.2806        7.1759        0.4050     -999.2500       88.4534        6.2087 
   370.636464     -999.2500       57.4000        8.2328        7.1626        0.4030     -999.2500       88.6631        6.2087 
   370.788888     -999.2500       58.3000        8.2009        7.1630        0.4009     -999.2500       88.9660        6.2230 
   370.941212     -999.2500       58.8000        8.1858        7.1762        0.3946     -999.2500       89.2690        6.2661 
   371.093636     -999.2500       60.1000        8.2030        7.2132        0.3864     -999.2500       89.5719        6.2806 
   371.246060     -999.2500       62.2000        8.2203        7.2714        0.3827     -999.2500       89.9913        6.2951 
   371.398484     -999.2500       62.8000        8.2680        7.3350        0.3807     -999.2500       90.4369        6.3387 
   371.550808     -999.2500       60.2000        8.3204        7.3966        0.3755     -999.2500       90.4195        6.3680 
   371.703232     -999.2500       55.4000        8.3731        7.4509        0.3718     -999.2500       89.9942        6.4566 
   371.855656     -999.2500       52.3000        8.4157        7.4907        0.3750     -999.2500       89.4272        6.5163 
