~Version
VERS.           2.0   :CWLS Log ASCII Standard - VERSION 2.0
WRAP.           NO   :One line per index step
~Well
#  MNEM.UNIT                             DATA:  DESCRIPTION      
#-----------             ---------------------  -----------------
STRT  .M        149.0470                     : START INDEX
STOP  .M       1003.7062                     : STOP INDEX
STEP  .M          0.1524                     : STEP
NULL  .       -999.25                        : NULL VALUE
COMP  .                                      : COMPANY
WELL  .       AC-2                           : WELL
FLD   .       AC                             : FIELD
LOC   .                                      : LOCATION
PROV  .                                      : PROVINCE
CNTY  .                                      : COUNTY
STAT  .                                      : STATE
CTRY  .                                      : COUNTRY
SRVC  .                                      : SERVICE COMPANY
API   .                                      : API NUMBER
UWI   .       AC-2		                     : UNIQUE WELL ID
LATI  .DEG                                   : LATITUDE
LONG  .DEG                                   : LONGITUDE
~Curve
#  MNEM.UNIT                        LOG CODES:  CURVE DESCRIPTION
#-----------             ---------------------  -----------------
DEPT  .M                                     : Depth Index
CALI  .IN                                    : 
GR    .GAPI                                  : 
ILD   .ohmm                                  : 
ILM   .ohmm                                  : 
LLG3  .ohmm                                  : 
NPHI  .M3M3                                  : 
RHOB  .G/C3                                  : 
SP    .MV                                    : 
#
#----------------------------------------------------------------------------------------------------------------------------
# DEPT          CALI          GR            ILD           ILM           LLG3          NPHI          RHOB          SP            
# 
~Ascii
# ...
   993.952626        8.6900       40.6000        2.1827        2.2398        2.2233        0.2725        2.1880       38.7161 
   994.105050        8.6900       45.8000        2.1928        2.2389        2.3496        0.2860        2.1860       39.1935 
   994.257474        8.6800       52.3000        2.2080        2.2393        2.1528        0.3093        2.1850       39.8838 
   994.409898        8.6800       57.6000        2.2336        2.2452        2.1577        0.3378        2.1880       40.9417 
   994.562222        8.6700       60.2000        2.2803        2.2616        2.2387        0.3707        2.1960       42.7641 
   994.714646        8.6900       59.7000        2.3388        2.2901        2.2856        0.4139        2.2040       45.7703 
   994.867070        8.8300       57.7000        2.4099        2.3293        2.3659        0.4668        2.1950       50.1215 
   995.019494        8.9500       57.0000        2.5003        2.3782        2.1777        0.5208        2.1630       53.9941 
   995.171818        9.1000       58.5000        2.6122        2.4399        2.0324        0.5528        2.1360       55.5194 
   995.324242        9.0100       60.1000        2.7290        2.5919        2.3227        0.5634        2.1540       55.6419 
   995.476666        9.1400       60.3000        2.8642        2.7582        2.3388        0.5654        2.2260       55.2322 
   995.629090        9.1700       59.0000        2.9923        2.9387        2.4491        0.5634        2.3220       54.4192 
   995.781414        9.0500       52.8000        3.1117        3.1127        2.4774        0.5514        2.4110       53.4224 
   995.933838        9.1400       43.7000        3.2137        3.2637        2.7416        0.5212        2.4890       52.5322 
   996.086262        9.7600       42.1000        3.2961        3.3857        2.7606        0.4768        2.5370       51.6321 
   996.238686        9.9800       50.7000        3.3651        3.4835        2.6002        0.4354        2.5270       50.1611 
   996.391010        9.2800       62.0000        3.3963        3.5402        2.6242        0.4031        2.4730       47.9450 
   996.543434        9.2000        0.0000        3.3729        3.5928        2.6485        0.3831        2.4370       44.8998 
   996.695858        9.1700        0.0000        3.2734        3.5558        2.9854        0.3772        2.4580       42.0482 
   996.848282        8.8500        0.0000        3.1046        3.3147        3.5727        0.3810        2.4910       39.8032 
   997.000606        8.8200        0.0000        2.9107        2.9241        2.8907        0.3874        2.4520       38.2903 
   997.153030        8.7000        0.0000        2.7290        2.5474        2.5645        0.4098        2.3430       37.4258 
   997.305454        8.5600        0.0000        2.5823        2.3100        2.2594        0.4624        2.2350       37.4000 
   997.457878        8.4400        0.0000        2.4547        2.2067        2.1528        0.5403        2.1710       37.6000 
   997.610202        8.6200        0.0000        2.3496        2.1682        2.0989        0.5974        2.1430       38.1000 
   997.762626        8.6100        0.0000        2.2751        2.1534        2.1827        0.6054        2.1360       39.1000 
   997.915050        8.7600        0.0000        2.2336        2.1839        2.1928        0.5893        2.1520       40.2000 
   998.067474        8.5600        0.0000        2.2491        2.2677        2.2131        0.5788        2.2010       41.0000 
   998.219898        8.8400        0.0000        2.3174        2.3945        2.3388       -0.0332        2.2810       41.5000 
   998.372222        9.2500        0.0000        2.3878        2.5351        2.2233       -0.0332        2.3500       42.0000 
   998.524646        9.1200        0.0000        2.2699        2.6773        2.3121       -0.0332        2.3380       42.6000 
   998.677070        9.6000        0.0000        2.2856        2.8308        2.5763       -0.0332        2.2380       44.3000 
   998.829494       10.6300        0.0000        2.2909        3.0647        2.3174       -0.0332        2.1330       42.9000 
   998.981818       10.9100        0.0000        2.2909        3.3198        2.0941       -0.0332        2.0920       43.0000 
   999.134242        9.7300        0.0000        2.2856        3.4256        2.2803       -0.0332        2.1320       43.0000 
   999.286666        9.3200        0.0000        2.2803        3.4514        2.4434       -0.0332        2.2310       42.9000 
   999.439090        9.1700        0.0000        2.2803        3.4572        2.6977       -0.0332        2.3450       42.9000 
   999.591414        8.7900        0.0000        2.4889        3.4630        2.8510       -0.0332        2.4120       42.9000 
   999.743838        8.7900        0.0000        2.4946        3.4659        3.0130       -0.0332        2.4180       41.0000 
   999.896262        8.6200        0.0000        2.4210        3.4601        2.4044       -0.0332        2.4250        0.0000 
  1000.048686        8.4400        0.0000        2.2131        3.4543        2.9242       -0.0332        2.4900        0.0000 
  1000.201010        8.3800        0.0000        1.9861        3.4486        4.6989       -0.0332        2.5720        0.0000 
  1000.353434        8.0000        0.0000        1.8493        3.4493        3.9355       -0.0332        2.5650        0.0000 
  1000.505858        7.9500        0.0000      309.7451        3.4959        2.8119       -0.0332        2.4300        0.0000 
  1000.658282        0.0000        0.0000      299.2293        3.4089        2.5645       -0.0332        2.2530        0.0000 
  1000.810606        0.0000        0.0000      254.1000        3.2023        2.4434       -0.0332        2.1430        0.0000 
  1000.963030        0.0000        0.0000      177.4199        2.8708        2.4044       -0.0332        2.1100        0.0000 
  1001.115454     -999.2500        0.0000      126.7661        2.4099        2.3988     -999.2500        2.1070        0.0000 
  1001.267878     -999.2500        0.0000      105.4392        2.1086        2.3442     -999.2500     -999.2500        0.0000 
  1001.420202     -999.2500        0.0000   100002.4062      395.3701        2.3659     -999.2500     -999.2500        0.0000 
  1001.572626     -999.2500        0.0000   100002.4062      372.3959        2.3281     -999.2500     -999.2500        0.0000 
  1001.725050     -999.2500        0.0000   100002.4062      361.4138        2.3605     -999.2500     -999.2500        0.0000 
  1001.877474     -999.2500        0.0000   100002.4062      357.2774        2.3714     -999.2500     -999.2500        0.0000 
  1002.029898     -999.2500        0.0000   100002.4062      357.2774        2.3714     -999.2500     -999.2500        0.0000 
  1002.182222     -999.2500        0.0000   100002.4062      357.2774        2.3496     -999.2500     -999.2500        0.0000 
  1002.334646     -999.2500        0.0000   100002.4062      322.1106        2.3496     -999.2500     -999.2500        0.0000 
  1002.487070     -999.2500        0.0000        1.0000      248.8886        2.3335     -999.2500     -999.2500        0.0000 
  1002.639494     -999.2500        0.0000        1.0000      189.2353        2.3551     -999.2500     -999.2500        0.0000 
  1002.791818     -999.2500        0.0000        1.0000      156.3157        1.0000     -999.2500     -999.2500        0.0000 
  1002.944242     -999.2500        0.0000        1.0000   100002.4062        1.0000     -999.2500     -999.2500        0.0000 
  1003.096666     -999.2500        0.0000        1.0000   100002.4062        1.0000     -999.2500     -999.2500        0.0000 
  1003.249090     -999.2500        0.0000        1.0000   100002.4062        1.0000     -999.2500     -999.2500        0.0000 
  1003.401414     -999.2500        0.0000        1.0000   100002.4062        1.0000     -999.2500     -999.2500        0.0000 
