~Version
VERS.           2.0   :CWLS Log ASCII Standard - VERSION 2.0
WRAP.           NO   :One line per index step
~Well
#  MNEM.UNIT                             DATA:  DESCRIPTION      
#-----------             ---------------------  -----------------
STRT  .M        148.2850                     : START INDEX
STOP  .M        995.9338                     : STOP INDEX
STEP  .M          0.1524                     : STEP
NULL  .       -999.25                        : NULL VALUE
COMP  .                                      : COMPANY
WELL  .       AD-3                           : WELL
FLD   .       AD                             : FIELD
LOC   .                                      : LOCATION
PROV  .                                      : PROVINCE
CNTY  .                                      : COUNTY
STAT  .                                      : STATE
CTRY  .                                      : COUNTRY
SRVC  .                                      : SERVICE COMPANY
API   .                                      : API NUMBER
UWI   .       AD-3		                     : UNIQUE WELL ID
LATI  .DEG                                   : LATITUDE
LONG  .DEG                                   : LONGITUDE
~Curve
#  MNEM.UNIT                        LOG CODES:  CURVE DESCRIPTION
#-----------             ---------------------  -----------------
DEPT  .M                                     : Depth Index
CALI  .IN                                    : 
GR    .GAPI                                  : 
ILD   .ohmm                                  : 
ILM   .ohmm                                  : 
LL3   .ohmm                                  : 
NPHI  .M3M3                                  : 
RHOB  .G/C3                                  : 
SP    .MV                                    : 
#
#----------------------------------------------------------------------------------------------------------
# DEPT        CALI        GR          ILD         ILM         LL3         NPHI        RHOB        SP          
# 
~Ascii
# ...
   543.0010   -999.2500     92.7264      2.0255      1.9013      2.4062   -999.2500   -999.2500    129.9092 
   543.1534   -999.2500     93.7255      2.0215      1.9028      2.3899   -999.2500   -999.2500    129.8995 
   543.3058   -999.2500     96.5944      2.0141      1.9051      2.3817   -999.2500   -999.2500    129.7921 
   543.4582   -999.2500     96.9127      2.0054      1.9049      2.3708   -999.2500   -999.2500    129.6555 
   543.6106   -999.2500     96.2423      1.9974      1.9001      2.3627   -999.2500   -999.2500    129.6360 
   543.7630   -999.2500     95.1170      1.9912      1.8875      2.3580   -999.2500   -999.2500    129.5725 
   543.9154   -999.2500     94.1863      1.9851      1.8736      2.3578   -999.2500   -999.2500    129.4652 
   544.0678   -999.2500     94.1757      1.9775      1.8626      2.3744   -999.2500   -999.2500    129.3822 
   544.2202   -999.2500     96.1411      1.9682      1.8570      2.4151   -999.2500   -999.2500    129.4603 
   544.3726   -999.2500     94.2331      1.9601      1.8538      2.4527   -999.2500   -999.2500    129.6750 
   544.5250   -999.2500     93.2349      1.9591      1.8522      2.6231   -999.2500   -999.2500    129.6116 
   544.6774   -999.2500     90.7887      1.9741      1.8577      2.8479   -999.2500   -999.2500    129.4164 
   544.8298   -999.2500     89.7977      2.0135      1.8803      3.0624   -999.2500   -999.2500    129.2236 
   544.9822   -999.2500     91.1554      2.0814      1.9357      3.2659   -999.2500   -999.2500    129.1553 
   545.1346   -999.2500     94.1111      2.1767      2.0371      3.4350   -999.2500   -999.2500    129.0089 
   545.2870   -999.2500     95.6482      2.2922      2.1863      3.5177   -999.2500   -999.2500    128.9577 
   545.4394   -999.2500     98.7004      2.4216      2.3682      3.5374   -999.2500   -999.2500    129.0356 
   545.5918   -999.2500     98.4919      2.5664      2.5547      3.5451   -999.2500   -999.2500    129.2016 
   545.7442   -999.2500     97.9787      2.7336      2.7254      3.6845   -999.2500   -999.2500    129.3383 
   545.8966   -999.2500     95.8583      2.9243      2.8603      3.8469   -999.2500   -999.2500    129.0455 
   546.0490   -999.2500     92.0027      3.1272      2.9885      3.9274   -999.2500   -999.2500    128.6551 
   546.2014   -999.2500     85.9457      3.3187      3.1175      4.0054   -999.2500   -999.2500    127.8743 
   546.3538   -999.2500     82.1822      3.4768      3.2492      4.0334   -999.2500   -999.2500    127.1911 
   546.5062   -999.2500     79.3168      3.5935      3.3804      3.9691   -999.2500   -999.2500    126.9227 
   546.6586   -999.2500     78.9425      3.6672      3.5037      3.8265   -999.2500   -999.2500    126.9227 
   546.8110   -999.2500     78.9845      3.7000      3.6064      3.6264   -999.2500   -999.2500    126.9227 
   546.9634   -999.2500     81.4097      3.6920      3.6699      3.4281   -999.2500   -999.2500    126.6299 
   547.1158   -999.2500     84.4411      3.6427      3.6780      3.3688   -999.2500   -999.2500    126.4042 
   547.2682   -999.2500     87.4147      3.5720      3.6106      3.3005   -999.2500   -999.2500    126.1419 
   547.4206   -999.2500     87.5750      3.5064      3.4748      3.4186   -999.2500   -999.2500    125.3489 
   547.5730   -999.2500     84.7325      3.4737      3.3069      3.8430   -999.2500   -999.2500    124.9463 
   547.7254   -999.2500     81.2110      3.4730      3.1655      4.1915   -999.2500   -999.2500    125.0317 
   547.8778   -999.2500     78.7763      3.4918      3.1033      4.2787   -999.2500   -999.2500    125.1659 
   548.0302   -999.2500     78.6311      3.5104      3.1467      4.1825   -999.2500   -999.2500    125.4343 
   548.1826   -999.2500     79.9774      3.5249      3.2916      3.9931   -999.2500   -999.2500    125.4587 
   548.3350   -999.2500     82.3369      3.5393      3.4861      3.7704   -999.2500   -999.2500    125.7332 
   548.4874   -999.2500     83.4833      3.5675      3.6446      3.7275   -999.2500   -999.2500    126.4347 
   548.6398   -999.2500     82.8016      3.6188      3.6532      3.7004   -999.2500   -999.2500    126.7275 
   548.7922   -999.2500     81.3651      3.6857      3.5615      3.7553   -999.2500   -999.2500    126.8251 
   548.9446   -999.2500     80.8739      3.7432      3.4886      3.9108   -999.2500   -999.2500    127.0142 
   549.0970   -999.2500     83.0540      3.7704      3.4852      4.0602   -999.2500   -999.2500    126.9959 
   549.2494   -999.2500     86.7380      3.7649      3.5157      3.9884   -999.2500   -999.2500    127.0081 
   549.4018   -999.2500     89.2152      3.7451      3.5408      3.9760   -999.2500   -999.2500    127.3741 
   549.5542   -999.2500     87.4132      3.7340      3.5773      3.9688   -999.2500   -999.2500    127.7767 
   549.7066   -999.2500     84.4292      3.7407      3.6450      3.8273   -999.2500   -999.2500    127.8987 
   549.8590   -999.2500     81.1739      3.7549      3.7071      3.5603   -999.2500   -999.2500    127.6059 
   550.0114   -999.2500     80.0030      3.7568      3.6953      3.3949   -999.2500   -999.2500    127.0203 
   550.1638   -999.2500     81.2085      3.7368      3.6020      3.3455   -999.2500   -999.2500    127.0203 
   550.3162   -999.2500     83.9811      3.6979      3.4777      3.2945   -999.2500   -999.2500    127.0081 
   550.4686   -999.2500     87.1445      3.6455      3.3739      3.2785   -999.2500   -999.2500    126.9227 
   550.6210   -999.2500     90.7671      3.5755      3.2945      3.2193   -999.2500   -999.2500    126.3249 
   550.7734   -999.2500     94.1972      3.4856      3.2204      3.1751   -999.2500   -999.2500    126.0199 
   550.9258   -999.2500     96.9846      3.3795      3.1356      3.1291   -999.2500   -999.2500    126.4103 
   551.0782   -999.2500     99.5134      3.2741      3.0436      3.2250   -999.2500   -999.2500    127.5815 
   551.2306   -999.2500    100.3520      3.1910      2.9594      3.4721   -999.2500   -999.2500    128.2525 
   551.3830   -999.2500    100.5023      3.1491      2.9011      3.9051   -999.2500   -999.2500    128.4843 
   551.5354   -999.2500    101.8956      3.1612      2.8881      4.3048   -999.2500   -999.2500    128.5575 
   551.6878   -999.2500    102.5096      3.2287      2.9417      4.6282   -999.2500   -999.2500    128.7710 
   551.8402   -999.2500    106.0011      3.3412      3.0789      4.7458   -999.2500   -999.2500    129.0699 
   551.9926   -999.2500    108.9952      3.4792      3.2556      4.6033   -999.2500   -999.2500    129.0699 
   552.1450   -999.2500    110.4552      3.6201      3.4639      4.2937   -999.2500   -999.2500    129.0699 
   552.2974   -999.2500    109.5542      3.7544      3.6784      4.0696   -999.2500   -999.2500    129.0699 
   552.4498   -999.2500    107.6112      3.8870      3.8719      3.9289   -999.2500   -999.2500    128.5819 
   552.6022   -999.2500    103.5887      4.0261      4.0155      3.9164   -999.2500   -999.2500    127.9719 
   552.7546   -999.2500    102.6956      4.1615      4.0686      4.0319   -999.2500   -999.2500    126.9227 
   552.9070   -999.2500    100.8654      4.2655      4.0727      4.1800   -999.2500   -999.2500    125.9101 
   553.0594   -999.2500     99.9476      4.3092      4.0480      4.2603   -999.2500   -999.2500    125.5319 
   553.2118   -999.2500     97.9841      4.2931      4.0114      4.3162   -999.2500   -999.2500    125.6295 
   553.3642   -999.2500     95.6667      4.2464      3.9772      4.3197   -999.2500   -999.2500    125.6539 
   553.5166   -999.2500     92.5969      4.2060      3.9482      4.2833   -999.2500   -999.2500    125.5563 
   553.6690   -999.2500     91.7227      4.1944      3.9368      4.2975   -999.2500   -999.2500    125.5319 
   553.8214   -999.2500     90.9424      4.2132      3.9444      4.2940   -999.2500   -999.2500    125.4587 
   553.9738   -999.2500     92.6467      4.2515      3.9719      4.2156   -999.2500   -999.2500    125.2635 
   554.1262   -999.2500     93.6178      4.2923      4.0155      4.1874   -999.2500   -999.2500    125.1415 
