~Version
VERS.           2.0   :CWLS Log ASCII Standard - VERSION 2.0
WRAP.           NO   :One line per index step
~Well
#  MNEM.UNIT                             DATA:  DESCRIPTION      
#-----------             ---------------------  -----------------
STRT  .M        148.2850                     : START INDEX
STOP  .M        995.9338                     : STOP INDEX
STEP  .M          0.1524                     : STEP
NULL  .       -999.25                        : NULL VALUE
COMP  .                                      : COMPANY
WELL  .       AD-3                           : WELL
FLD   .       AD                             : FIELD
LOC   .                                      : LOCATION
PROV  .                                      : PROVINCE
CNTY  .                                      : COUNTY
STAT  .                                      : STATE
CTRY  .                                      : COUNTRY
SRVC  .                                      : SERVICE COMPANY
API   .                                      : API NUMBER
UWI   .       AD-3		                     : UNIQUE WELL ID
LATI  .DEG                                   : LATITUDE
LONG  .DEG                                   : LONGITUDE
~Curve
#  MNEM.UNIT                        LOG CODES:  CURVE DESCRIPTION
#-----------             ---------------------  -----------------
DEPT  .M                                     : Depth Index
CALI  .IN                                    : 
GR    .GAPI                                  : 
ILD   .ohmm                                  : 
ILM   .ohmm                                  : 
LL3   .ohmm                                  : 
NPHI  .M3M3                                  : 
RHOB  .G/C3                                  : 
SP    .MV                                    : 
#
#----------------------------------------------------------------------------------------------------------
# DEPT        CALI        GR          ILD         ILM         LL3         NPHI        RHOB        SP          
# 
~Ascii
# ...
   757.2754      8.6805     89.9058      1.7808      1.7125      1.7565      0.5734      2.2710    121.8670 
   757.4278      8.6805     92.5656      1.6960      1.5812      1.7640      0.5767      2.2548    121.5742 
   757.5802      8.6781     90.6263      1.6134      1.4756      1.6916      0.5778      2.2353    121.3514 
   757.7326      8.6718     86.0022      1.5310      1.4052      1.5900      0.5814      2.2110    121.4522 
   757.8850      8.6539     80.8318      1.4447      1.3545      1.5196      0.5918      2.1825    121.8214 
   758.0374      8.6124     75.9854      1.3565      1.3008      1.4768      0.6097      2.1544    122.3549 
   758.1898      8.5475     72.8731      1.2769      1.2354      1.4826      0.6313      2.1318    122.8040 
   758.3422      8.4746     71.5444      1.2145      1.1682      1.4614      0.6484      2.1175    122.9862 
   758.4946      8.4080     72.1890      1.1691      1.1129      1.4783      0.6532      2.1111    123.0724 
   758.6470      8.3438     74.2428      1.1352      1.0748      1.4938      0.6416      2.1092    123.1896 
   758.7994      8.3088     73.7888      1.1068      1.0505      1.5235      0.6120      2.1097    123.1927 
   758.9518      8.2943     72.4839      1.0812      1.0346      1.5358      0.5821      2.1127    123.2123 
   759.1042      8.2976     69.9036      1.0610      1.0242      1.5891      0.5623      2.1180    123.3115 
   759.2566      8.3173     66.8935      1.0505      1.0195      1.6216      0.5525      2.1251    123.3115 
   759.4090      8.3332     66.3548      1.0519      1.0224      1.6579      0.5457      2.1333    123.0648 
   759.5614      8.3518     67.4662      1.0641      1.0350      1.6874      0.5360      2.1407    122.8805 
   759.7138      8.3750     69.0492      1.0841      1.0552      1.6970      0.5232      2.1465    122.7015 
   759.8662      8.4079     70.6113      1.1084      1.0807      1.7423      0.5122      2.1515    122.4792 
   760.0186      8.4407     71.4472      1.1305      1.1087      1.8177      0.5069      2.1571    122.2949 
   760.1710      8.4694     70.8556      1.1552      1.1369      1.8567      0.5074      2.1658    122.2325 
   760.3234      8.4913     70.1765      1.1838      1.1651      1.8801      0.5112      2.1796    122.1730 
   760.4758      8.5377     71.6252      1.2169      1.1951      1.8647      0.5161      2.1972    121.8475 
   760.6282      8.5515     73.4403      1.2550      1.2296      1.8109      0.5222      2.2115    121.4571 
   760.7806      8.5539     76.3212      1.2967      1.2708      1.7041      0.5305      2.2130    121.4780 
   760.9330      8.6118     81.6796      1.3357      1.3178      1.6230      0.5411      2.1975    121.4572 
   761.0854      8.6930     85.5046      1.3676      1.3621      1.5494      0.5534      2.1690    121.2898 
   761.2378      8.7336     89.6098      1.3888      1.3896      1.5455      0.5666      2.1382    121.4640 
   761.3902      8.7700     92.2874      1.3965      1.3903      1.5394      0.5794      2.1152    121.8055 
   761.5426      8.7801     90.3631      1.3859      1.3628      1.5577      0.5903      2.1027    121.9451 
   761.6950      8.7640     86.4926      1.3621      1.3152      1.5707      0.5992      2.0977    121.9983 
   761.8474      8.7310     82.8541      1.3298      1.2593      1.5913      0.6055      2.0969    122.0737 
   761.9998      8.6906     79.1884      1.2913      1.2056      1.5939      0.6092      2.1001    122.1049 
   762.1522      8.6526     77.5431      1.2470      1.1595      1.5926      0.6093      2.1091    121.9630 
   762.3046      8.6146     76.3141      1.1998      1.1224      1.5739      0.6040      2.1240    121.8209 
   762.4570      8.5696     73.1004      1.1560      1.0951      1.5596      0.5914      2.1397    121.7853 
   762.6094      8.5265     70.7140      1.1214      1.0756      1.5279      0.5703      2.1480    121.8647 
   762.7618      8.4885     68.8101      1.0925      1.0637      1.5086      0.5506      2.1436    122.0022 
   762.9142      8.4505     68.6557      1.0755      1.0582      1.5062      0.5418      2.1299    122.0333 
   763.0666      8.4124     70.1600      1.0617      1.0568      1.5326      0.5510      2.1155    122.0072 
   763.2190      8.3792     71.5144      1.0460      1.0559      1.5457      0.5680      2.1090    121.9451 
   763.3714      8.3595     72.4945      1.0316      1.0522      1.5890      0.5811      2.1130    121.8231 
   763.5238      8.3472     70.6282      1.0224      1.0432      1.6036      0.5767      2.1237    121.7255 
   763.6762      8.3394     69.0627      1.0199      1.0284      1.6099      0.5513      2.1363    121.5425 
   763.8286      8.3363     67.2278      1.0202      1.0033      1.6140      0.4992      2.1495    121.4571 
   763.9810      8.3363     65.5884      1.0229      0.9889      1.6199      0.4409      2.1655    121.2619 
   764.1334      8.3363     64.3105      1.0287      0.9924      1.6149      0.3998      2.1857    121.5547 
   764.2858      8.3502     63.1788      1.0403      1.0105      1.7555      0.3729      2.2083    121.9451 
   764.4382      8.3699     60.8853      1.0601      1.0306      2.0052      0.3578      2.2283    122.1159 
   764.5906      8.3990     60.0892      1.0893      1.0492      2.2664      0.3548      2.2413    121.7780 
   764.7430      8.4594     60.1211      1.1297      1.0655      2.5189      0.3606      2.2457    121.1299 
   764.8954      8.5145     58.3843      1.1841      1.0884      2.7839      0.3695      2.2432    119.8857 
   765.0478      8.5274     56.2282      1.2536      1.1342      2.9130      0.3757      2.2349    117.2785 
   765.2002      8.5131     52.8328      1.3390      1.2151      2.9219      0.3759      2.2210    113.3261 
   765.3526      8.4794     47.7669      1.4393      1.3419      2.9316      0.3705      2.2019    109.6661 
   765.5050      8.4155     43.6525      1.5511      1.5129      2.9990      0.3650      2.1799    106.8171 
   765.6574      8.3526     40.9788      1.6738      1.7061      3.0400      0.3622      2.1602    104.8223 
   765.8098      8.3366     39.6875      1.8101      1.8870      3.0920      0.3641      2.1496    103.1305 
   765.9622      8.3713     41.4577      1.9540      2.0177      3.1921      0.3714      2.1522    101.7341 
   766.1146      8.4341     43.9194      2.0903      2.0873      3.3217      0.3814      2.1667    100.7609 
   766.2670      8.5052     44.9974      2.1989      2.1405      3.3109      0.3895      2.1877    100.1966 
   766.4194      8.5702     44.3080      2.2667      2.1852      3.2237      0.3920      2.2066     99.8795 
   766.5718      8.6174     44.0180      2.2994      2.2220      3.2494      0.3855      2.2178     99.6489 
   766.7242      8.6341     44.1039      2.3177      2.2515      3.3621      0.3621      2.2240     99.4307 
   766.8766      8.6240     45.1170      2.3376      2.2757      3.3358      0.3340      2.2318     98.8993 
   767.0290      8.5919     45.2638      2.3644      2.2980      3.4141      0.3098      2.2464     98.8234 
   767.1814      8.5233     43.0148      2.3985      2.3194      3.5680      0.2980      2.2680     99.1934 
   767.3338      8.4434     39.5660      2.4349      2.3410      3.5756      0.2953      2.2894     99.3019 
   767.4862      8.3572     36.1451      2.4682      2.3642      3.4077      0.2951      2.3009     98.9767 
   767.6386      8.2765     33.9940      2.4956      2.3883      3.3248      0.2968      2.2973     98.3586 
   767.7910      8.2014     32.3961      2.5131      2.4127      3.2452      0.3014      2.2786     97.9152 
   767.9434      8.1713     31.7203      2.5185      2.4372      3.1762      0.3091      2.2494     98.1208 
   768.0958      8.1482     30.2281      2.5162      2.4659      3.1457      0.3197      2.2172     98.9513 
   768.2482      8.1392     29.7834      2.5132      2.4948      3.1599      0.3304      2.1903    100.0583 
   768.4006      8.1331     30.7385      2.5136      2.5239      3.2049      0.3381      2.1738    101.3515 
