~Version
VERS.           2.0   :CWLS Log ASCII Standard - VERSION 2.0
WRAP.           NO   :One line per index step
~Well
#  MNEM.UNIT                             DATA:  DESCRIPTION      
#-----------             ---------------------  -----------------
STRT  .M        148.2850                     : START INDEX
STOP  .M        995.9338                     : STOP INDEX
STEP  .M          0.1524                     : STEP
NULL  .       -999.25                        : NULL VALUE
COMP  .                                      : COMPANY
WELL  .       AD-3                           : WELL
FLD   .       AD                             : FIELD
LOC   .                                      : LOCATION
PROV  .                                      : PROVINCE
CNTY  .                                      : COUNTY
STAT  .                                      : STATE
CTRY  .                                      : COUNTRY
SRVC  .                                      : SERVICE COMPANY
API   .                                      : API NUMBER
UWI   .       AD-3		                     : UNIQUE WELL ID
LATI  .DEG                                   : LATITUDE
LONG  .DEG                                   : LONGITUDE
~Curve
#  MNEM.UNIT                        LOG CODES:  CURVE DESCRIPTION
#-----------             ---------------------  -----------------
DEPT  .M                                     : Depth Index
CALI  .IN                                    : 
GR    .GAPI                                  : 
ILD   .ohmm                                  : 
ILM   .ohmm                                  : 
LL3   .ohmm                                  : 
NPHI  .M3M3                                  : 
RHOB  .G/C3                                  : 
SP    .MV                                    : 
#
#----------------------------------------------------------------------------------------------------------
# DEPT        CALI        GR          ILD         ILM         LL3         NPHI        RHOB        SP          
# 
~Ascii
# ...
   317.4490   -999.2500    103.6581      3.5331      3.2280      2.8791   -999.2500   -999.2500    128.4564 
   317.6014   -999.2500    103.6830      3.5324      3.2201      2.8524   -999.2500   -999.2500    128.5470 
   317.7538   -999.2500    106.5695      3.5303      3.2115      2.8387   -999.2500   -999.2500    128.3745 
   317.9062   -999.2500    107.7375      3.5246      3.2052      2.8228   -999.2500   -999.2500    128.0939 
   318.0586   -999.2500    106.8224      3.5191      3.2038      2.8220   -999.2500   -999.2500    128.1140 
   318.2110   -999.2500    102.3794      3.5168      3.2054      2.8316   -999.2500   -999.2500    128.1007 
   318.3634   -999.2500     97.5930      3.5205      3.2069      2.8508   -999.2500   -999.2500    127.8533 
   318.5158   -999.2500     93.0417      3.5289      3.2111      2.8909   -999.2500   -999.2500    127.7321 
   318.6682   -999.2500     91.1432      3.5430      3.2220      2.8920   -999.2500   -999.2500    127.5731 
   318.8206   -999.2500     92.1137      3.5643      3.2441      2.8843   -999.2500   -999.2500    127.3670 
   318.9730   -999.2500     94.3192      3.5905      3.2775      2.8838   -999.2500   -999.2500    127.4644 
   319.1254   -999.2500     97.4455      3.6180      3.3145      2.8502   -999.2500   -999.2500    127.5983 
   319.2778   -999.2500     98.6779      3.6413      3.3450      2.8541   -999.2500   -999.2500    127.4074 
   319.4302   -999.2500     97.3572      3.6597      3.3647      2.8857   -999.2500   -999.2500    127.2863 
   319.5826   -999.2500     95.4147      3.6714      3.3746      2.8995   -999.2500   -999.2500    127.1414 
   319.7350   -999.2500     95.5104      3.6690      3.3773      2.8988   -999.2500   -999.2500    127.3079 
   319.8874   -999.2500     96.7069      3.6502      3.3706      2.9329   -999.2500   -999.2500    127.6150 
   320.0398   -999.2500     97.3543      3.6186      3.3482      2.9011   -999.2500   -999.2500    128.0525 
   320.1922   -999.2500     95.6786      3.5797      3.3043      2.9045   -999.2500   -999.2500    128.4606 
   320.3446   -999.2500     94.9756      3.5399      3.2431      2.8935   -999.2500   -999.2500    128.6315 
   320.4970   -999.2500     95.1327      3.5043      3.1784      2.8823   -999.2500   -999.2500    128.8233 
   320.6494   -999.2500     95.9546      3.4750      3.1258      2.8425   -999.2500   -999.2500    128.9680 
   320.8018   -999.2500     95.8381      3.4509      3.0948      2.8073   -999.2500   -999.2500    129.0900 
   320.9542   -999.2500     96.4655      3.4296      3.0847      2.7940   -999.2500   -999.2500    129.4088 
   321.1066   -999.2500     96.4355      3.4100      3.0866      2.7840   -999.2500   -999.2500    129.6109 
   321.2590   -999.2500     98.5582      3.3993      3.0905      2.8046   -999.2500   -999.2500    129.4054 
   321.4114   -999.2500    101.2670      3.4034      3.0958      2.8243   -999.2500   -999.2500    128.9641 
   321.5638   -999.2500    102.3039      3.4237      3.1089      2.8671   -999.2500   -999.2500    128.4694 
   321.7162   -999.2500    103.8211      3.4583      3.1357      2.8618   -999.2500   -999.2500    128.0797 
   321.8686   -999.2500    105.8427      3.5026      3.1765      2.8993   -999.2500   -999.2500    127.8367 
   322.0210   -999.2500    107.7300      3.5505      3.2280      2.9035   -999.2500   -999.2500    127.8879 
   322.1734   -999.2500    109.8067      3.5971      3.2938      2.9348   -999.2500   -999.2500    127.8011 
   322.3258   -999.2500    112.6667      3.6429      3.3595      2.9724   -999.2500   -999.2500    127.5837 
   322.4782   -999.2500    112.6578      3.6885      3.4217      3.0251   -999.2500   -999.2500    127.3901 
   322.6306   -999.2500    114.4650      3.7390      3.4772      3.0447   -999.2500   -999.2500    127.3152 
   322.7830   -999.2500    116.4641      3.7884      3.5199      3.0419   -999.2500   -999.2500    127.3131 
   322.9354   -999.2500    116.2687      3.8366      3.5593      3.0712   -999.2500   -999.2500    127.3131 
   323.0878   -999.2500    114.8276      3.8804      3.5983      3.0803   -999.2500   -999.2500    127.4970 
   323.2402   -999.2500    113.2862      3.9178      3.6177      3.0713   -999.2500   -999.2500    127.6904 
   323.3926   -999.2500    110.2055      3.9477      3.6352      3.0833   -999.2500   -999.2500    127.7936 
   323.5450   -999.2500    107.8860      3.9718      3.6511      3.1276   -999.2500   -999.2500    127.9572 
   323.6974   -999.2500    107.9806      3.9955      3.6665      3.1306   -999.2500   -999.2500    128.2367 
   323.8498   -999.2500    108.6370      4.0228      3.6847      3.1496   -999.2500   -999.2500    128.2865 
   324.0022   -999.2500    109.9701      4.0526      3.7058      3.1913   -999.2500   -999.2500    128.2891 
   324.1546   -999.2500    111.1586      4.0821      3.7311      3.2551   -999.2500   -999.2500    128.4601 
   324.3070   -999.2500    110.2883      4.1090      3.7560      3.2982   -999.2500   -999.2500    128.6323 
   324.4594   -999.2500    108.3570      4.1357      3.7806      3.3508   -999.2500   -999.2500    128.5087 
   324.6118   -999.2500    107.8941      4.1639      3.7978      3.3961   -999.2500   -999.2500    128.1535 
   324.7642   -999.2500    110.2742      4.1945      3.8113      3.4043   -999.2500   -999.2500    127.8485 
   324.9166   -999.2500    111.5841      4.2249      3.8210      3.3646   -999.2500   -999.2500    127.6193 
   325.0690   -999.2500    112.8038      4.2589      3.8354      3.3526   -999.2500   -999.2500    127.3618 
   325.2214   -999.2500    111.7111      4.2975      3.8580      3.3981   -999.2500   -999.2500    127.3921 
   325.3738   -999.2500    109.3596      4.3488      3.8933      3.4299   -999.2500   -999.2500    127.4887 
   325.5262   -999.2500    107.1805      4.4138      3.9349      3.4427   -999.2500   -999.2500    127.2577 
   325.6786   -999.2500    107.7168      4.4850      4.0058      3.5155   -999.2500   -999.2500    127.0387 
   325.8310   -999.2500    106.6635      4.5525      4.1142      3.6261   -999.2500   -999.2500    127.0147 
   325.9834   -999.2500    106.8387      4.6132      4.2279      3.6222   -999.2500   -999.2500    127.0760 
   326.1358   -999.2500    107.4621      4.6614      4.2962      3.6348   -999.2500   -999.2500    127.1118 
   326.2882   -999.2500    107.3253      4.7024      4.3478      3.7263   -999.2500   -999.2500    127.1722 
   326.4406   -999.2500    108.0294      4.7308      4.3747      3.7763   -999.2500   -999.2500    127.3521 
   326.5930   -999.2500    109.0896      4.7466      4.3701      3.7549   -999.2500   -999.2500    127.4107 
   326.7454   -999.2500    108.7039      4.7537      4.3460      3.7736   -999.2500   -999.2500    127.4020 
   326.8978   -999.2500    108.4124      4.7556      4.3257      3.7756   -999.2500   -999.2500    127.4586 
   327.0502   -999.2500    108.6338      4.7497      4.3152      3.7600   -999.2500   -999.2500    127.5517 
   327.2026   -999.2500    108.3743      4.7317      4.3030      3.7226   -999.2500   -999.2500    127.5313 
   327.3550   -999.2500    110.9041      4.7081      4.2809      3.7150   -999.2500   -999.2500    127.5083 
   327.5074   -999.2500    116.4008      4.6944      4.2539      3.7451   -999.2500   -999.2500    127.4433 
   327.6598   -999.2500    122.9333      4.7115      4.2323      3.7686   -999.2500   -999.2500    127.4107 
   327.8122   -999.2500    128.6615      4.7783      4.2316      3.7372   -999.2500   -999.2500    127.2843 
   327.9646   -999.2500    128.1893      4.9056      4.3126      3.6820   -999.2500   -999.2500    127.1532 
   328.1170   -999.2500    123.2285      5.0913      4.4982      3.6694   -999.2500   -999.2500    126.8113 
   328.2694   -999.2500    116.6619      5.3197      4.8006      3.7991   -999.2500   -999.2500    126.2071 
   328.4218   -999.2500    112.3072      5.5671      5.2123      4.4573   -999.2500   -999.2500    125.5750 
   328.5742   -999.2500    112.3609      5.8141      5.7062      5.2863   -999.2500   -999.2500    125.2928 
