~Version
VERS.           2.0   :CWLS Log ASCII Standard - VERSION 2.0
WRAP.           NO   :One line per index step
~Well
#  MNEM.UNIT                             DATA:  DESCRIPTION      
#-----------             ---------------------  -----------------
STRT  .M        131.9780                     : START INDEX
STOP  .M       1012.2404                     : STOP INDEX
STEP  .M          0.1524                     : STEP
NULL  .       -999.25                        : NULL VALUE
COMP  .                                      : COMPANY
WELL  .       AB-1                           : WELL
FLD   .       AB                       : FIELD
LOC   .                                      : LOCATION
PROV  .                                      : PROVINCE
CNTY  .                                      : COUNTY
STAT  .                                      : STATE
CTRY  .                                      : COUNTRY
SRVC  .                                      : SERVICE COMPANY
API   .                                      : API NUMBER
UWI   .       AB-1		                     : UNIQUE WELL ID
LATI  .DEG                                   : LATITUDE
LONG  .DEG                                   : LONGITUDE
~Curve
#  MNEM.UNIT                        LOG CODES:  CURVE DESCRIPTION
#-----------             ---------------------  -----------------
DEPT  .M                                     : Depth Index
CALI  .IN                                    : 
GR    .GAPI                                  : 
ILD   .ohmm                                  : 
ILM   .ohmm                                  : 
NPHI  .M3M3                                  : 
RHOB  .G/C3                                  : 
SP    .MV                                    : 
LL3   .ohmm                                  : 
#
#----------------------------------------------------------------------------------------------------------------------------
# DEPT          CALI          GR            ILD           ILM           NPHI          RHOB          SP            LL3           
# 
~Ascii
# ...
   247.192424     -999.2500       94.7000        4.8599        4.2344        0.4700     -999.2500       85.1267        4.1879 
   247.344848     -999.2500      100.7000        4.7713        4.1506        0.5035     -999.2500       85.1901        4.0738 
   247.497272     -999.2500      109.1000        4.6754        4.0535        0.5381     -999.2500       85.1109        4.1305 
   247.649696     -999.2500      114.3000        4.5814        3.9874        0.5385     -999.2500       85.0119        4.1495 
   247.802020     -999.2500      113.4000        4.5348        3.9688        0.5045     -999.2500       85.0871        4.1115 
   247.954444     -999.2500      109.4000        4.5290        3.9931        0.4680     -999.2500       85.1000        4.0365 
   248.106868     -999.2500      107.4000        4.5290        4.0406        0.4561     -999.2500       85.0148        3.9995 
   248.259292     -999.2500      109.3000        4.5232        4.0787        0.4730     -999.2500       85.0000        4.0179 
   248.411616     -999.2500      112.7000        4.5047        4.0801        0.5094     -999.2500       84.8336        4.1305 
   248.564040     -999.2500      116.1000        4.4737        4.0366        0.5472     -999.2500       84.4712        4.2170 
   248.716464     -999.2500      118.7000        4.4373        3.9639        0.5693     -999.2500       84.1564        4.2756 
   248.868888     -999.2500      118.8000        4.4033        3.8994        0.5778     -999.2500       84.1802        4.2364 
   249.021212     -999.2500      115.1000        4.3853        3.8518        0.5864     -999.2500       84.2792        4.1495 
   249.173636     -999.2500      109.3000        4.3752        3.8578        0.6010     -999.2500       84.4564        4.0365 
   249.326060     -999.2500      105.5000        4.3724        3.9084        0.6048     -999.2500       84.6544        3.9811 
   249.478484     -999.2500      104.9000        4.3609        3.9385        0.5849     -999.2500       84.8525        4.0179 
   249.630808     -999.2500      107.2000        4.3437        3.9385        0.5549     -999.2500       85.0505        4.0365 
   249.783232     -999.2500      110.7000        4.3280        3.9472        0.5298     -999.2500       85.2485        4.0551 
   249.935656     -999.2500      114.6000        4.3337        3.9680        0.5118     -999.2500       85.3733        4.0738 
   250.088080     -999.2500      117.6000        4.3451        3.9811        0.4996     -999.2500       85.2554        4.1115 
   250.240404     -999.2500      118.6000        4.3752        3.9706        0.4967     -999.2500       85.1287        4.1305 
   250.392828     -999.2500      118.0000        4.3853        3.9563        0.5069     -999.2500       84.9593        4.1879 
   250.545252     -999.2500      115.4000        4.4056        3.9693        0.5206     -999.2500       84.9000        4.2364 
   250.697676     -999.2500      111.1000        4.4157        4.0039        0.5250     -999.2500       84.9000        4.2560 
   250.850000     -999.2500      107.1000        4.4361        4.0375        0.5167     -999.2500       84.9673        4.2170 
   251.002424     -999.2500      105.9000        4.4566        4.0582        0.5045     -999.2500       85.1990        4.1687 
   251.154848     -999.2500      107.7000        4.4668        4.0603        0.5011     -999.2500       85.3000        4.1115 
   251.307272     -999.2500      108.7000        4.4668        4.0437        0.5167     -999.2500       85.3000        4.0738 
   251.459696     -999.2500      108.9000        4.4463        4.0100        0.5467     -999.2500       85.2366        4.1115 
   251.612020     -999.2500      111.1000        4.4056        3.9632        0.5702     -999.2500       85.2624        4.1495 
   251.764444     -999.2500      113.9000        4.3752        3.9142        0.5697     -999.2500       85.3000        4.1305 
   251.916868     -999.2500      114.1000        4.3451        3.8726        0.5487     -999.2500       85.4208        4.0365 
   252.069292     -999.2500      110.7000        4.2954        3.8442        0.5323     -999.2500       85.7376        3.9811 
   252.221616     -999.2500      108.9000        4.2462        3.8242        0.5366     -999.2500       85.9000        3.9446 
   252.374040     -999.2500      110.7000        4.1783        3.7961        0.5525     -999.2500       86.1872        3.9265 
   252.526464     -999.2500      110.7000        4.1020        3.7426        0.5626     -999.2500       86.7388        3.9265 
   252.678888     -999.2500      106.1000        4.0381        3.6659        0.5602     -999.2500       87.1109        3.8994 
   252.831212     -999.2500      100.8000        3.9925        3.5875        0.5501     -999.2500       86.8730        3.8459 
   252.983636     -999.2500      101.8000        3.9479        3.5323        0.5424     -999.2500       85.2635        3.7670 
   253.136060     -999.2500      108.2000        3.9038        3.5101        0.5424     -999.2500       81.3189        3.7154 
   253.288484     -999.2500      113.2000        3.8524        3.5075        0.5482     -999.2500       79.0574        3.6983 
   253.440808     -999.2500      113.0000        3.8083        3.4971        0.5525     -999.2500       81.9765        3.7154 
   253.593232     -999.2500      108.9000        3.7658        3.4603        0.5472     -999.2500       84.7485        3.7325 
   253.745656     -999.2500      104.8000        3.7445        3.4083        0.5347     -999.2500       84.9485        3.7325 
   253.898080     -999.2500      102.7000        3.7277        3.3740        0.5191     -999.2500       85.0000        3.7154 
   254.050404     -999.2500      102.2000        3.7239        3.3585        0.5006     -999.2500       84.9534        3.6813 
   254.202828     -999.2500      101.3000        3.7177        3.3512        0.4814     -999.2500       84.8544        3.6813 
   254.355252     -999.2500       99.2000        3.7154        3.3535        0.4655     -999.2500       84.7554        3.6983 
   254.507676     -999.2500       98.2000        3.7154        3.3566        0.4551     -999.2500       84.7436        3.7325 
   254.660000     -999.2500       98.4000        3.7210        3.3541        0.4490     -999.2500       84.8426        3.7670 
   254.812424     -999.2500       96.5000        3.7348        3.3826        0.4496     -999.2500       84.9000        3.7844 
   254.964848     -999.2500       91.1000        3.7675        3.4929        0.4650     -999.2500       84.9812        3.7844 
   255.117272     -999.2500       84.5000        3.8204        3.6648        0.4971     -999.2500       85.0604        3.7497 
   255.269696     -999.2500       80.1000        3.8911        3.8031        0.5279     -999.2500       84.9227        3.7154 
   255.422020     -999.2500       81.4000        3.9607        3.8268        0.5385     -999.2500       84.8376        3.7154 
   255.574444     -999.2500       87.8000        4.0187        3.8163        0.5332     -999.2500       84.9733        3.7670 
   255.726868     -999.2500       97.1000        4.0640        3.7931        0.5298     -999.2500       85.1713        3.8637 
   255.879292     -999.2500      104.1000        4.0963        3.7650        0.5293     -999.2500       85.3693        3.9811 
   256.031616     -999.2500      106.1000        4.1282        3.7504        0.5221     -999.2500       85.5674        4.0365 
   256.184040     -999.2500      105.3000        4.1655        3.7439        0.5128     -999.2500       85.8634        4.0365 
   256.336464     -999.2500      104.2000        4.2031        3.7457        0.5259     -999.2500       86.3268        3.9811 
   256.488888     -999.2500      104.8000        4.2338        3.7570        0.5712     -999.2500       86.6307        3.9265 
   256.641212     -999.2500      106.9000        4.2462        3.7698        0.6217     -999.2500       86.5513        3.8994 
