~Version
VERS.           2.0   :CWLS Log ASCII Standard - VERSION 2.0
WRAP.           NO   :One line per index step
~Well
#  MNEM.UNIT                             DATA:  DESCRIPTION      
#-----------             ---------------------  -----------------
STRT  .M        148.2850                     : START INDEX
STOP  .M        995.9338                     : STOP INDEX
STEP  .M          0.1524                     : STEP
NULL  .       -999.25                        : NULL VALUE
COMP  .                                      : COMPANY
WELL  .       AD-3                           : WELL
FLD   .       AD                             : FIELD
LOC   .                                      : LOCATION
PROV  .                                      : PROVINCE
CNTY  .                                      : COUNTY
STAT  .                                      : STATE
CTRY  .                                      : COUNTRY
SRVC  .                                      : SERVICE COMPANY
API   .                                      : API NUMBER
UWI   .       AD-3		                     : UNIQUE WELL ID
LATI  .DEG                                   : LATITUDE
LONG  .DEG                                   : LONGITUDE
~Curve
#  MNEM.UNIT                        LOG CODES:  CURVE DESCRIPTION
#-----------             ---------------------  -----------------
DEPT  .M                                     : Depth Index
CALI  .IN                                    : 
GR    .GAPI                                  : 
ILD   .ohmm                                  : 
ILM   .ohmm                                  : 
LL3   .ohmm                                  : 
NPHI  .M3M3                                  : 
RHOB  .G/C3                                  : 
SP    .MV                                    : 
#
#----------------------------------------------------------------------------------------------------------
# DEPT        CALI        GR          ILD         ILM         LL3         NPHI        RHOB        SP          
# 
~Ascii
# ...
   588.1114   -999.2500     71.2331      1.2971      1.2248      1.8671   -999.2500   -999.2500    129.1071 
   588.2638   -999.2500     72.9333      1.3017      1.2366      1.8319   -999.2500   -999.2500    128.9088 
   588.4162   -999.2500     74.4453      1.3003      1.2471      1.8058   -999.2500   -999.2500    128.6285 
   588.5686   -999.2500     76.8771      1.2947      1.2522      1.7825   -999.2500   -999.2500    128.5662 
   588.7210   -999.2500     78.1971      1.2867      1.2484      1.7607   -999.2500   -999.2500    128.6647 
   588.8734   -999.2500     76.9817      1.2773      1.2351      1.7125   -999.2500   -999.2500    128.7499 
   589.0258   -999.2500     75.1787      1.2655      1.2153      1.7055   -999.2500   -999.2500    128.5767 
   589.1782   -999.2500     73.3576      1.2499      1.1946      1.7000   -999.2500   -999.2500    128.4677 
   589.3306   -999.2500     72.0751      1.2309      1.1774      1.6904   -999.2500   -999.2500    128.3914 
   589.4830   -999.2500     71.8420      1.2119      1.1647      1.6812   -999.2500   -999.2500    128.4796 
   589.6354   -999.2500     72.1397      1.1976      1.1537      1.6812   -999.2500   -999.2500    128.5552 
   589.7878   -999.2500     72.3304      1.1909      1.1430      1.7089   -999.2500   -999.2500    128.6775 
   589.9402   -999.2500     72.0964      1.1906      1.1334      1.7148   -999.2500   -999.2500    128.9723 
   590.0926   -999.2500     70.8054      1.1915      1.1280      1.7080   -999.2500   -999.2500    129.1675 
   590.2450   -999.2500     66.9838      1.1882      1.1326      1.6988   -999.2500   -999.2500    129.3627 
   590.3974   -999.2500     62.0340      1.1785      1.1404      1.6613   -999.2500   -999.2500    129.5579 
   590.5498   -999.2500     58.8107      1.1651      1.1350      1.6043   -999.2500   -999.2500    129.6311 
   590.7022   -999.2500     59.3714      1.1524      1.1128      1.5792   -999.2500   -999.2500    129.5579 
   590.8546   -999.2500     61.5462      1.1427      1.0837      1.5604   -999.2500   -999.2500    129.5579 
   591.0070   -999.2500     64.9838      1.1359      1.0637      1.5410   -999.2500   -999.2500    129.5579 
   591.1594   -999.2500     65.9717      1.1305      1.0524      1.5811   -999.2500   -999.2500    129.4603 
   591.3118   -999.2500     68.0021      1.1246      1.0518      1.6132   -999.2500   -999.2500    129.3627 
   591.4642   -999.2500     71.7868      1.1185      1.0594      1.6247   -999.2500   -999.2500    129.2651 
   591.6166   -999.2500     76.8724      1.1133      1.0682      1.6450   -999.2500   -999.2500    128.9723 
   591.7690   -999.2500     82.2393      1.1105      1.0715      1.6818   -999.2500   -999.2500    128.6795 
   591.9214   -999.2500     87.2324      1.1115      1.0695      1.6793   -999.2500   -999.2500    128.4843 
   592.0738   -999.2500     88.0937      1.1159      1.0688      1.6869   -999.2500   -999.2500    128.4721 
   592.2262   -999.2500     89.8545      1.1200      1.0726      1.6918   -999.2500   -999.2500    128.4843 
   592.3786   -999.2500     93.0729      1.1200      1.0771      1.6958   -999.2500   -999.2500    128.4599 
   592.5310   -999.2500     93.2115      1.1149      1.0776      1.6847   -999.2500   -999.2500    128.3948 
   592.6834   -999.2500     91.9496      1.1069      1.0735      1.6832   -999.2500   -999.2500    128.3108 
   592.8358   -999.2500     88.6799      1.1000      1.0673      1.6685   -999.2500   -999.2500    128.2241 
   592.9882   -999.2500     82.1442      1.0969      1.0630      1.6651   -999.2500   -999.2500    128.2999 
   593.1406   -999.2500     77.0475      1.0977      1.0630      1.6762   -999.2500   -999.2500    128.5166 
   593.2930   -999.2500     76.7361      1.1035      1.0670      1.6777   -999.2500   -999.2500    128.6795 
   593.4454   -999.2500     76.8596      1.1175      1.0778      1.6965   -999.2500   -999.2500    128.7173 
   593.5978   -999.2500     79.0785      1.1461      1.1007      1.7037   -999.2500   -999.2500    128.8638 
   593.7502   -999.2500     81.0543      1.1987      1.1437      1.7503   -999.2500   -999.2500    128.9723 
   593.9026   -999.2500     82.8023      1.2827      1.2166      1.8876   -999.2500   -999.2500    128.9723 
   594.0550   -999.2500     82.3265      1.4019      1.3289      2.1744   -999.2500   -999.2500    128.8747 
   594.2074   -999.2500     84.0630      1.5569      1.4868      2.4628   -999.2500   -999.2500    129.0699 
   594.3598   -999.2500     85.8195      1.7474      1.6901      2.7504   -999.2500   -999.2500    129.1431 
   594.5122   -999.2500     90.4276      1.9763      1.9610      2.9963   -999.2500   -999.2500    128.9479 
   594.6646   -999.2500     91.5690      2.2412      2.2444      3.0951   -999.2500   -999.2500    128.5819 
   594.8170   -999.2500     94.4579      2.5479      2.5161      3.0480   -999.2500   -999.2500    128.3867 
   594.9694   -999.2500     94.5464      2.8636      2.7655      2.9923   -999.2500   -999.2500    128.0939 
   595.1218   -999.2500     95.6999      3.1206      2.9779      3.0078   -999.2500   -999.2500    128.0542 
   595.2742   -999.2500     98.3046      3.2445      3.1170      3.0107   -999.2500   -999.2500    128.1508 
   595.4266   -999.2500    102.4708      3.2129      3.1372      2.9604   -999.2500   -999.2500    128.4177 
   595.5790   -999.2500    101.5729      3.0731      3.0188      2.8548   -999.2500   -999.2500    128.3876 
   595.7314   -999.2500     98.5141      2.8864      2.7662      2.7153   -999.2500   -999.2500    128.2310 
   595.8838   -999.2500     94.8024      2.6242      2.4910      2.5117   -999.2500   -999.2500    128.1033 
   596.0362   -999.2500     91.0424      2.3616      2.2476      2.3228   -999.2500   -999.2500    128.0635 
   596.1886   -999.2500     89.3083      2.1076      2.0398      2.2065   -999.2500   -999.2500    128.0695 
   596.3410   -999.2500     88.3715      1.9032      1.8543      2.1359   -999.2500   -999.2500    128.1783 
   596.4934   -999.2500     86.6985      1.7658      1.6938      2.0537   -999.2500   -999.2500    128.4267 
   596.6458   -999.2500     84.4541      1.6938      1.5774      1.9705   -999.2500   -999.2500    128.5998 
   596.7982   -999.2500     82.2566      1.6746      1.5262      1.9107   -999.2500   -999.2500    128.6755 
   596.9506   -999.2500     81.8245      1.6771      1.5332      1.8863   -999.2500   -999.2500    128.6755 
   597.1030   -999.2500     83.2550      1.6976      1.5966      1.8988   -999.2500   -999.2500    128.8769 
   597.2554   -999.2500     85.9818      1.7302      1.6804      1.9594   -999.2500   -999.2500    128.9677 
   597.4078   -999.2500     87.9242      1.7614      1.7445      2.0120   -999.2500   -999.2500    129.1339 
   597.5602   -999.2500     88.5988      1.7688      1.7314      2.0595   -999.2500   -999.2500    129.2248 
   597.7126   -999.2500     84.8648      1.7364      1.6591      2.0902   -999.2500   -999.2500    129.2588 
   597.8650   -999.2500     81.8164      1.6779      1.5585      2.1150   -999.2500   -999.2500    129.1171 
   598.0174   -999.2500     79.3966      1.6048      1.4757      2.0813   -999.2500   -999.2500    128.9423 
   598.1698   -999.2500     77.0110      1.5291      1.4012      2.0506   -999.2500   -999.2500    128.8747 
   598.3222   -999.2500     75.1666      1.4578      1.3375      1.9743   -999.2500   -999.2500    128.8747 
   598.4746   -999.2500     73.1861      1.3927      1.2853      1.8781   -999.2500   -999.2500    128.8265 
   598.6270   -999.2500     70.8197      1.3374      1.2444      1.7852   -999.2500   -999.2500    128.7606 
   598.7794   -999.2500     70.7323      1.2967      1.2167      1.7304   -999.2500   -999.2500    128.7771 
   598.9318   -999.2500     71.2945      1.2731      1.1988      1.6880   -999.2500   -999.2500    128.7364 
   599.0842   -999.2500     71.8326      1.2688      1.1912      1.6711   -999.2500   -999.2500    128.5335 
   599.2366   -999.2500     72.5223      1.2803      1.1938      1.6855   -999.2500   -999.2500    128.3473 
