~Version
VERS.           2.0   :CWLS Log ASCII Standard - VERSION 2.0
WRAP.           NO   :One line per index step
~Well
#  MNEM.UNIT                             DATA:  DESCRIPTION      
#-----------             ---------------------  -----------------
STRT  .M        148.2850                     : START INDEX
STOP  .M        995.9338                     : STOP INDEX
STEP  .M          0.1524                     : STEP
NULL  .       -999.25                        : NULL VALUE
COMP  .                                      : COMPANY
WELL  .       AD-3                           : WELL
FLD   .       AD                             : FIELD
LOC   .                                      : LOCATION
PROV  .                                      : PROVINCE
CNTY  .                                      : COUNTY
STAT  .                                      : STATE
CTRY  .                                      : COUNTRY
SRVC  .                                      : SERVICE COMPANY
API   .                                      : API NUMBER
UWI   .       AD-3		                     : UNIQUE WELL ID
LATI  .DEG                                   : LATITUDE
LONG  .DEG                                   : LONGITUDE
~Curve
#  MNEM.UNIT                        LOG CODES:  CURVE DESCRIPTION
#-----------             ---------------------  -----------------
DEPT  .M                                     : Depth Index
CALI  .IN                                    : 
GR    .GAPI                                  : 
ILD   .ohmm                                  : 
ILM   .ohmm                                  : 
LL3   .ohmm                                  : 
NPHI  .M3M3                                  : 
RHOB  .G/C3                                  : 
SP    .MV                                    : 
#
#----------------------------------------------------------------------------------------------------------
# DEPT        CALI        GR          ILD         ILM         LL3         NPHI        RHOB        SP          
# 
~Ascii
# ...
   373.8370   -999.2500     51.5240      8.7348      7.8589      5.7823   -999.2500   -999.2500    127.4030 
   373.9894   -999.2500     56.3390      8.2794      7.4691      5.2944   -999.2500   -999.2500    127.4153 
   374.1418   -999.2500     62.2753      7.6689      6.8635      5.0551   -999.2500   -999.2500    127.5181 
   374.2942   -999.2500     65.6256      6.9112      6.1688      4.7839   -999.2500   -999.2500    127.6572 
   374.4466   -999.2500     65.4852      6.2425      5.5477      4.4218   -999.2500   -999.2500    127.9687 
   374.5990   -999.2500     63.6804      5.7359      5.0549      4.2703   -999.2500   -999.2500    128.6787 
   374.7514   -999.2500     62.5336      5.4378      4.6816      4.3588   -999.2500   -999.2500    129.3229 
   374.9038   -999.2500     64.2721      5.3556      4.4363      4.3551   -999.2500   -999.2500    129.2392 
   375.0562   -999.2500     66.7886      5.5020      4.3530      4.7769   -999.2500   -999.2500    129.1352 
   375.2086   -999.2500     68.4702      5.7400      4.4947      5.4547   -999.2500   -999.2500    129.0341 
   375.3610   -999.2500     65.1184      6.0663      4.8651      6.0836   -999.2500   -999.2500    128.3441 
   375.5134   -999.2500     60.0282      6.4647      5.4469      6.6470   -999.2500   -999.2500    128.0116 
   375.6658   -999.2500     55.3245      6.9271      6.1503      7.0210   -999.2500   -999.2500    127.4342 
   375.8182   -999.2500     52.4677      7.4454      6.8610      7.0539   -999.2500   -999.2500    126.7688 
   375.9706   -999.2500     51.3718      7.9885      7.4598      6.9581   -999.2500   -999.2500    126.4483 
   376.1230   -999.2500     51.4051      8.4976      7.9212      6.8443   -999.2500   -999.2500    126.6503 
   376.2754   -999.2500     50.5266      8.9045      8.2461      6.7244   -999.2500   -999.2500    127.0194 
   376.4278   -999.2500     50.2026      9.1462      8.3566      6.6170   -999.2500   -999.2500    126.9974 
   376.5802   -999.2500     49.6303      9.1679      8.2455      6.4911   -999.2500   -999.2500    127.0813 
   376.7326   -999.2500     48.5174      8.9990      7.9571      6.3462   -999.2500   -999.2500    127.2005 
   376.8850   -999.2500     47.7743      8.7474      7.5783      6.1793   -999.2500   -999.2500    127.2914 
   377.0374   -999.2500     47.9579      8.4879      7.2027      6.0471   -999.2500   -999.2500    127.3781 
   377.1898   -999.2500     48.7797      8.2625      6.8982      5.9944   -999.2500   -999.2500    127.5191 
   377.3422   -999.2500     50.8600      8.0887      6.7481      5.8952   -999.2500   -999.2500    127.6926 
   377.4946   -999.2500     51.9579      7.9809      6.6866      5.8902   -999.2500   -999.2500    127.7645 
   377.6470   -999.2500     50.7891      7.9631      6.7159      5.9914   -999.2500   -999.2500    127.6264 
   377.7994   -999.2500     49.7955      8.0617      6.8429      6.1338   -999.2500   -999.2500    127.3782 
   377.9518   -999.2500     49.6615      8.2971      7.0765      6.4259   -999.2500   -999.2500    127.2155 
   378.1042   -999.2500     51.0815      8.6730      7.4320      6.9025   -999.2500   -999.2500    127.0921 
   378.2566   -999.2500     52.7233      9.1601      7.9278      7.8632   -999.2500   -999.2500    126.9158 
   378.4090   -999.2500     53.6908      9.7002      8.5692      8.5314   -999.2500   -999.2500    126.5036 
   378.5614   -999.2500     51.0077     10.2193      9.3218      8.9246   -999.2500   -999.2500    126.3371 
   378.7138   -999.2500     48.8340     10.6485     10.1768      9.0015   -999.2500   -999.2500    126.3284 
   378.8662   -999.2500     47.8059     10.9578     10.5795      8.8916   -999.2500   -999.2500    126.1254 
   379.0186   -999.2500     47.6876     11.1458     10.4804      8.2302   -999.2500   -999.2500    126.0600 
   379.1710   -999.2500     48.5582     11.2289     10.1197      7.7618   -999.2500   -999.2500    126.3209 
   379.3234   -999.2500     49.7136     11.2388      9.7565      7.4613   -999.2500   -999.2500    126.4476 
   379.4758   -999.2500     50.4843     11.2072      9.5491      7.3631   -999.2500   -999.2500    126.6320 
   379.6282   -999.2500     52.0201     11.1191      9.6221      7.7199   -999.2500   -999.2500    126.9407 
   379.7806   -999.2500     53.8426     10.9184      9.9738      8.9751   -999.2500   -999.2500    127.1179 
   379.9330   -999.2500     52.7511     10.5875     10.2862      9.2124   -999.2500   -999.2500    127.1285 
   380.0854   -999.2500     48.7614     10.1760     10.0793      8.9430   -999.2500   -999.2500    127.2499 
   380.2378   -999.2500     44.0474      9.7888      9.4985      8.6639   -999.2500   -999.2500    127.5444 
   380.3902   -999.2500     42.0236      9.5012      8.7642      8.0376   -999.2500   -999.2500    127.8212 
   380.5426   -999.2500     44.1057      9.2854      8.0714      6.5441   -999.2500   -999.2500    128.0415 
   380.6950   -999.2500     48.5678      9.0548      7.5888      6.2130   -999.2500   -999.2500    128.3400 
   380.8474   -999.2500     52.4434      8.7676      7.4236      6.4068   -999.2500   -999.2500    128.2373 
   380.9998   -999.2500     53.4107      8.4441      7.4177      6.5419   -999.2500   -999.2500    127.9471 
   381.1522   -999.2500     52.3528      8.1475      7.4408      6.5841   -999.2500   -999.2500    127.6647 
   381.3046   -999.2500     52.8982      7.9285      7.3067      6.5821   -999.2500   -999.2500    127.4524 
   381.4570   -999.2500     54.8141      7.7802      7.0116      6.3454   -999.2500   -999.2500    127.2943 
   381.6094   -999.2500     56.8661      7.6564      6.6370      6.1614   -999.2500   -999.2500    127.2548 
   381.7618   -999.2500     58.4299      7.5099      6.4292      6.0465   -999.2500   -999.2500    127.4465 
   381.9142   -999.2500     59.2740      7.3228      6.2655      5.9183   -999.2500   -999.2500    127.5389 
   382.0666   -999.2500     58.3468      7.1129      6.1462      5.6975   -999.2500   -999.2500    127.3420 
   382.2190   -999.2500     58.7766      6.9163      6.0762      5.6433   -999.2500   -999.2500    127.1739 
   382.3714   -999.2500     58.9835      6.7716      6.0500      5.7777   -999.2500   -999.2500    127.0911 
   382.5238   -999.2500     58.5941      6.7136      6.0151      5.6842   -999.2500   -999.2500    127.0265 
   382.6762   -999.2500     57.1199      6.7434      5.9177      5.6701   -999.2500   -999.2500    127.2115 
   382.8286   -999.2500     55.9984      6.8457      5.8158      5.8580   -999.2500   -999.2500    127.7914 
   382.9810   -999.2500     58.0418      6.9869      5.8605      6.0521   -999.2500   -999.2500    128.4502 
   383.1334   -999.2500     63.2929      7.0953      6.0201      6.0305   -999.2500   -999.2500    128.6795 
   383.2858   -999.2500     73.7321      7.1219      6.1937      6.3295   -999.2500   -999.2500    128.6723 
   383.4382   -999.2500     84.3526      7.0579      6.2659      6.6637   -999.2500   -999.2500    128.6330 
   383.5906   -999.2500     92.4629      6.9052      6.1843      6.6355   -999.2500   -999.2500    128.4607 
   383.7430   -999.2500     97.9036      6.7154      5.9850      6.4130   -999.2500   -999.2500    128.1915 
   383.8954   -999.2500    100.4328      6.5603      5.7608      6.1246   -999.2500   -999.2500    128.1915 
   384.0478   -999.2500     97.3058      6.4574      5.5967      5.6607   -999.2500   -999.2500    128.2202 
   384.2002   -999.2500     90.1584      6.3884      5.5253      5.0949   -999.2500   -999.2500    128.1719 
   384.3526   -999.2500     80.7397      6.3130      5.5593      4.9247   -999.2500   -999.2500    127.9116 
   384.5050   -999.2500     71.0774      6.1975      5.6372      5.1217   -999.2500   -999.2500    127.8980 
   384.6574   -999.2500     65.7878      6.0709      5.6835      5.4944   -999.2500   -999.2500    128.1056 
   384.8098   -999.2500     60.5730      6.0000      5.6514      5.6987   -999.2500   -999.2500    128.2363 
   384.9622   -999.2500     57.7291      6.0307      5.5530      5.8160   -999.2500   -999.2500    128.4397 
