~Version
VERS.           2.0   :CWLS Log ASCII Standard - VERSION 2.0
WRAP.           NO   :One line per index step
~Well
#  MNEM.UNIT                             DATA:  DESCRIPTION      
#-----------             ---------------------  -----------------
STRT  .M        148.2850                     : START INDEX
STOP  .M        995.9338                     : STOP INDEX
STEP  .M          0.1524                     : STEP
NULL  .       -999.25                        : NULL VALUE
COMP  .                                      : COMPANY
WELL  .       AD-3                           : WELL
FLD   .       AD                             : FIELD
LOC   .                                      : LOCATION
PROV  .                                      : PROVINCE
CNTY  .                                      : COUNTY
STAT  .                                      : STATE
CTRY  .                                      : COUNTRY
SRVC  .                                      : SERVICE COMPANY
API   .                                      : API NUMBER
UWI   .       AD-3		                     : UNIQUE WELL ID
LATI  .DEG                                   : LATITUDE
LONG  .DEG                                   : LONGITUDE
~Curve
#  MNEM.UNIT                        LOG CODES:  CURVE DESCRIPTION
#-----------             ---------------------  -----------------
DEPT  .M                                     : Depth Index
CALI  .IN                                    : 
GR    .GAPI                                  : 
ILD   .ohmm                                  : 
ILM   .ohmm                                  : 
LL3   .ohmm                                  : 
NPHI  .M3M3                                  : 
RHOB  .G/C3                                  : 
SP    .MV                                    : 
#
#----------------------------------------------------------------------------------------------------------
# DEPT        CALI        GR          ILD         ILM         LL3         NPHI        RHOB        SP          
# 
~Ascii
# ...
   261.0610   -999.2500    112.5284      3.8273      3.3979      3.2257   -999.2500   -999.2500    127.5225 
   261.2134   -999.2500    115.0338      3.9056      3.4936      3.2930   -999.2500   -999.2500    127.2547 
   261.3658   -999.2500    117.4910      3.9819      3.6029      3.3074   -999.2500   -999.2500    126.9433 
   261.5182   -999.2500    121.9928      4.0532      3.7043      3.3229   -999.2500   -999.2500    126.8251 
   261.6706   -999.2500    127.2823      4.1155      3.7785      3.2828   -999.2500   -999.2500    126.7666 
   261.8230   -999.2500    131.5247      4.1706      3.8139      3.2655   -999.2500   -999.2500    126.7567 
   261.9754   -999.2500    132.7847      4.2161      3.8294      3.2730   -999.2500   -999.2500    126.9031 
   262.1278   -999.2500    130.1334      4.2504      3.8345      3.2996   -999.2500   -999.2500    127.0905 
   262.2802   -999.2500    124.9842      4.2632      3.8371      3.2986   -999.2500   -999.2500    127.2779 
   262.4326   -999.2500    122.0750      4.2577      3.8405      3.3110   -999.2500   -999.2500    127.4090 
   262.5850   -999.2500    122.9725      4.2411      3.8436      3.2800   -999.2500   -999.2500    127.4002 
   262.7374   -999.2500    127.4664      4.2215      3.8442      3.2298   -999.2500   -999.2500    127.3912 
   262.8898   -999.2500    130.2619      4.2050      3.8414      3.2340   -999.2500   -999.2500    127.4224 
   263.0422   -999.2500    131.5525      4.1947      3.8358      3.2331   -999.2500   -999.2500    127.5072 
   263.1946   -999.2500    130.0298      4.1919      3.8215      3.2289   -999.2500   -999.2500    127.6810 
   263.3470   -999.2500    129.7144      4.1946      3.8050      3.2349   -999.2500   -999.2500    127.6991 
   263.4994   -999.2500    128.8404      4.2027      3.7882      3.2712   -999.2500   -999.2500    127.5937 
   263.6518   -999.2500    130.3401      4.2160      3.7850      3.2999   -999.2500   -999.2500    127.5991 
   263.8042   -999.2500    129.3102      4.2356      3.8036      3.3403   -999.2500   -999.2500    127.5856 
   263.9566   -999.2500    127.6723      4.2635      3.8412      3.3827   -999.2500   -999.2500    127.3376 
   264.1090   -999.2500    123.0125      4.3022      3.8757      3.4084   -999.2500   -999.2500    126.9851 
   264.2614   -999.2500    119.5105      4.3520      3.9164      3.4150   -999.2500   -999.2500    126.8115 
   264.4138   -999.2500    115.4395      4.4220      3.9699      3.3922   -999.2500   -999.2500    126.7844 
   264.5662   -999.2500    112.5107      4.5031      4.0334      3.4179   -999.2500   -999.2500    126.6166 
   264.7186   -999.2500    112.4524      4.5926      4.1036      3.4635   -999.2500   -999.2500    126.2803 
   264.8710   -999.2500    113.5545      4.6883      4.1786      3.5641   -999.2500   -999.2500    126.0199 
   265.0234   -999.2500    115.6110      4.7898      4.2577      3.6753   -999.2500   -999.2500    125.9142 
   265.1758   -999.2500    116.7362      4.8972      4.3403      3.7890   -999.2500   -999.2500    125.8978 
   265.3282   -999.2500    116.8510      5.0140      4.4266      3.8595   -999.2500   -999.2500    126.3371 
   265.4806   -999.2500    113.3015      5.1128      4.5237      3.9631   -999.2500   -999.2500    126.7437 
   265.6330   -999.2500    112.8823      5.2169      4.6097      4.0275   -999.2500   -999.2500    126.8820 
   265.7854   -999.2500    110.6331      5.3260      4.7009      4.0673   -999.2500   -999.2500    127.1179 
   265.9378   -999.2500    107.8828      5.4406      4.8037      4.1806   -999.2500   -999.2500    127.2155 
   266.0902   -999.2500    105.2682      5.5648      4.9208      4.2576   -999.2500   -999.2500    127.2887 
   266.2426   -999.2500    104.4098      5.7066      5.0487      4.3253   -999.2500   -999.2500    127.0203 
   266.3950   -999.2500    101.5203      5.8752      5.1902      4.4769   -999.2500   -999.2500    126.9959 
   266.5474   -999.2500     99.6487      6.0773      5.3668      4.7783   -999.2500   -999.2500    126.7275 
   266.6998   -999.2500     99.2961      6.3156      5.5872      5.0611   -999.2500   -999.2500    126.6055 
   266.8522   -999.2500     98.9906      6.6676      5.8790      5.4753   -999.2500   -999.2500    126.3249 
   267.0046   -999.2500    100.1242      7.0319      6.2322      5.8197   -999.2500   -999.2500    126.0443 
   267.1570   -999.2500     99.4777      7.3881      6.6086      6.0463   -999.2500   -999.2500    125.7174 
   267.3094   -999.2500     96.6644      7.7313      6.9542      6.1629   -999.2500   -999.2500    125.1051 
   267.4618   -999.2500     93.1638      8.0501      7.2292      6.1870   -999.2500   -999.2500    124.0316 
   267.6142   -999.2500     92.8109      8.3289      7.4368      6.1670   -999.2500   -999.2500    123.7409 
   267.7666   -999.2500     92.6207      8.5323      7.6145      6.2177   -999.2500   -999.2500    123.8971 
   267.9190   -999.2500     92.5099      8.6304      7.7400      6.2210   -999.2500   -999.2500    124.2093 
   268.0714   -999.2500     90.5440      8.6725      7.8138      6.2114   -999.2500   -999.2500    124.5070 
   268.2238   -999.2500     88.3589      8.7115      7.8561      6.2926   -999.2500   -999.2500    124.5754 
   268.3762   -999.2500     88.2163      8.7612      7.9090      6.3860   -999.2500   -999.2500    124.4242 
   268.5286   -999.2500     88.0646      8.8322      7.9988      6.4093   -999.2500   -999.2500    124.2875 
   268.6810   -999.2500     88.2844      8.9064      8.0758      6.5888   -999.2500   -999.2500    124.1997 
   268.8334   -999.2500     86.7801      8.9608      8.1679      6.6409   -999.2500   -999.2500    124.1850 
   268.9858   -999.2500     86.6859      9.0181      8.2257      6.6595   -999.2500   -999.2500    124.2191 
   269.1382   -999.2500     87.7436      9.0748      8.2734      6.7072   -999.2500   -999.2500    124.2680 
   269.2906   -999.2500     89.6506      9.1413      8.3156      6.7072   -999.2500   -999.2500    124.2875 
   269.4430   -999.2500     89.0180      9.2150      8.3618      6.5403   -999.2500   -999.2500    124.2875 
   269.5954   -999.2500     86.8079      9.2897      8.4261      6.5718   -999.2500   -999.2500    123.9840 
   269.7478   -999.2500     82.7301      9.3554      8.4997      6.5972   -999.2500   -999.2500    123.6370 
   269.9002   -999.2500     81.9599      9.4088      8.5719      6.5579   -999.2500   -999.2500    123.3983 
   270.0526   -999.2500     83.5636      9.4653      8.6395      6.5516   -999.2500   -999.2500    123.1706 
   270.2050   -999.2500     83.8068      9.5321      8.7476      6.6817   -999.2500   -999.2500    122.8967 
   270.3574   -999.2500     82.3011      9.6452      8.9206      6.7796   -999.2500   -999.2500    122.7042 
   270.5098   -999.2500     79.2019      9.7991      9.1667      6.8914   -999.2500   -999.2500    122.7555 
   270.6622   -999.2500     76.3543      9.9676      9.4540      7.0630   -999.2500   -999.2500    123.0919 
   270.8146   -999.2500     76.1043     10.0965      9.7031      7.4081   -999.2500   -999.2500    122.8863 
   270.9670   -999.2500     77.8052     10.1189      9.7989      7.6698   -999.2500   -999.2500    122.9348 
   271.1194   -999.2500     79.7725      9.9795      9.6243      7.8794   -999.2500   -999.2500    123.3810 
   271.2718   -999.2500     82.6390      9.6842      9.2256      7.7192   -999.2500   -999.2500    123.8238 
   271.4242   -999.2500     86.6849      9.3017      8.6547      7.1654   -999.2500   -999.2500    124.2020 
   271.5766   -999.2500     90.8187      8.8968      8.0431      6.5040   -999.2500   -999.2500    124.7057 
   271.7290   -999.2500     94.5930      8.5096      7.4837      5.9275   -999.2500   -999.2500    125.1659 
   271.8814   -999.2500     98.2067      8.1498      7.0317      5.3280   -999.2500   -999.2500    125.5563 
   272.0338   -999.2500    102.3928      7.8106      6.7395      5.0812   -999.2500   -999.2500    125.9467 
   272.1862   -999.2500    104.6615      7.5105      6.5378      5.1725   -999.2500   -999.2500    126.5323 
