~Version
VERS.           2.0   :CWLS Log ASCII Standard - VERSION 2.0
WRAP.           NO   :One line per index step
~Well
#  MNEM.UNIT                             DATA:  DESCRIPTION      
#-----------             ---------------------  -----------------
STRT  .M        149.0470                     : START INDEX
STOP  .M       1003.7062                     : STOP INDEX
STEP  .M          0.1524                     : STEP
NULL  .       -999.25                        : NULL VALUE
COMP  .                                      : COMPANY
WELL  .       AC-2                           : WELL
FLD   .       AC                             : FIELD
LOC   .                                      : LOCATION
PROV  .                                      : PROVINCE
CNTY  .                                      : COUNTY
STAT  .                                      : STATE
CTRY  .                                      : COUNTRY
SRVC  .                                      : SERVICE COMPANY
API   .                                      : API NUMBER
UWI   .       AC-2		                     : UNIQUE WELL ID
LATI  .DEG                                   : LATITUDE
LONG  .DEG                                   : LONGITUDE
~Curve
#  MNEM.UNIT                        LOG CODES:  CURVE DESCRIPTION
#-----------             ---------------------  -----------------
DEPT  .M                                     : Depth Index
CALI  .IN                                    : 
GR    .GAPI                                  : 
ILD   .ohmm                                  : 
ILM   .ohmm                                  : 
LLG3  .ohmm                                  : 
NPHI  .M3M3                                  : 
RHOB  .G/C3                                  : 
SP    .MV                                    : 
#
#----------------------------------------------------------------------------------------------------------------------------
# DEPT          CALI          GR            ILD           ILM           LLG3          NPHI          RHOB          SP            
# 
~Ascii
# ...
   264.261414     -999.2500      108.9000        5.5982        5.0510        3.3037     -999.2500     -999.2500      103.6222 
   264.413838     -999.2500      106.8000        5.8803        5.4450        3.3037     -999.2500     -999.2500      103.4000 
   264.566262     -999.2500      101.7000        6.2374        5.8253        3.5156     -999.2500     -999.2500      103.3111 
   264.718686     -999.2500       95.0000        6.5464        6.2119        4.0179     -999.2500     -999.2500      102.9221 
   264.871010     -999.2500       87.9000        6.9343        6.6212        4.2560     -999.2500     -999.2500      102.3000 
   265.023434     -999.2500       81.8000        7.3452        7.0177        4.3652     -999.2500     -999.2500      101.8000 
   265.175858     -999.2500       79.4000        7.7625        7.3558        4.4259     -999.2500     -999.2500      101.4000 
   265.328282     -999.2500       81.4000        8.1284        7.6446        4.4463     -999.2500     -999.2500      101.1000 
   265.480606     -999.2500       85.9000        8.4334        7.7964        4.6559     -999.2500     -999.2500      101.1000 
   265.633030     -999.2500       89.3000        8.7097        7.9854        4.8084     -999.2500     -999.2500      101.4000 
   265.785454     -999.2500       88.0000        8.9537        8.1878        4.9431     -999.2500     -999.2500      101.9000 
   265.937878     -999.2500       83.8000        9.1373        8.3653        4.8417     -999.2500     -999.2500      102.0000 
   266.090202     -999.2500       78.3000        9.2986        8.5346        4.9659     -999.2500     -999.2500      102.3000 
   266.242626     -999.2500       74.0000        9.4541        8.6862        5.0933     -999.2500     -999.2500      102.3667 
   266.395050     -999.2500       72.3000        9.6075        8.8211        5.3580     -999.2500     -999.2500      102.0332 
   266.547474     -999.2500       72.3000        9.7499        8.9325        5.3089     -999.2500     -999.2500      102.0000 
   266.699898     -999.2500       71.5000        9.8584        9.0112        5.2000     -999.2500     -999.2500      101.5666 
   266.852222     -999.2500       69.8000        9.9404        9.0518        5.5335     -999.2500     -999.2500      101.1666 
   267.004646     -999.2500       69.5000        9.9954        9.0504        5.4954     -999.2500     -999.2500      101.1000 
   267.157070     -999.2500       69.7000       10.0323        8.9950        5.3457     -999.2500     -999.2500      101.2000 
   267.309494     -999.2500       68.7000       10.0694        8.9507        5.3334     -999.2500     -999.2500      101.4000 
   267.461818     -999.2500       66.8000       10.0416        8.9063        5.1761     -999.2500     -999.2500      101.6000 
   267.614242     -999.2500       65.6000        9.9040        8.7926        5.2966     -999.2500     -999.2500      101.6000 
   267.766666     -999.2500       66.9000        9.6343        8.6390        5.1880     -999.2500     -999.2500      101.5000 
   267.919090     -999.2500       71.6000        9.3034        8.4355        4.9659     -999.2500     -999.2500      101.4000 
   268.071414     -999.2500       81.2000        8.9125        8.1496        5.0350     -999.2500     -999.2500      101.6000 
   268.223838     -999.2500       92.5000        8.5799        7.7667        5.0234     -999.2500     -999.2500      101.5000 
   268.376262     -999.2500       98.4000        8.1783        7.3621        4.8306     -999.2500     -999.2500      101.4000 
   268.528686     -999.2500       95.6000        7.7723        6.9555        4.7098     -999.2500     -999.2500      101.6000 
   268.681010     -999.2500       87.1000        7.3833        6.5232        4.6026     -999.2500     -999.2500      101.6000 
   268.833434     -999.2500       82.3000        7.0573        6.1459        4.6666     -999.2500     -999.2500      101.5000 
   268.985858     -999.2500       86.8000        6.8059        5.9311        4.6452     -999.2500     -999.2500      102.0000 
   269.138282     -999.2500       95.1000        6.6374        5.8252        4.4157     -999.2500     -999.2500      102.4000 
   269.290606     -999.2500      100.1000        6.5932        5.7603        4.0365     -999.2500     -999.2500      102.6000 
   269.443030     -999.2500       99.7000        6.5904        5.7389        3.8815     -999.2500     -999.2500      102.6000 
   269.595454     -999.2500       98.5000        6.6293        5.7622        3.9265     -999.2500     -999.2500      102.7000 
   269.747878     -999.2500       99.1000        6.7186        5.8278        3.8548     -999.2500     -999.2500      103.0000 
   269.900202     -999.2500       99.0000        6.8497        5.9537        3.8107     -999.2500     -999.2500      103.0000 
   270.052626     -999.2500       94.3000        6.9947        6.1304        3.8815     -999.2500     -999.2500      102.8000 
   270.205050     -999.2500       85.3000        7.1467        6.3439        4.0458     -999.2500     -999.2500      102.2000 
   270.357474     -999.2500       77.6000        7.2919        6.5799        4.4157     -999.2500     -999.2500      101.3000 
   270.509898     -999.2500       75.6000        7.4214        6.8298        4.7098     -999.2500     -999.2500      101.0000 
   270.662222     -999.2500       78.4000        7.5274        7.0890        4.8865     -999.2500     -999.2500      101.3000 
   270.814646     -999.2500       82.7000        7.6033        7.3114        4.9317     -999.2500     -999.2500      101.6556 
   270.967070     -999.2500       89.2000        7.6384        7.4180        4.8865     -999.2500     -999.2500      102.0890 
   271.119494     -999.2500       98.3000        7.6184        7.2831        4.7534     -999.2500     -999.2500      102.6001 
   271.271818     -999.2500      106.0000        7.5239        7.0316        4.2462     -999.2500     -999.2500      103.0778 
   271.424242     -999.2500      107.9000        7.4060        6.8126        4.1210     -999.2500     -999.2500      103.3000 
   271.576666     -999.2500      104.9000        7.3019        6.6901        4.0926     -999.2500     -999.2500      103.2334 
   271.729090     -999.2500      102.4000        7.2492        6.6681        4.1879     -999.2500     -999.2500      103.0778 
   271.881414     -999.2500      103.2000        7.2277        6.7143        4.3252     -999.2500     -999.2500      102.9889 
   272.033838     -999.2500      104.4000        7.2111        6.7764        4.4463     -999.2500     -999.2500      102.9000 
   272.186262     -999.2500      104.1000        7.1780        6.8212        4.4259     -999.2500     -999.2500      102.8000 
   272.338686     -999.2500      104.7000        7.0795        6.7801        4.5604     -999.2500     -999.2500      102.7000 
   272.491010     -999.2500      107.8000        6.9024        6.6449        4.4771     -999.2500     -999.2500      102.8000 
   272.643434     -999.2500      110.0000        6.6528        6.4329        4.2954     -999.2500     -999.2500      103.1000 
   272.795858     -999.2500      106.7000        6.3533        6.1327        3.9811     -999.2500     -999.2500      103.1000 
   272.948282     -999.2500       99.0000        6.0534        5.7302        3.7154     -999.2500     -999.2500      103.0000 
   273.100606     -999.2500       91.8000        5.7943        5.3050        3.8994     -999.2500     -999.2500      102.9000 
   273.253030     -999.2500       88.6000        5.5966        5.0298        3.6392     -999.2500     -999.2500      103.0000 
   273.405454     -999.2500       88.1000        5.3960        4.8852        2.8249     -999.2500     -999.2500      103.0285 
   273.557878     -999.2500       89.8000        5.1853        4.7881        2.6915     -999.2500     -999.2500      103.2285 
   273.710202     -999.2500       94.0000        4.9838        4.6219        2.8576     -999.2500     -999.2500      103.3000 
