~Version
VERS.           2.0   :CWLS Log ASCII Standard - VERSION 2.0
WRAP.           NO   :One line per index step
~Well
#  MNEM.UNIT                             DATA:  DESCRIPTION      
#-----------             ---------------------  -----------------
STRT  .M        149.0470                     : START INDEX
STOP  .M       1003.7062                     : STOP INDEX
STEP  .M          0.1524                     : STEP
NULL  .       -999.25                        : NULL VALUE
COMP  .                                      : COMPANY
WELL  .       AC-2                           : WELL
FLD   .       AC                             : FIELD
LOC   .                                      : LOCATION
PROV  .                                      : PROVINCE
CNTY  .                                      : COUNTY
STAT  .                                      : STATE
CTRY  .                                      : COUNTRY
SRVC  .                                      : SERVICE COMPANY
API   .                                      : API NUMBER
UWI   .       AC-2		                     : UNIQUE WELL ID
LATI  .DEG                                   : LATITUDE
LONG  .DEG                                   : LONGITUDE
~Curve
#  MNEM.UNIT                        LOG CODES:  CURVE DESCRIPTION
#-----------             ---------------------  -----------------
DEPT  .M                                     : Depth Index
CALI  .IN                                    : 
GR    .GAPI                                  : 
ILD   .ohmm                                  : 
ILM   .ohmm                                  : 
LLG3  .ohmm                                  : 
NPHI  .M3M3                                  : 
RHOB  .G/C3                                  : 
SP    .MV                                    : 
#
#----------------------------------------------------------------------------------------------------------------------------
# DEPT          CALI          GR            ILD           ILM           LLG3          NPHI          RHOB          SP            
# 
~Ascii
# ...
   600.303434     -999.2500       92.3000        3.3189        3.3037        2.2803     -999.2500     -999.2500      124.3000 
   600.455858     -999.2500       92.5000        3.3011        3.3696        2.2909     -999.2500     -999.2500      124.1000 
   600.608282     -999.2500       92.4000        3.2399        3.3214        2.4946     -999.2500     -999.2500      123.6000 
   600.760606     -999.2500       92.7000        3.1601        3.1851        2.5527     -999.2500     -999.2500      123.4000 
   600.913030     -999.2500       96.2000        3.0756        2.9984        2.5235     -999.2500     -999.2500      123.3000 
   601.065454     -999.2500      101.2000        3.0004        2.8165        2.3388     -999.2500     -999.2500      123.5000 
   601.217878     -999.2500      105.7000        2.9339        2.7017        2.2803     -999.2500     -999.2500      123.9000 
   601.370202     -999.2500      107.6000        2.8730        2.6382        2.1478     -999.2500     -999.2500      123.9000 
   601.522626     -999.2500      107.4000        2.8161        2.6202        1.9724     -999.2500     -999.2500      123.9000 
   601.675050     -999.2500      108.9000        2.7696        2.6283        1.9143     -999.2500     -999.2500      123.9000 
   601.827474     -999.2500      111.3000        2.7451        2.6499        1.9815     -999.2500     -999.2500      123.8000 
   601.979898     -999.2500      112.4000        2.7474        2.6813        2.1330     -999.2500     -999.2500      123.9000 
   602.132222     -999.2500      109.6000        2.7572        2.7214        2.1330     -999.2500     -999.2500      123.6000 
   602.284646     -999.2500      102.8000        2.7423        2.7641        2.1677     -999.2500     -999.2500      123.6000 
   602.437070     -999.2500       97.0000        2.6801        2.7926        2.1777     -999.2500     -999.2500      123.8000 
   602.589494     -999.2500       95.9000        2.5704        2.7365        2.2387     -999.2500     -999.2500      123.8000 
   602.741818     -999.2500       98.1000        2.4279        2.5721        2.2646     -999.2500     -999.2500      123.6000 
   602.894242     -999.2500       98.1000        2.2718        2.3337        2.2803     -999.2500     -999.2500      123.5000 
   603.046666     -999.2500       95.4000        2.1184        2.0970        2.2284     -999.2500     -999.2500      123.4000 
   603.199090     -999.2500       95.0000        1.9778        1.8951        2.0045     -999.2500     -999.2500      123.4000 
   603.351414     -999.2500       96.3000        1.8532        1.7376        1.7742     -999.2500     -999.2500      123.3000 
   603.503838     -999.2500       94.7000        1.7470        1.6228        1.6444     -999.2500     -999.2500      123.4000 
   603.656262     -999.2500       90.6000        1.6630        1.5588        1.5776     -999.2500     -999.2500      123.8000 
   603.808686     -999.2500       89.9000        1.6041        1.5279        1.5311     -999.2500     -999.2500      123.6000 
   603.961010     -999.2500       94.2000        1.5693        1.5132        1.5136     -999.2500     -999.2500      123.6000 
   604.113434     -999.2500       99.4000        1.5573        1.5124        1.4555     -999.2500     -999.2500      123.6000 
   604.265858     -999.2500      101.6000        1.5628        1.5233        1.4859     -999.2500     -999.2500      123.5000 
   604.418282     -999.2500      100.5000        1.5809        1.5437        1.4894     -999.2500     -999.2500      123.6000 
   604.570606     -999.2500       98.0000        1.6056        1.5717        1.4689     -999.2500     -999.2500      123.6000 
   604.723030     -999.2500       95.8000        1.6244        1.6041        1.5276     -999.2500     -999.2500      123.6000 
   604.875454     -999.2500       94.4000        1.6345        1.6360        1.5276     -999.2500     -999.2500      123.5000 
   605.027878     -999.2500       93.6000        1.6342        1.6596        1.5740     -999.2500     -999.2500      123.7000 
   605.180202     -999.2500       94.7000        1.6224        1.6634        1.5849     -999.2500     -999.2500      123.6000 
   605.332626     -999.2500       96.4000        1.6047        1.6431        1.6181     -999.2500     -999.2500      123.5000 
   605.485050     -999.2500       95.3000        1.5834        1.6087        1.6255     -999.2500     -999.2500      123.7000 
   605.637474     -999.2500       92.5000        1.5588        1.5729        1.5959     -999.2500     -999.2500      123.7000 
   605.789898     -999.2500       92.1000        1.5282        1.5379        1.5382     -999.2500     -999.2500      123.6000 
   605.942222     -999.2500       95.5000        1.4912        1.5092        1.4588     -999.2500     -999.2500      123.4000 
   606.094646     -999.2500       98.3000        1.4535        1.4851        1.4355     -999.2500     -999.2500      123.5000 
   606.247070     -999.2500       96.1000        1.4193        1.4625        1.4355     -999.2500     -999.2500      123.5000 
   606.399494     -999.2500       91.0000        1.3943        1.4365        1.4997     -999.2500     -999.2500      123.3000 
   606.551818     -999.2500       88.8000        1.3821        1.3989        1.4454     -999.2500     -999.2500      123.0000 
   606.704242     -999.2500       92.5000        1.3883        1.3605        1.4894     -999.2500     -999.2500      122.7000 
   606.856666     -999.2500       98.7000        1.4090        1.3516        1.4757     -999.2500     -999.2500      122.5000 
   607.009090     -999.2500      101.9000        1.4492        1.3913        1.3900     -999.2500     -999.2500      122.2000 
   607.161414     -999.2500      103.2000        1.5119        1.4672        1.3677     -999.2500     -999.2500      122.3000 
   607.313838     -999.2500      104.1000        1.5998        1.5840        1.3932     -999.2500     -999.2500      122.3000 
   607.466262     -999.2500      103.6000        1.7204        1.7439        1.4223     -999.2500     -999.2500      122.2000 
   607.618686     -999.2500      102.1000        1.8770        1.9339        1.5276     -999.2500     -999.2500      122.4000 
   607.771010     -999.2500      103.1000        2.0682        2.1469        1.6711     -999.2500     -999.2500      121.7000 
   607.923434     -999.2500      108.1000        2.2760        2.3690        1.7824     -999.2500     -999.2500      121.5000 
   608.075858     -999.2500      111.5000        2.4876        2.5737        1.9409     -999.2500     -999.2500      121.4143 
   608.228282     -999.2500      109.5000        2.6823        2.7399        2.2233     -999.2500     -999.2500      121.6999 
   608.380606     -999.2500      104.0000        2.8389        2.8596        2.4717     -999.2500     -999.2500      122.2857 
   608.533030     -999.2500       99.7000        2.9354        2.9450        2.5177     -999.2500     -999.2500      122.2286 
   608.685454     -999.2500       97.8000        2.9645        2.9691        2.3388     -999.2500     -999.2500      122.1714 
   608.837878     -999.2500       96.9000        2.9174        2.9271        2.2699     -999.2500     -999.2500      122.3713 
   608.990202     -999.2500       96.2000        2.8301        2.8345        2.3174     -999.2500     -999.2500      122.4000 
   609.142626     -999.2500       94.1000        2.7198        2.7021        2.2909     -999.2500     -999.2500      122.5926 
   609.295050     -999.2500       91.6000        2.5954        2.5597        2.3768     -999.2500     -999.2500      122.6927 
   609.447474     -999.2500       91.5000        2.4592        2.4146        2.2856     -999.2500     -999.2500      122.7000 
   609.599898     -999.2500       93.6000        2.3143        2.2604        2.1677     -999.2500     -999.2500      122.6145 
   609.752222     -999.2500       94.2000        2.1736        2.1064        2.0324     -999.2500     -999.2500      122.6819 
