~Version
VERS.           2.0   :CWLS Log ASCII Standard - VERSION 2.0
WRAP.           NO   :One line per index step
~Well
#  MNEM.UNIT                             DATA:  DESCRIPTION      
#-----------             ---------------------  -----------------
STRT  .M        131.9780                     : START INDEX
STOP  .M       1012.2404                     : STOP INDEX
STEP  .M          0.1524                     : STEP
NULL  .       -999.25                        : NULL VALUE
COMP  .                                      : COMPANY
WELL  .       AB-1                           : WELL
FLD   .       AB                       : FIELD
LOC   .                                      : LOCATION
PROV  .                                      : PROVINCE
CNTY  .                                      : COUNTY
STAT  .                                      : STATE
CTRY  .                                      : COUNTRY
SRVC  .                                      : SERVICE COMPANY
API   .                                      : API NUMBER
UWI   .       AB-1		                     : UNIQUE WELL ID
LATI  .DEG                                   : LATITUDE
LONG  .DEG                                   : LONGITUDE
~Curve
#  MNEM.UNIT                        LOG CODES:  CURVE DESCRIPTION
#-----------             ---------------------  -----------------
DEPT  .M                                     : Depth Index
CALI  .IN                                    : 
GR    .GAPI                                  : 
ILD   .ohmm                                  : 
ILM   .ohmm                                  : 
NPHI  .M3M3                                  : 
RHOB  .G/C3                                  : 
SP    .MV                                    : 
LL3   .ohmm                                  : 
#
#----------------------------------------------------------------------------------------------------------------------------
# DEPT          CALI          GR            ILD           ILM           NPHI          RHOB          SP            LL3           
# 
~Ascii
# ...
   717.651212     -999.2500       85.7000        1.6650        1.6395        0.5718     -999.2500       87.7889        2.5527 
   717.803636     -999.2500       84.6000        1.5583        1.5261        0.5675     -999.2500       87.9752        2.5293 
   717.956060     -999.2500       84.2000        1.4475        1.3964        0.5599     -999.2500       88.0864        2.4378 
   718.108484     -999.2500       85.1000        1.3382        1.2710        0.5623     -999.2500       88.3556        2.3442 
   718.260808     -999.2500       87.9000        1.2430        1.1660        0.5671     -999.2500       88.4000        2.1979 
   718.413232     -999.2500       95.4000        1.1652        1.0880        0.5584     -999.2500       88.2345        2.0845 
   718.565656     -999.2500      107.6000        1.1048        1.0367        0.5411     -999.2500       87.7925        2.0137 
   718.718080     -999.2500      117.2000        1.0660        1.0095        0.5377     -999.2500       87.8605        1.9953 
   718.870404     -999.2500      116.8000        1.0457        1.0064        0.5531     -999.2500       87.8210        1.9770 
   719.022828     -999.2500      106.1000        1.0440        1.0183        0.5699     -999.2500       87.6444        2.0324 
   719.175252     -999.2500       92.8000        1.0605        1.0376        0.5714     -999.2500       87.6000        2.0845 
   719.327676     -999.2500       84.7000        1.0936        1.0625        0.5507     -999.2500       87.6753        2.1038 
   719.480000     -999.2500       81.8000        1.1374        1.0939        0.5197     -999.2500       87.9221        2.1038 
   719.632424     -999.2500       79.9000        1.1848        1.1312        0.4966     -999.2500       88.4372        2.1777 
   719.784848     -999.2500       77.1000        1.2274        1.1722        0.4932     -999.2500       88.6000        2.2131 
   719.937272     -999.2500       73.7000        1.2646        1.2134        0.5060     -999.2500       88.4592        2.2131 
   720.089696     -999.2500       70.6000        1.2989        1.2502        0.5275     -999.2500       88.2617        2.2491 
   720.242020     -999.2500       69.3000        1.3281        1.2789        0.5488     -999.2500       87.9962        2.2856 
   720.394444     -999.2500       71.6000        1.3482        1.2979        0.5618     -999.2500       87.9667        2.2699 
   720.546868     -999.2500       76.3000        1.3552        1.3131        0.5608     -999.2500       88.2618        2.2491 
   720.699292     -999.2500       79.8000        1.3552        1.3203        0.5502     -999.2500       88.5285        2.2491 
   720.851616     -999.2500       80.7000        1.3459        1.3167        0.5430     -999.2500       88.6630        2.2699 
   721.004040     -999.2500       80.4000        1.3397        1.3038        0.5420     -999.2500       88.7617        2.2491 
   721.156464     -999.2500       78.8000        1.3428        1.2855        0.5507     -999.2500       88.8605        2.2336 
   721.308888     -999.2500       75.9000        1.3552        1.2676        0.5733     -999.2500       88.6628        2.1979 
   721.461212     -999.2500       73.6000        1.3804        1.2595        0.5952     -999.2500       88.3840        2.1577 
   721.613636     -999.2500       73.5000        1.4093        1.2698        0.5918     -999.2500       88.3000        2.1232 
   721.766060     -999.2500       74.1000        1.4388        1.3002        0.5560     -999.2500       88.1334        2.1429 
   721.918484     -999.2500       73.2000        1.4655        1.3776        0.5153     -999.2500       87.8369        2.1979 
   722.070808     -999.2500       71.8000        1.4859        1.4625        0.5006     -999.2500       87.7531        2.3768 
   722.223232     -999.2500       72.3000        1.5031        1.5171        0.5114     -999.2500       87.8000        2.4946 
   722.375656     -999.2500       74.4000        1.5031        1.5101        0.5284     -999.2500       87.7494        2.5293 
   722.528080     -999.2500       75.9000        1.4655        1.4646        0.5406     -999.2500       87.6506        2.5527 
   722.680404     -999.2500       76.0000        1.3868        1.3552        0.5464     -999.2500       87.5518        2.5293 
   722.832828     -999.2500       76.0000        1.2647        1.2316        0.5411     -999.2500       87.5469        2.3768 
   722.985252     -999.2500       77.0000        1.1324        1.0922        0.5236     -999.2500       87.5543        2.3227 
   723.137676     -999.2500       81.0000        1.0233        0.9645        0.5065     -999.2500       87.5444        2.3605 
   723.290000     -999.2500       88.6000        0.9462        0.8712        0.5050     -999.2500       87.6864        2.3067 
   723.442424     -999.2500       94.3000        0.8954        0.8178        0.5163     -999.2500       87.7580        2.1232 
   723.594848     -999.2500       92.9000        0.8630        0.7980        0.5270     -999.2500       87.6184        2.0137 
   723.747272     -999.2500       85.6000        0.8375        0.8017        0.5323     -999.2500       87.4605        1.9409 
   723.899696     -999.2500       77.6000        0.8222        0.8173        0.5367     -999.2500       87.4383        1.8621 
   724.052020     -999.2500       74.2000        0.8241        0.8335        0.5406     -999.2500       87.6111        1.8837 
   724.204444     -999.2500       75.2000        0.8453        0.8532        0.5469     -999.2500       87.8000        1.9953 
   724.356868     -999.2500       78.1000        0.8831        0.8777        0.5584     -999.2500       87.7654        2.0701 
   724.509292     -999.2500       79.3000        0.9290        0.9060        0.5790     -999.2500       87.5999        2.0845 
   724.661616     -999.2500       76.8000        0.9705        0.9355        0.6070     -999.2500       87.4000        2.0845 
   724.814040     -999.2500       73.4000        1.0023        0.9607        0.6342     -999.2500       87.3691        2.0701 
   724.966464     -999.2500       71.1000        1.0257        0.9815        0.6463     -999.2500       87.2703        2.0845 
   725.118888     -999.2500       70.6000        1.0423        0.9990        0.6365     -999.2500       87.2568        2.0845 
   725.271212     -999.2500       72.3000        1.0520        1.0141        0.6075     -999.2500       87.4544        2.0845 
   725.423636     -999.2500       75.1000        1.0592        1.0276        0.5733     -999.2500       87.6259        2.0845 
   725.576060     -999.2500       75.1000        1.0592        1.0437        0.5531     -999.2500       87.7000        2.1429 
   725.728484     -999.2500       71.2000        1.0568        1.0520        0.5541     -999.2500       87.7000        2.1429 
   725.880808     -999.2500       67.7000        1.0520        1.0489        0.5594     -999.2500       87.7223        2.1232 
   726.033232     -999.2500       68.5000        1.0447        1.0365        0.5527     -999.2500       87.8210        2.1232 
   726.185656     -999.2500       72.0000        1.0328        1.0203        0.5440     -999.2500       87.9198        2.1038 
   726.338080     -999.2500       73.1000        1.0209        1.0063        0.5435     -999.2500       87.9814        2.0512 
   726.490404     -999.2500       70.9000        1.0093        0.9977        0.5372     -999.2500       87.9173        2.0512 
   726.642828     -999.2500       69.1000        1.0000        0.9931        0.5207     -999.2500       88.0000        2.0701 
   726.795252     -999.2500       70.1000        0.9954        0.9908        0.5197     -999.2500       87.9555        2.0701 
   726.947676     -999.2500       73.0000        1.0000        0.9863        0.5493     -999.2500       87.7000        2.0845 
   727.100000     -999.2500       73.7000        1.0116        0.9863        0.5828     -999.2500       87.7123        2.0845 
