~Version
VERS.           2.0   :CWLS Log ASCII Standard - VERSION 2.0
WRAP.           NO   :One line per index step
~Well
#  MNEM.UNIT                             DATA:  DESCRIPTION      
#-----------             ---------------------  -----------------
STRT  .M        149.0470                     : START INDEX
STOP  .M       1003.7062                     : STOP INDEX
STEP  .M          0.1524                     : STEP
NULL  .       -999.25                        : NULL VALUE
COMP  .                                      : COMPANY
WELL  .       AC-2                           : WELL
FLD   .       AC                             : FIELD
LOC   .                                      : LOCATION
PROV  .                                      : PROVINCE
CNTY  .                                      : COUNTY
STAT  .                                      : STATE
CTRY  .                                      : COUNTRY
SRVC  .                                      : SERVICE COMPANY
API   .                                      : API NUMBER
UWI   .       AC-2		                     : UNIQUE WELL ID
LATI  .DEG                                   : LATITUDE
LONG  .DEG                                   : LONGITUDE
~Curve
#  MNEM.UNIT                        LOG CODES:  CURVE DESCRIPTION
#-----------             ---------------------  -----------------
DEPT  .M                                     : Depth Index
CALI  .IN                                    : 
GR    .GAPI                                  : 
ILD   .ohmm                                  : 
ILM   .ohmm                                  : 
LLG3  .ohmm                                  : 
NPHI  .M3M3                                  : 
RHOB  .G/C3                                  : 
SP    .MV                                    : 
#
#----------------------------------------------------------------------------------------------------------------------------
# DEPT          CALI          GR            ILD           ILM           LLG3          NPHI          RHOB          SP            
# 
~Ascii
# ...
   321.868686     -999.2500      146.1000        4.7787        4.6530        3.4674     -999.2500     -999.2500      100.5000 
   322.021010     -999.2500      147.7000        5.0152        4.9422        3.5810     -999.2500     -999.2500      100.5000 
   322.173434     -999.2500      148.5000        5.2397        5.1880        3.6141     -999.2500     -999.2500      100.4000 
   322.325858     -999.2500      151.9000        5.4232        5.3063        3.5645     -999.2500     -999.2500      100.6000 
   322.478282     -999.2500      153.1000        5.5411        5.3594        3.4834     -999.2500     -999.2500      101.0000 
   322.630606     -999.2500      146.1000        5.5710        5.3457        3.3651     -999.2500     -999.2500      101.2000 
   322.783030     -999.2500      133.9000        5.5373        5.2927        3.3497     -999.2500     -999.2500      101.1000 
   322.935454     -999.2500      126.4000        5.4474        5.2175        3.1915     -999.2500     -999.2500      101.2000 
   323.087878     -999.2500      127.1000        5.3125        5.1328        3.1189     -999.2500     -999.2500      101.6000 
   323.240202     -999.2500      128.2000        5.1342        5.0468        3.2810     -999.2500     -999.2500      101.8000 
   323.392626     -999.2500      123.8000        4.9506        4.9472        3.1623     -999.2500     -999.2500      101.9000 
   323.545050     -999.2500      115.9000        4.7804        4.7973        2.5410     -999.2500     -999.2500      102.0000 
   323.697474     -999.2500      112.0000        4.6293        4.5179        2.5527     -999.2500     -999.2500      102.2000 
   323.849898     -999.2500      116.0000        4.4926        4.2819        2.6546     -999.2500     -999.2500      102.3000 
   324.002222     -999.2500      123.6000        4.3519        4.1425        2.6853     -999.2500     -999.2500      102.1000 
   324.154646     -999.2500      129.1000        4.2213        4.0388        2.6669     -999.2500     -999.2500      102.0000 
   324.307070     -999.2500      128.7000        4.1240        3.9186        2.7040     -999.2500     -999.2500      102.2000 
   324.459494     -999.2500      126.2000        4.0537        3.8140        2.5410     -999.2500     -999.2500      101.9000 
   324.611818     -999.2500      125.9000        4.0259        3.7584        2.5235     -999.2500     -999.2500      102.0000 
   324.764242     -999.2500      125.5000        4.0159        3.7411        2.5586     -999.2500     -999.2500      101.7000 
   324.916666     -999.2500      122.6000        4.0031        3.7411        2.5882     -999.2500     -999.2500      101.4000 
   325.069090     -999.2500      117.9000        3.9831        3.7411        2.5061     -999.2500     -999.2500      101.1000 
   325.221414     -999.2500      115.0000        3.9633        3.7325        2.5527     -999.2500     -999.2500      101.3000 
   325.373838     -999.2500      114.3000        3.9385        3.7154        2.5704     -999.2500     -999.2500      101.7000 
   325.526262     -999.2500      113.1000        3.9091        3.6983        2.5061     -999.2500     -999.2500      102.6000 
   325.678686     -999.2500      112.4000        3.8799        3.6728        2.5527     -999.2500     -999.2500      101.8000 
   325.831010     -999.2500      112.9000        3.8509        3.6266        2.5177     -999.2500     -999.2500      101.6000 
   325.983434     -999.2500      113.1000        3.8300        3.5755        2.4322     -999.2500     -999.2500      101.7000 
   326.135858     -999.2500      111.3000        3.8110        3.5388        2.3988     -999.2500     -999.2500      101.8000 
   326.288282     -999.2500      111.2000        3.8101        3.5286        2.3878     -999.2500     -999.2500      102.0000 
   326.440606     -999.2500      115.5000        3.8019        3.5387        2.4378     -999.2500     -999.2500      102.1000 
   326.593030     -999.2500      121.6000        3.8040        3.5556        2.5293     -999.2500     -999.2500      102.0000 
   326.745454     -999.2500      124.0000        3.8163        3.5776        2.5177     -999.2500     -999.2500      101.9000 
   326.897878     -999.2500      122.2000        3.8354        3.6043        2.4774     -999.2500     -999.2500      102.1000 
   327.050202     -999.2500      122.1000        3.8634        3.6303        2.5177     -999.2500     -999.2500      102.1000 
   327.202626     -999.2500      124.2000        3.9022        3.6519        2.6546     -999.2500     -999.2500      102.1000 
   327.355050     -999.2500      124.9000        3.9354        3.6723        2.5882     -999.2500     -999.2500      102.3000 
   327.507474     -999.2500      120.8000        3.9582        3.7048        2.5763     -999.2500     -999.2500      102.6000 
   327.659898     -999.2500      113.2000        3.9704        3.7482        2.6182     -999.2500     -999.2500      102.5000 
   327.812222     -999.2500      108.5000        3.9803        3.7855        2.7040     -999.2500     -999.2500      102.1000 
   327.964646     -999.2500      109.7000        3.9995        3.8018        2.6853     -999.2500     -999.2500      102.1000 
   328.117070     -999.2500      114.8000        4.0191        3.7956        2.7416     -999.2500     -999.2500      102.0000 
   328.269494     -999.2500      118.7000        4.0575        3.7853        2.7102     -999.2500     -999.2500      102.1000 
   328.421818     -999.2500      120.1000        4.0963        3.8024        2.6363     -999.2500     -999.2500      102.0000 
   328.574242     -999.2500      122.2000        4.1391        3.8442        2.6424     -999.2500     -999.2500      102.1000 
   328.726666     -999.2500      126.7000        4.2101        3.9290        2.6669     -999.2500     -999.2500      102.1000 
   328.879090     -999.2500      131.2000        4.2988        4.0240        2.7606     -999.2500     -999.2500      101.9000 
   329.031414     -999.2500      132.9000        4.4326        4.1588        2.7416     -999.2500     -999.2500      101.7000 
   329.183838     -999.2500      133.2000        4.6129        4.3366        2.8184     -999.2500     -999.2500      101.6000 
   329.336262     -999.2500      134.0000        4.8328        4.5646        2.9648     -999.2500     -999.2500      101.5000 
   329.488686     -999.2500      136.0000        5.0725        4.8354        3.1046     -999.2500     -999.2500      101.4000 
   329.641010     -999.2500      134.9000        5.2847        5.1206        3.1478     -999.2500     -999.2500      101.6000 
   329.793434     -999.2500      126.0000        5.4290        5.3654        3.1405     -999.2500     -999.2500      101.7000 
   329.945858     -999.2500      112.8000        5.4670        5.4919        3.3729     -999.2500     -999.2500      102.0000 
   330.098282     -999.2500      100.8000        5.3947        5.4366        3.5318     -999.2500     -999.2500      102.4000 
   330.250606     -999.2500       95.1000        5.2573        5.1867        3.6983     -999.2500     -999.2500      102.4000 
   330.403030     -999.2500       95.1000        5.0855        4.8792        3.6728     -999.2500     -999.2500      102.1000 
   330.555454     -999.2500       97.8000        4.8952        4.6080        3.6224     -999.2500     -999.2500      101.5000 
   330.707878     -999.2500      101.2000        4.6951        4.4074        3.1189     -999.2500     -999.2500      101.5000 
   330.860202     -999.2500      102.3000        4.5047        4.2805        2.5293     -999.2500     -999.2500      101.3000 
   331.012626     -999.2500      102.4000        4.3518        4.1799        2.6363     -999.2500     -999.2500      101.0000 
   331.165050     -999.2500      104.3000        4.2455        4.0976        2.7861     -999.2500     -999.2500      100.7000 
   331.317474     -999.2500      106.9000        4.1964        4.0335        2.7861     -999.2500     -999.2500      100.5000 
