~Version
VERS.           2.0   :CWLS Log ASCII Standard - VERSION 2.0
WRAP.           NO   :One line per index step
~Well
#  MNEM.UNIT                             DATA:  DESCRIPTION      
#-----------             ---------------------  -----------------
STRT  .M        149.0470                     : START INDEX
STOP  .M       1003.7062                     : STOP INDEX
STEP  .M          0.1524                     : STEP
NULL  .       -999.25                        : NULL VALUE
COMP  .                                      : COMPANY
WELL  .       AC-2                           : WELL
FLD   .       AC                             : FIELD
LOC   .                                      : LOCATION
PROV  .                                      : PROVINCE
CNTY  .                                      : COUNTY
STAT  .                                      : STATE
CTRY  .                                      : COUNTRY
SRVC  .                                      : SERVICE COMPANY
API   .                                      : API NUMBER
UWI   .       AC-2		                     : UNIQUE WELL ID
LATI  .DEG                                   : LATITUDE
LONG  .DEG                                   : LONGITUDE
~Curve
#  MNEM.UNIT                        LOG CODES:  CURVE DESCRIPTION
#-----------             ---------------------  -----------------
DEPT  .M                                     : Depth Index
CALI  .IN                                    : 
GR    .GAPI                                  : 
ILD   .ohmm                                  : 
ILM   .ohmm                                  : 
LLG3  .ohmm                                  : 
NPHI  .M3M3                                  : 
RHOB  .G/C3                                  : 
SP    .MV                                    : 
#
#----------------------------------------------------------------------------------------------------------------------------
# DEPT          CALI          GR            ILD           ILM           LLG3          NPHI          RHOB          SP            
# 
~Ascii
# ...
   936.345454        8.9573       43.4000       18.2152       18.4188       16.3682        0.3317        2.2140       49.5000 
   936.497878        8.9817       45.5000       17.9777       18.0855       15.5239        0.3221        2.2125       49.5000 
   936.650202        8.9184       50.5000       17.4839       17.7225       13.8996        0.3100        2.2110       49.5000 
   936.802626        8.9538       58.2000       16.6990       17.3561       12.7938        0.3030        2.2171       49.5114 
   936.955050        9.0292       66.9000       15.5883       17.0373       12.8529        0.3063        2.2300       49.7238 
   937.107474        8.9318       74.4000       14.0967       16.7728       12.6474        0.3216        2.2360       50.2152 
   937.259898        8.8800       77.7000       12.3880       16.5614       10.5439        0.3483        2.2287       50.6086 
   937.412222        9.0094       74.3000       11.1010       16.2767        7.4990        0.3874        2.2133       50.9057 
   937.564646        9.0498       67.8000        9.8934       15.6676        7.4474        0.4384        2.1895       51.2000 
   937.717070        9.0600       64.5000        8.7690       12.0153       11.1430        0.4884        2.1567       51.2000 
   937.869494        9.0700       65.3000        7.7573        8.3336       10.0462        0.5171        2.1306       51.1200 
   938.021818        9.0961       65.2000        6.8607        6.7226        6.9343        0.5186        2.1353       51.4000 
   938.174242        9.1423       61.4000        6.0834        5.6648        5.5719        0.5041        2.1669       51.7999 
   938.326666        9.1664       58.2000        5.4449        4.7727        4.8641        0.4852        2.1956       52.1998 
   938.479090        9.1637       59.9000        4.9527        4.1482        4.9317        0.4645        2.2104       52.6000 
   938.631414        9.1663       67.2000        4.5709        3.9159        4.8529        0.4425        2.2271       53.3997 
   938.783838        9.1700       78.6000        4.2911        3.7446        3.9446        0.4219        2.2551       54.5600 
   938.936262        9.1517       90.3000        4.0925        3.6322        3.2584        0.4053        2.2841       56.0801 
   939.088686        9.1219       97.8000        3.9602        3.5798        3.3343        0.3893        2.3000       57.7999 
   939.241010        9.0921       99.0000        3.8826        3.5914        3.1405        0.3686        2.3063       59.4000 
   939.393434        9.0623       97.5000        3.8469        3.6718        2.8576        0.3451        2.3096       60.8000 
   939.545858        9.0093       98.4000        3.8489        3.7743        2.8445        0.3304        2.3091       61.6000 
   939.698282        8.9513      100.7000        3.8886        3.8868        3.0269        0.3333        2.3044       62.0000 
   939.850606        8.8676      101.6000        3.9568        4.0006        3.2961        0.3489        2.3021       61.8000 
   940.003030        8.8368      101.4000        4.0551        4.1101        3.3113        0.3639        2.3145       61.6000 
   940.155454        8.8942      101.5000        4.1903        4.2180        3.5156        0.3701        2.3375       61.1000 
   940.307878        8.9136      100.4000        4.3379        4.3662        3.5727        0.3713        2.3580       60.2000 
   940.460202        8.9108       94.8000        4.5127        4.5587        3.7670        0.3782        2.3576       59.3000 
   940.612626        8.9253       87.5000        4.7199        4.8028        4.0551        0.3995        2.3264       57.5000 
   940.765050        8.9248       83.0000        4.9525        5.0792        3.9903        0.4365        2.2664       55.3000 
   940.917474        8.9304       80.5000        5.2059        5.3602        3.8371        0.4826        2.2070       53.3000 
   941.069898        8.9094       76.8000        5.4817        5.6347        3.8637        0.5218        2.1660       52.0000 
   941.222222        8.8901       71.7000        5.7805        5.9151        4.1115        0.5352        2.1430       51.2000 
   941.374646        8.8553       69.0000        6.0954        6.2160        4.8417        0.5173        2.1240       50.9000 
   941.527070        8.8688       70.9000        6.4829        6.5993        5.3827        0.4814        2.1120       50.9000 
   941.679494        9.1953       75.7000        6.9576        7.0500        5.1286        0.4437        2.1000       50.9000 
   941.831818        9.4563       77.7000        7.4872        7.5522        5.2966        0.4112        2.0670       50.5800 
   941.984242        9.3130       71.9000        7.9968        8.0754        5.5081        0.3870        1.9880       50.6200 
   942.136666        9.1155       60.3000        8.4140        8.5680        8.2604        0.3744        1.8510       50.8200 
   942.289090        9.0082       49.1000        8.6900        8.9968       13.7405        0.3735        1.6750       51.0599 
   942.441414        8.9700       41.3000        8.7926        9.3687        7.6384        0.3794        1.5170       51.3000 
   942.593838        8.8952       38.6000        8.6990        9.6770        7.2946        0.3853        1.4420       51.6199 
   942.746262        8.7827       43.2000        8.4528        9.7982       11.1173        0.3869        1.4920       52.3596 
   942.898686        8.8281       56.1000        8.0981        9.4607        7.5163        0.3843        1.6780       53.2794 
   943.051010        9.0037       71.1000        7.7581        8.5718        5.8077        0.3801        1.9450       54.3395 
   943.203434        9.0912       79.0000        7.4999        7.5395        5.0350        0.3745        2.1620       55.7000 
   943.355858        9.0298       77.2000        7.3942        6.7825        5.2602        0.3643        2.2360       57.2333 
   943.508282        9.1153       69.8000        7.4477        6.5018        5.0466        0.3477        2.2100       56.6998 
   943.660606        9.3719       64.5000        7.6278        6.7973        7.0146        0.3312        2.1650       53.9000 
   943.813030        9.4196       63.4000        7.9065        7.7641       12.5893        0.3258        2.1320       51.2328 
   943.965454        9.1848       63.1000        8.2878        9.3177       17.9474        0.3336        2.1100       49.5661 
   944.117878        9.0026       60.6000        8.8105       11.3722       18.4503        0.3444        2.0980       48.5000 
   944.270202        8.9828       55.4000        9.5940       13.7758       15.3109        0.3483        2.0970       48.1000 
   944.422626        9.0800       48.8000       10.5197       16.0867       13.6145        0.3465        2.1030       47.8000 
   944.575050        9.2383       42.7000       11.3240       17.1255       11.3240        0.3462        2.1090       47.7000 
   944.727474        9.1634       39.9000       11.5346       16.2234        9.0991        0.3493        2.1140       47.6000 
   944.879898        9.1167       41.9000       10.9901       14.5669        6.6069        0.3509        2.1220       47.3000 
   945.032222        9.0133       46.0000       10.0000       12.7714        5.3089        0.3490        2.1370       47.2000 
   945.184646        9.0264       49.3000        8.8920       11.2163        4.7973        0.3451        2.1550       47.1000 
   945.337070        9.0306       52.2000        7.8343       10.0068        4.4978        0.3406        2.1760       47.1000 
   945.489494        8.9978       56.8000        6.9183        8.9720        4.6559        0.3370        2.2100       47.6000 
   945.641818        8.9819       66.1000        6.1235        8.1438        3.8371        0.3379        2.2550       48.2000 
   945.794242        8.9897       79.2000        5.4954        7.4410        3.0832        0.3455        2.2940       49.3000 
