~Version
VERS.           2.0   :CWLS Log ASCII Standard - VERSION 2.0
WRAP.           NO   :One line per index step
~Well
#  MNEM.UNIT                             DATA:  DESCRIPTION      
#-----------             ---------------------  -----------------
STRT  .M        131.9780                     : START INDEX
STOP  .M       1012.2404                     : STOP INDEX
STEP  .M          0.1524                     : STEP
NULL  .       -999.25                        : NULL VALUE
COMP  .                                      : COMPANY
WELL  .       AB-1                           : WELL
FLD   .       AB                       : FIELD
LOC   .                                      : LOCATION
PROV  .                                      : PROVINCE
CNTY  .                                      : COUNTY
STAT  .                                      : STATE
CTRY  .                                      : COUNTRY
SRVC  .                                      : SERVICE COMPANY
API   .                                      : API NUMBER
UWI   .       AB-1		                     : UNIQUE WELL ID
LATI  .DEG                                   : LATITUDE
LONG  .DEG                                   : LONGITUDE
~Curve
#  MNEM.UNIT                        LOG CODES:  CURVE DESCRIPTION
#-----------             ---------------------  -----------------
DEPT  .M                                     : Depth Index
CALI  .IN                                    : 
GR    .GAPI                                  : 
ILD   .ohmm                                  : 
ILM   .ohmm                                  : 
NPHI  .M3M3                                  : 
RHOB  .G/C3                                  : 
SP    .MV                                    : 
LL3   .ohmm                                  : 
#
#----------------------------------------------------------------------------------------------------------------------------
# DEPT          CALI          GR            ILD           ILM           NPHI          RHOB          SP            LL3           
# 
~Ascii
# ...
   660.044040     -999.2500       92.3000        1.2048        1.2057        0.5463     -999.2500       88.5000        2.2856 
   660.196464     -999.2500       91.3000        1.2297        1.2474        0.5419     -999.2500       88.7710        2.3442 
   660.348888     -999.2500       91.9000        1.2532        1.2819        0.5342     -999.2500       89.1882        2.3605 
   660.501212     -999.2500       91.3000        1.2749        1.3017        0.5342     -999.2500       89.3430        2.3768 
   660.653636     -999.2500       90.0000        1.2946        1.3044        0.5380     -999.2500       89.5677        2.4044 
   660.806060     -999.2500       88.5000        1.3102        1.2942        0.5424     -999.2500       89.8817        2.3768 
   660.958484     -999.2500       86.3000        1.3196        1.2793        0.5535     -999.2500       90.0000        2.3442 
   661.110808     -999.2500       85.3000        1.3243        1.2659        0.5684     -999.2500       89.9613        2.3227 
   661.263232     -999.2500       87.2000        1.3243        1.2544        0.5727     -999.2500       89.8248        2.3227 
   661.415656     -999.2500       90.8000        1.3183        1.2487        0.5655     -999.2500       89.7366        2.3067 
   661.568080     -999.2500       92.4000        1.3062        1.2481        0.5684     -999.2500       89.7290        2.3067 
   661.720404     -999.2500       91.6000        1.2972        1.2519        0.5889     -999.2500       89.6000        2.3067 
   661.872828     -999.2500       90.5000        1.2942        1.2618        0.6106     -999.2500       89.5667        2.3227 
   662.025252     -999.2500       88.9000        1.2942        1.2757        0.6148     -999.2500       89.5967        2.3442 
   662.177676     -999.2500       87.3000        1.2972        1.2880        0.6059     -999.2500       89.7376        2.3605 
   662.330000     -999.2500       86.7000        1.2972        1.2920        0.5941     -999.2500       89.6903        2.4044 
   662.482424     -999.2500       87.6000        1.2912        1.2802        0.5789     -999.2500       89.9581        2.4044 
   662.634848     -999.2500       88.2000        1.2735        1.2525        0.5569     -999.2500       89.9601        2.3442 
   662.787272     -999.2500       87.3000        1.2560        1.2178        0.5342     -999.2500       89.5731        2.2699 
   662.939696     -999.2500       85.7000        1.2359        1.1862        0.5225     -999.2500       89.5000        2.2699 
   663.092020     -999.2500       83.5000        1.2190        1.1622        0.5230     -999.2500       89.3269        2.2336 
   663.244444     -999.2500       80.9000        1.2050        1.1470        0.5239     -999.2500       88.5874        2.2336 
   663.396868     -999.2500       79.5000        1.1885        1.1408        0.5171     -999.2500       87.8321        2.2699 
   663.549292     -999.2500       81.1000        1.1803        1.1421        0.5083     -999.2500       87.6000        2.3067 
   663.701616     -999.2500       84.2000        1.1776        1.1503        0.5078     -999.2500       87.8453        2.3067 
   663.854040     -999.2500       85.9000        1.1885        1.1671        0.5196     -999.2500       89.1486        2.3067 
   664.006464     -999.2500       85.0000        1.2106        1.1911        0.5351     -999.2500       90.5452        2.3227 
   664.158888     -999.2500       82.9000        1.2416        1.2174        0.5443     -999.2500       90.1968        2.3605 
   664.311212     -999.2500       81.6000        1.2794        1.2474        0.5511     -999.2500       89.5387        2.4044 
   664.463636     -999.2500       81.9000        1.3183        1.2813        0.5641     -999.2500       88.7150        2.4210 
   664.616060     -999.2500       83.3000        1.3552        1.3215        0.5765     -999.2500       88.9538        2.4604 
   664.768484     -999.2500       83.4000        1.3900        1.3642        0.5731     -999.2500       89.9129        2.5119 
   664.920808     -999.2500       81.8000        1.4191        1.4058        0.5487     -999.2500       89.9528        2.5527 
   665.073232     -999.2500       80.7000        1.4322        1.4343        0.5142     -999.2500       89.5570        2.5293 
   665.225656     -999.2500       82.5000        1.4139        1.4224        0.4896     -999.2500       89.2289        2.5119 
   665.378080     -999.2500       86.5000        1.3703        1.3693        0.4960     -999.2500       89.4741        2.4774 
   665.530404     -999.2500       89.1000        1.3214        1.2945        0.5293     -999.2500       89.2451        2.4044 
   665.682828     -999.2500       88.7000        1.2764        1.2487        0.5583     -999.2500       89.8129        2.3442 
   665.835252     -999.2500       87.2000        1.2684        1.2254        0.5626     -999.2500       90.0108        2.3605 
   665.987676     -999.2500       86.5000        1.2798        1.2124        0.5496     -999.2500       90.2000        2.3442 
   666.140000     -999.2500       87.6000        1.3181        1.2180        0.5322     -999.2500       90.1968        2.3227 
   666.292424     -999.2500       90.3000        1.3823        1.2483        0.5101     -999.2500       90.0850        2.2856 
   666.444848     -999.2500       92.9000        1.4729        1.3117        0.4830     -999.2500       89.3946        2.2856 
   666.597272     -999.2500       93.3000        1.5862        1.4151        0.4586     -999.2500       88.9000        2.4604 
   666.749696     -999.2500       93.4000        1.7197        1.5586        0.4465     -999.2500       89.7904        2.7542 
   666.902020     -999.2500       96.1000        1.8748        1.7343        0.4460     -999.2500       90.5825        3.0690 
   667.054444     -999.2500      101.2000        2.0557        1.9851        0.4513     -999.2500       90.6968        3.3807 
   667.206868     -999.2500      105.5000        2.2632        2.2370        0.4527     -999.2500       90.4130        3.6224 
   667.359292     -999.2500      107.9000        2.4851        2.4756        0.4470     -999.2500       89.6428        3.6560 
   667.511616     -999.2500      110.8000        2.6973        2.6780        0.4378     -999.2500       88.8516        3.6058 
   667.664040     -999.2500      115.0000        2.8576        2.8181        0.4334     -999.2500       88.8000        3.5481 
   667.816464     -999.2500      118.6000        2.9638        2.8865        0.4364     -999.2500       88.5258        3.4914 
   667.968888     -999.2500      119.6000        3.0200        2.9115        0.4388     -999.2500       88.1386        3.4594 
   668.121212     -999.2500      117.8000        3.0471        2.9227        0.4320     -999.2500       87.3859        3.4594 
   668.273636     -999.2500      114.4000        3.0664        2.9340        0.4196     -999.2500       86.4184        3.4754 
   668.426060     -999.2500      110.9000        3.0924        2.9574        0.4135     -999.2500       86.2129        3.5156 
   668.578484     -999.2500      108.1000        3.1278        2.9944        0.4176     -999.2500       87.2317        3.5645 
   668.730808     -999.2500      105.8000        3.1718        3.0420        0.4231     -999.2500       88.5892        3.6224 
   668.883232     -999.2500      104.2000        3.2256        3.1027        0.4196     -999.2500       88.7161        3.6983 
   669.035656     -999.2500      104.4000        3.2804        3.1771        0.4110     -999.2500       87.9547        3.7844 
   669.188080     -999.2500      104.6000        3.3358        3.2541        0.4069     -999.2500       87.0644        3.8815 
   669.340404     -999.2500      102.3000        3.3854        3.3295        0.4115     -999.2500       87.1420        3.9995 
   669.492828     -999.2500       98.2000        3.4288        3.3917        0.4176     -999.2500       88.0751        4.0738 
