~Version
VERS.           2.0   :CWLS Log ASCII Standard - VERSION 2.0
WRAP.           NO   :One line per index step
~Well
#  MNEM.UNIT                             DATA:  DESCRIPTION      
#-----------             ---------------------  -----------------
STRT  .M        131.9780                     : START INDEX
STOP  .M       1012.2404                     : STOP INDEX
STEP  .M          0.1524                     : STEP
NULL  .       -999.25                        : NULL VALUE
COMP  .                                      : COMPANY
WELL  .       AB-1                           : WELL
FLD   .       AB                       : FIELD
LOC   .                                      : LOCATION
PROV  .                                      : PROVINCE
CNTY  .                                      : COUNTY
STAT  .                                      : STATE
CTRY  .                                      : COUNTRY
SRVC  .                                      : SERVICE COMPANY
API   .                                      : API NUMBER
UWI   .       AB-1		                     : UNIQUE WELL ID
LATI  .DEG                                   : LATITUDE
LONG  .DEG                                   : LONGITUDE
~Curve
#  MNEM.UNIT                        LOG CODES:  CURVE DESCRIPTION
#-----------             ---------------------  -----------------
DEPT  .M                                     : Depth Index
CALI  .IN                                    : 
GR    .GAPI                                  : 
ILD   .ohmm                                  : 
ILM   .ohmm                                  : 
NPHI  .M3M3                                  : 
RHOB  .G/C3                                  : 
SP    .MV                                    : 
LL3   .ohmm                                  : 
#
#----------------------------------------------------------------------------------------------------------------------------
# DEPT          CALI          GR            ILD           ILM           NPHI          RHOB          SP            LL3           
# 
~Ascii
# ...
   477.621212     -999.2500       53.4000        5.8885        5.8534        0.3892     -999.2500       87.9000        5.6364 
   477.773636     -999.2500       50.6000        6.1094        6.0389        0.3897     -999.2500       87.8000        5.7412 
   477.926060     -999.2500       48.3000        6.3680        6.2915        0.3887     -999.2500       88.1000        5.8345 
   478.078484     -999.2500       45.3000        6.6222        6.6444        0.3657     -999.2500       88.0000        5.8884 
   478.230808     -999.2500       42.5000        6.8077        7.1126        0.3012     -999.2500       88.1000        5.8345 
   478.383232     -999.2500       42.1000        6.9343        7.5793        0.2296     -999.2500       88.3000        6.0534 
   478.535656     -999.2500       43.9000        7.0307        7.9540        0.1849     -999.2500       88.5000        7.6736 
   478.688080     -999.2500       45.0000        7.1450        8.1640        0.1736     -999.2500       88.4000        9.0365 
   478.840404     -999.2500       43.0000        7.2946        8.1548        0.1887     -999.2500       88.0000       12.8233 
   478.992828     -999.2500       40.0000        7.4131        7.6899        0.2196     -999.2500       87.4000       17.9061 
   479.145252     -999.2500       40.4000        7.4302        7.2451        0.2607     -999.2500       86.7000       18.1552 
   479.297676     -999.2500       44.6000        7.2611        7.1497        0.3181     -999.2500       87.4000       16.4438 
   479.450000     -999.2500       49.2000        6.9984        6.8884        0.3678     -999.2500       88.0000       14.9624 
   479.602424     -999.2500       51.4000        6.7143        6.3279        0.3933     -999.2500       88.8000       11.4025 
   479.754848     -999.2500       49.8000        6.5163        6.0154        0.3998     -999.2500       89.5000        6.7764 
   479.907272     -999.2500       47.1000        6.4121        5.9428        0.4018     -999.2500       89.4000        6.6989 
   480.059696     -999.2500       46.9000        6.3533        5.9007        0.4059     -999.2500       89.5000        7.0146 
   480.212020     -999.2500       50.3000        6.2951        5.8761        0.4084     -999.2500       89.7000        7.2778 
   480.364444     -999.2500       54.2000        6.2204        5.8494        0.4069     -999.2500       90.1000        6.9503 
   480.516868     -999.2500       56.0000        6.1295        5.8202        0.4034     -999.2500       90.0111        6.5313 
   480.669292     -999.2500       56.7000        6.0313        5.7889        0.3998     -999.2500       89.9222        6.2374 
   480.821616     -999.2500       56.5000        5.9429        5.7532        0.3967     -999.2500       89.8333        6.1376 
   480.974040     -999.2500       55.3000        5.8993        5.6979        0.3988     -999.2500       89.8000        5.9293 
   481.126464     -999.2500       54.9000        5.8803        5.6447        0.4110     -999.2500       89.7555        5.9704 
   481.278888     -999.2500       55.7000        5.8641        5.5947        0.4309     -999.2500       89.6666        5.9156 
   481.431212     -999.2500       56.3000        5.8399        5.5488        0.4460     -999.2500       89.5333        5.8210 
   481.583636     -999.2500       54.8000        5.8077        5.5059        0.4450     -999.2500       89.2555        5.7280 
   481.736060     -999.2500       52.3000        5.7810        5.4911        0.4339     -999.2500       88.9000        5.7017 
   481.888484     -999.2500       51.4000        5.7677        5.4878        0.4215     -999.2500       88.8199        5.7280 
   482.040808     -999.2500       52.9000        5.7943        5.4391        0.4145     -999.2500       89.0401        5.7810 
   482.193232     -999.2500       55.5000        5.8077        5.4277        0.4175     -999.2500       89.4001        5.7280 
   482.345656     -999.2500       57.1000        5.8210        5.4226        0.4299     -999.2500       89.7200        5.6885 
   482.498080     -999.2500       58.2000        5.8077        5.3564        0.4402     -999.2500       89.8000        5.7677 
   482.650404     -999.2500       58.6000        5.7677        5.2812        0.4353     -999.2500       89.9600        5.9156 
   482.802828     -999.2500       57.6000        5.7412        5.2225        0.4165     -999.2500       90.1799        5.9704 
   482.955252     -999.2500       55.9000        5.7565        5.2059        0.4013     -999.2500       90.3400        5.9704 
   483.107676     -999.2500       55.9000        5.8028        5.2548        0.4018     -999.2500       90.3800        5.8884 
   483.260000     -999.2500       57.9000        5.8965        5.4061        0.4089     -999.2500       90.3000        5.7280 
   483.412424     -999.2500       58.5000        6.0442        5.6413        0.4094     -999.2500       89.8743        5.5463 
   483.564848     -999.2500       56.2000        6.2114        5.9477        0.3998     -999.2500       88.8127        5.5463 
   483.717272     -999.2500       53.5000        6.3948        6.3021        0.3864     -999.2500       87.0691        5.6494 
   483.869696     -999.2500       54.0000        6.5893        6.6705        0.3718     -999.2500       85.4385        6.3974 
   484.022020     -999.2500       57.6000        6.7936        7.0330        0.3554     -999.2500       85.1307        7.1285 
   484.174444     -999.2500       59.6000        6.9940        7.2394        0.3383     -999.2500       87.2699        8.0168 
   484.326868     -999.2500       57.2000        7.1740        7.2752        0.3227     -999.2500       90.4896        9.1201 
   484.479292     -999.2500       53.0000        7.2540        7.2295        0.3124     -999.2500       90.9410        9.4189 
   484.631616     -999.2500       51.8000        7.1464        7.1322        0.3113     -999.2500       91.1230        8.9331 
   484.784040     -999.2500       53.6000        6.8721        6.8834        0.3183     -999.2500       91.1488        8.8512 
   484.936464     -999.2500       54.6000        6.5189        6.4258        0.3292     -999.2500       90.7463        8.6697 
   485.088888     -999.2500       53.6000        6.1763        5.8890        0.3474     -999.2500       89.8231        7.8163 
   485.241212     -999.2500       53.1000        5.9348        5.4272        0.3817     -999.2500       89.1333        7.5510 
   485.393636     -999.2500       53.1000        5.7818        5.1195        0.4245     -999.2500       88.8564        7.2611 
   485.546060     -999.2500       53.4000        5.6679        5.0004        0.4508     -999.2500       88.4461        6.6527 
   485.698484     -999.2500       53.5000        5.5719        5.0645        0.4553     -999.2500       88.6103        5.8345 
   485.850808     -999.2500       53.3000        5.5081        5.1850        0.4573     -999.2500       89.2871        5.5976 
   486.003232     -999.2500       53.2000        5.5148        5.2660        0.4732     -999.2500       89.5385        5.5847 
   486.155656     -999.2500       53.4000        5.5944        5.3070        0.4871     -999.2500       89.7974        5.6885 
   486.308080     -999.2500       54.4000        5.7571        5.4002        0.4737     -999.2500       89.7462        5.7677 
   486.460404     -999.2500       54.1000        5.9740        5.5967        0.4397     -999.2500       89.6538        5.8884 
   486.612828     -999.2500       50.5000        6.1873        5.8861        0.4120     -999.2500       89.5308        5.8884 
   486.765252     -999.2500       47.1000        6.3058        6.2175        0.4054     -999.2500       89.1052        5.7412 
   486.917676     -999.2500       47.1000        6.2635        6.4173        0.4120     -999.2500       88.9615        5.7810 
   487.070000     -999.2500       50.3000        6.0228        6.1758        0.4155     -999.2500       88.7436        5.9156 
