~Version
VERS.           2.0   :CWLS Log ASCII Standard - VERSION 2.0
WRAP.           NO   :One line per index step
~Well
#  MNEM.UNIT                             DATA:  DESCRIPTION      
#-----------             ---------------------  -----------------
STRT  .M        149.0470                     : START INDEX
STOP  .M       1003.7062                     : STOP INDEX
STEP  .M          0.1524                     : STEP
NULL  .       -999.25                        : NULL VALUE
COMP  .                                      : COMPANY
WELL  .       AC-2                           : WELL
FLD   .       AC                             : FIELD
LOC   .                                      : LOCATION
PROV  .                                      : PROVINCE
CNTY  .                                      : COUNTY
STAT  .                                      : STATE
CTRY  .                                      : COUNTRY
SRVC  .                                      : SERVICE COMPANY
API   .                                      : API NUMBER
UWI   .       AC-2		                     : UNIQUE WELL ID
LATI  .DEG                                   : LATITUDE
LONG  .DEG                                   : LONGITUDE
~Curve
#  MNEM.UNIT                        LOG CODES:  CURVE DESCRIPTION
#-----------             ---------------------  -----------------
DEPT  .M                                     : Depth Index
CALI  .IN                                    : 
GR    .GAPI                                  : 
ILD   .ohmm                                  : 
ILM   .ohmm                                  : 
LLG3  .ohmm                                  : 
NPHI  .M3M3                                  : 
RHOB  .G/C3                                  : 
SP    .MV                                    : 
#
#----------------------------------------------------------------------------------------------------------------------------
# DEPT          CALI          GR            ILD           ILM           LLG3          NPHI          RHOB          SP            
# 
~Ascii
     149.0470     -999.2500     -999.2500     -999.2500     -999.2500     -999.2500     -999.2500     -999.2500      199.9000 
   149.199494     -999.2500       73.1000     -999.2500     -999.2500        0.3396     -999.2500     -999.2500      199.9000 
   149.351818     -999.2500       70.7000       18.7932     -999.2500        0.3412     -999.2500     -999.2500      199.9000 
   149.504242     -999.2500       70.1000       19.0547    12162.0742        0.3428     -999.2500     -999.2500      199.9000 
   149.656666     -999.2500       69.3000       19.1867    12162.0742        0.3412     -999.2500     -999.2500      199.9000 
   149.809090     -999.2500       68.1000       19.0986    12162.0742        0.3412     -999.2500     -999.2500      199.9000 
   149.961414     -999.2500       67.6000       18.9672    12162.0742        0.3459     -999.2500     -999.2500      199.9000 
   150.113838     -999.2500       68.9000       18.9672    12162.0742        0.3412     -999.2500     -999.2500      199.9000 
   150.266262     -999.2500       71.8000       19.5435    12162.0742        0.3443     -999.2500     -999.2500      199.9000 
   150.418686     -999.2500       73.8000       20.5117    12162.0742        0.3443     -999.2500     -999.2500      199.9000 
   150.571010     -999.2500       74.1000       21.4290    12162.0742        0.3467     -999.2500     -999.2500      199.9000 
   150.723434     -999.2500       73.1000       22.4389    12162.0742        0.3428     -999.2500     -999.2500      199.9000 
   150.875858     -999.2500       73.4000       25.1189    12162.0742        0.3428     -999.2500     -999.2500      199.9000 
   151.028282     -999.2500       75.7000       30.5494    12162.0742        0.3443     -999.2500     -999.2500      199.9000 
   151.180606     -999.2500       78.5000       34.6739    12162.0742        0.3443     -999.2500     -999.2500      199.9000 
   151.333030     -999.2500       80.8000       30.9032    12162.0742        0.3467     -999.2500     -999.2500      199.9000 
   151.485454     -999.2500       81.5000       24.7173    12162.0742        0.3459     -999.2500     -999.2500      199.9000 
   151.637878     -999.2500       80.6000       23.5506    12162.0742        0.3443     -999.2500     -999.2500      199.9000 
   151.790202     -999.2500       78.9000       29.9918    12162.0742        0.3443     -999.2500     -999.2500      199.9000 
   151.942626     -999.2500       77.2000       46.9896    12162.0742        0.3436     -999.2500     -999.2500      199.9000 
   152.095050     -999.2500       75.4000       41.5913    12162.0742        0.3443     -999.2500     -999.2500      190.1000 
   152.247474     -999.2500       74.5000       20.0910    12162.0742        0.3516     -999.2500     -999.2500      169.5000 
   152.399898     -999.2500       77.2000       12.2462    12162.0742        0.3639     -999.2500     -999.2500      147.4000 
   152.552222     -999.2500       82.9000       10.5197     1710.0403        0.3963     -999.2500     -999.2500      136.5000 
   152.704646     -999.2500       86.5000        9.7499      550.8132        0.8433     -999.2500     -999.2500      130.1000 
   152.857070     -999.2500       85.4000        6.0814      336.5142        1.9099     -999.2500     -999.2500      124.6000 
   153.009494     -999.2500       83.7000        3.3729      306.9059        2.6915     -999.2500     -999.2500      120.3000 
   153.161818     -999.2500       83.7000        2.5003      359.7532        2.8249     -999.2500     -999.2500      118.1000 
   153.314242     -999.2500       82.9000        2.7040       19.4985        2.7290     -999.2500     -999.2500      117.0000 
   153.466666     -999.2500       79.9000        4.1879        5.7148        2.9107     -999.2500     -999.2500      115.9000 
   153.619090     -999.2500       77.1000        8.2795        3.4041        3.0269     -999.2500     -999.2500      115.6000 
   153.771414     -999.2500       77.9000       14.4544        3.0903        3.1117     -999.2500     -999.2500      114.2000 
   153.923838     -999.2500       80.8000       13.3660        3.6560        3.1046     -999.2500     -999.2500      113.1000 
   154.076262     -999.2500       83.5000        8.8920        4.4463        3.0269     -999.2500     -999.2500      112.1000 
   154.228686     -999.2500       85.2000        6.6374        4.9659        3.0832     -999.2500     -999.2500      111.2000 
   154.381010     -999.2500       86.4000        6.0534        5.5847        3.0549     -999.2500     -999.2500      109.9000 
   154.533434     -999.2500       87.0000        6.1235        5.9156        3.0832     -999.2500     -999.2500      107.7000 
   154.685858     -999.2500       85.0000        6.2230        5.7017        3.1623     -999.2500     -999.2500      106.0000 
   154.838282     -999.2500       82.0000        6.3241        5.4624        3.2810     -999.2500     -999.2500      107.6000 
   154.990606     -999.2500       81.0000        6.5013        5.3205        3.3651     -999.2500     -999.2500      111.9000 
   155.143030     -999.2500       83.1000        6.6374        5.2226        3.4198     -999.2500     -999.2500      111.8000 
   155.295454     -999.2500       88.2000        6.5766        5.1571        3.2885     -999.2500     -999.2500      111.5000 
   155.447878     -999.2500       93.1000        6.3241        5.1626        3.1989     -999.2500     -999.2500      110.2000 
   155.600202     -999.2500       96.6000        6.0674        5.2612        3.3574     -999.2500     -999.2500      109.7000 
   155.752626     -999.2500       97.9000        5.9020        5.4368        3.5400     -999.2500     -999.2500      109.9000 
   155.905050     -999.2500       98.2000        5.8479        5.6325        3.5975     -999.2500     -999.2500      109.9000 
   156.057474     -999.2500       99.3000        5.9020        5.7030        3.5810     -999.2500     -999.2500      108.8000 
   156.209898     -999.2500      100.8000        6.0118        5.6048        3.5645     -999.2500     -999.2500      106.3000 
   156.362222     -999.2500      103.1000        6.0814        5.4785        3.5237     -999.2500     -999.2500      100.5000 
   156.514646     -999.2500      105.0000        6.1094        5.4152        3.5975     -999.2500     -999.2500       93.7000 
   156.667070     -999.2500      105.7000        6.0954        5.4237        3.6728     -999.2500     -999.2500       89.8000 
   156.819494     -999.2500      107.1000        6.0674        5.4615        3.7325     -999.2500     -999.2500       89.2000 
   156.971818     -999.2500      109.4000        6.0256        5.4965        3.7844     -999.2500     -999.2500       92.8000 
   157.124242     -999.2500      109.3000        5.9979        5.4946        3.8283     -999.2500     -999.2500      102.6000 
   157.276666     -999.2500      104.3000        6.0118        5.4547        3.9084     -999.2500     -999.2500      109.8000 
   157.429090     -999.2500       98.8000        6.0395        5.4149        3.8371     -999.2500     -999.2500      109.8000 
   157.581414     -999.2500       97.6000        6.1094        5.4205        3.6813     -999.2500     -999.2500      109.0000 
   157.733838     -999.2500       99.1000        6.2087        5.5086        3.5975     -999.2500     -999.2500      109.1000 
   157.886262     -999.2500       97.8000        6.3241        5.6846        3.0903     -999.2500     -999.2500      109.5000 
   158.038686     -999.2500       94.1000        6.4714        5.9110        3.4119     -999.2500     -999.2500      109.0000 
   158.191010     -999.2500       92.3000        6.6528        6.1786        4.5499     -999.2500     -999.2500      107.4000 
   158.343434     -999.2500       93.3000        6.9024        6.4750        4.8084     -999.2500     -999.2500      105.8000 
   158.495858     -999.2500       93.5000        7.1945        6.7715        4.7863     -999.2500     -999.2500      104.6000 
