~Version
VERS.           2.0   :CWLS Log ASCII Standard - VERSION 2.0
WRAP.           NO   :One line per index step
~Well
#  MNEM.UNIT                             DATA:  DESCRIPTION      
#-----------             ---------------------  -----------------
STRT  .M        148.2850                     : START INDEX
STOP  .M        995.9338                     : STOP INDEX
STEP  .M          0.1524                     : STEP
NULL  .       -999.25                        : NULL VALUE
COMP  .                                      : COMPANY
WELL  .       AD-3                           : WELL
FLD   .       AD                             : FIELD
LOC   .                                      : LOCATION
PROV  .                                      : PROVINCE
CNTY  .                                      : COUNTY
STAT  .                                      : STATE
CTRY  .                                      : COUNTRY
SRVC  .                                      : SERVICE COMPANY
API   .                                      : API NUMBER
UWI   .       AD-3		                     : UNIQUE WELL ID
LATI  .DEG                                   : LATITUDE
LONG  .DEG                                   : LONGITUDE
~Curve
#  MNEM.UNIT                        LOG CODES:  CURVE DESCRIPTION
#-----------             ---------------------  -----------------
DEPT  .M                                     : Depth Index
CALI  .IN                                    : 
GR    .GAPI                                  : 
ILD   .ohmm                                  : 
ILM   .ohmm                                  : 
LL3   .ohmm                                  : 
NPHI  .M3M3                                  : 
RHOB  .G/C3                                  : 
SP    .MV                                    : 
#
#----------------------------------------------------------------------------------------------------------
# DEPT        CALI        GR          ILD         ILM         LL3         NPHI        RHOB        SP          
# 
~Ascii
# ...
   204.6730   -999.2500     81.1872     10.2543      9.7361      6.3296   -999.2500   -999.2500    120.0174 
   204.8254   -999.2500     83.8328      9.5198      9.2314      5.6702   -999.2500   -999.2500    120.3380 
   204.9778   -999.2500     90.0752      8.6534      8.4527      5.0998   -999.2500   -999.2500    120.9691 
   205.1302   -999.2500     97.4327      7.8348      7.5041      4.7071   -999.2500   -999.2500    121.0177 
   205.2826   -999.2500    104.4479      7.1757      6.6153      4.4157   -999.2500   -999.2500    121.5964 
   205.4350   -999.2500    107.3372      6.6167      5.9520      4.1445   -999.2500   -999.2500    122.2272 
   205.5874   -999.2500    107.9592      6.1157      5.6157      4.0746   -999.2500   -999.2500    123.1195 
   205.7398   -999.2500    104.6267      5.8308      5.3706      4.0214   -999.2500   -999.2500    124.1339 
   205.8922   -999.2500    100.5743      5.5999      5.1779      3.8660   -999.2500   -999.2500    124.7824 
   206.0446   -999.2500     98.3804      5.4248      5.0162      3.7310   -999.2500   -999.2500    125.2574 
   206.1970   -999.2500     98.1931      5.2959      4.8779      3.6588   -999.2500   -999.2500    125.8000 
   206.3494   -999.2500    101.3510      5.1974      4.7620      3.5952   -999.2500   -999.2500    126.2325 
   206.5018   -999.2500    107.4340      5.1137      4.6651      3.5963   -999.2500   -999.2500    126.2255 
   206.6542   -999.2500    112.1886      5.0350      4.5772      3.6161   -999.2500   -999.2500    126.3509 
   206.8066   -999.2500    114.4739      4.9600      4.4943      3.5607   -999.2500   -999.2500    126.5740 
   206.9590   -999.2500    117.7845      4.8927      4.3860      3.5581   -999.2500   -999.2500    126.7971 
   207.1114   -999.2500    118.7051      4.8325      4.2998      3.5334   -999.2500   -999.2500    127.2155 
   207.2638   -999.2500    118.9960      4.7837      4.2329      3.4534   -999.2500   -999.2500    127.1789 
   207.4162   -999.2500    117.7303      4.7372      4.1850      3.4373   -999.2500   -999.2500    126.9227 
   207.5686   -999.2500    115.7500      4.6815      4.1380      3.4728   -999.2500   -999.2500    126.3371 
   207.7210   -999.2500    114.7193      4.6094      4.0660      3.4084   -999.2500   -999.2500    125.9223 
   207.8734   -999.2500    112.6077      4.5190      3.9875      3.3507   -999.2500   -999.2500    125.5563 
   208.0258   -999.2500    110.5997      4.4152      3.8863      3.2768   -999.2500   -999.2500    125.3611 
   208.1782   -999.2500    110.5533      4.3034      3.7852      3.1454   -999.2500   -999.2500    125.6539 
   208.3306   -999.2500    114.5824      4.2008      3.6867      3.0492   -999.2500   -999.2500    126.0199 
   208.4830   -999.2500    117.6278      4.0950      3.5938      2.9692   -999.2500   -999.2500    126.2151 
   208.6354   -999.2500    118.2721      3.9894      3.5091      2.9166   -999.2500   -999.2500    125.9467 
   208.7878   -999.2500    114.8524      3.8880      3.4324      2.9059   -999.2500   -999.2500    125.7515 
   208.9402   -999.2500    111.5927      3.7962      3.3640      2.9004   -999.2500   -999.2500    125.6539 
   209.0926   -999.2500    110.0529      3.7193      3.3039      2.8946   -999.2500   -999.2500    125.7271 
   209.2450   -999.2500    112.3910      3.6617      3.2477      2.9075   -999.2500   -999.2500    125.8247 
   209.3974   -999.2500    114.8611      3.6262      3.2080      2.9178   -999.2500   -999.2500    126.2151 
   209.5498   -999.2500    113.9738      3.6132      3.1874      2.9802   -999.2500   -999.2500    126.5323 
   209.7022   -999.2500    112.1222      3.6272      3.1961      3.0701   -999.2500   -999.2500    126.8190 
   209.8546   -999.2500    109.1659      3.6685      3.2383      3.1644   -999.2500   -999.2500    127.0142 
   210.0070   -999.2500    104.1510      3.7325      3.3173      3.2356   -999.2500   -999.2500    127.3863 
   210.1594   -999.2500    101.8727      3.8129      3.4263      3.3041   -999.2500   -999.2500    127.4107 
   210.3118   -999.2500    103.9429      3.9028      3.5511      3.3370   -999.2500   -999.2500    127.4839 
   210.4642   -999.2500    106.7405      3.9963      3.6595      3.3312   -999.2500   -999.2500    127.7035 
   210.6166   -999.2500    107.8280      4.0852      3.7510      3.3465   -999.2500   -999.2500    127.6913 
   210.7690   -999.2500    109.5004      4.1611      3.8207      3.3216   -999.2500   -999.2500    127.4107 
   210.9214   -999.2500    108.7314      4.2154      3.8660      3.3175   -999.2500   -999.2500    127.2644 
   211.0738   -999.2500    111.7943      4.2429      3.8852      3.2882   -999.2500   -999.2500    127.0622 
   211.2262   -999.2500    117.0630      4.2457      3.8771      3.2555   -999.2500   -999.2500    126.7450 
   211.3786   -999.2500    121.1888      4.2339      3.8443      3.2304   -999.2500   -999.2500    126.5636 
   211.5310   -999.2500    121.0076      4.2201      3.7981      3.3113   -999.2500   -999.2500    126.7623 
   211.6834   -999.2500    122.0908      4.2115      3.7510      3.3205   -999.2500   -999.2500    126.6578 
   211.8358   -999.2500    121.7153      4.2106      3.7225      3.3337   -999.2500   -999.2500    126.5323 
   211.9882   -999.2500    124.1279      4.2180      3.7340      3.3352   -999.2500   -999.2500    126.3588 
   212.1406   -999.2500    125.9354      4.2354      3.7727      3.3733   -999.2500   -999.2500    126.4130 
   212.2930   -999.2500    124.6436      4.2668      3.8208      3.3289   -999.2500   -999.2500    126.3615 
   212.4454   -999.2500    119.0880      4.3167      3.8697      3.3409   -999.2500   -999.2500    126.4197 
   212.5978   -999.2500    115.2641      4.3863      3.9230      3.3732   -999.2500   -999.2500    126.5553 
   212.7502   -999.2500    114.9093      4.4765      3.9943      3.5633   -999.2500   -999.2500    126.6949 
   212.9026   -999.2500    115.6568      4.5846      4.1197      3.6785   -999.2500   -999.2500    126.8251 
   213.0550   -999.2500    117.6545      4.7084      4.2989      3.8585   -999.2500   -999.2500    126.8143 
   213.2074   -999.2500    119.1872      4.8454      4.5246      4.0480   -999.2500   -999.2500    126.7275 
   213.3598   -999.2500    119.4100      4.9961      4.7778      4.2487   -999.2500   -999.2500    126.6299 
   213.5122   -999.2500    121.4875      5.1627      5.0351      4.3588   -999.2500   -999.2500    126.4103 
   213.6646   -999.2500    123.3735      5.3495      5.2938      4.4366   -999.2500   -999.2500    126.2151 
   213.8170   -999.2500    121.3348      5.5548      5.4626      4.6193   -999.2500   -999.2500    126.1297 
   213.9694   -999.2500    119.5809      5.7704      5.6287      4.8203   -999.2500   -999.2500    125.9467 
   214.1218   -999.2500    117.2812      5.9887      5.7999      4.9744   -999.2500   -999.2500    125.4221 
   214.2742   -999.2500    114.4282      6.2057      6.0009      5.1797   -999.2500   -999.2500    124.9707 
   214.4266   -999.2500    111.7531      6.4298      6.2415      5.4658   -999.2500   -999.2500    124.4583 
   214.5790   -999.2500    106.5127      6.7648      6.5270      5.7373   -999.2500   -999.2500    123.7995 
   214.7314   -999.2500    101.7151      7.1583      6.8670      5.9920   -999.2500   -999.2500    123.1163 
   214.8838   -999.2500     99.0611      7.6232      7.2716      6.4733   -999.2500   -999.2500    122.8967 
   215.0362   -999.2500     95.7470      8.1805      7.7508      6.9578   -999.2500   -999.2500    122.5307 
   215.1886   -999.2500     91.4741      8.8063      8.2552      7.4553   -999.2500   -999.2500    121.6523 
   215.3410   -999.2500     85.9419      9.4651      8.7976      7.8507   -999.2500   -999.2500    120.4811 
   215.4934   -999.2500     78.9870      9.8419      9.2882      8.3071   -999.2500   -999.2500    119.2123 
   215.6458   -999.2500     73.7542     10.1877      9.7002      8.4866   -999.2500   -999.2500    118.2119 
   215.7982   -999.2500     67.9066     10.4950     10.0700      8.4836   -999.2500   -999.2500    117.3579 
