~Version
VERS.           2.0   :CWLS Log ASCII Standard - VERSION 2.0
WRAP.           NO   :One line per index step
~Well
#  MNEM.UNIT                             DATA:  DESCRIPTION      
#-----------             ---------------------  -----------------
STRT  .M        149.0470                     : START INDEX
STOP  .M       1003.7062                     : STOP INDEX
STEP  .M          0.1524                     : STEP
NULL  .       -999.25                        : NULL VALUE
COMP  .                                      : COMPANY
WELL  .       AC-2                           : WELL
FLD   .       AC                             : FIELD
LOC   .                                      : LOCATION
PROV  .                                      : PROVINCE
CNTY  .                                      : COUNTY
STAT  .                                      : STATE
CTRY  .                                      : COUNTRY
SRVC  .                                      : SERVICE COMPANY
API   .                                      : API NUMBER
UWI   .       AC-2		                     : UNIQUE WELL ID
LATI  .DEG                                   : LATITUDE
LONG  .DEG                                   : LONGITUDE
~Curve
#  MNEM.UNIT                        LOG CODES:  CURVE DESCRIPTION
#-----------             ---------------------  -----------------
DEPT  .M                                     : Depth Index
CALI  .IN                                    : 
GR    .GAPI                                  : 
ILD   .ohmm                                  : 
ILM   .ohmm                                  : 
LLG3  .ohmm                                  : 
NPHI  .M3M3                                  : 
RHOB  .G/C3                                  : 
SP    .MV                                    : 
#
#----------------------------------------------------------------------------------------------------------------------------
# DEPT          CALI          GR            ILD           ILM           LLG3          NPHI          RHOB          SP            
# 
~Ascii
# ...
   427.481818     -999.2500       52.7000        6.4486        6.1421        4.3351     -999.2500     -999.2500       99.1000 
   427.634242     -999.2500       53.4000        6.3105        6.2338        3.8107     -999.2500     -999.2500       99.1000 
   427.786666     -999.2500       54.4000        6.1195        5.8045        5.6234     -999.2500     -999.2500       99.4000 
   427.939090     -999.2500       57.5000        5.9401        5.4017        9.0157     -999.2500     -999.2500       99.6000 
   428.091414     -999.2500       60.8000        5.8077        5.1058        4.8306     -999.2500     -999.2500       99.2000 
   428.243838     -999.2500       61.1000        5.7280        4.9629        3.7411     -999.2500     -999.2500       99.3000 
   428.396262     -999.2500       60.0000        5.6494        4.9086        3.5892     -999.2500     -999.2500       99.3000 
   428.548686     -999.2500       60.2000        5.5591        4.8979        3.6813     -999.2500     -999.2500       99.4000 
   428.701010     -999.2500       61.0000        5.4450        4.9194        3.7411     -999.2500     -999.2500       99.3000 
   428.853434     -999.2500       60.6000        5.3951        4.9712        3.9995     -999.2500     -999.2500       99.3000 
   429.005858     -999.2500       60.3000        5.4325        5.0441        4.2954     -999.2500     -999.2500       99.3000 
   429.158282     -999.2500       61.4000        5.5591        5.1309        4.1305     -999.2500     -999.2500       99.0000 
   429.310606     -999.2500       61.6000        5.7412        5.2696        4.1305     -999.2500     -999.2500       98.6000 
   429.463030     -999.2500       59.0000        5.9429        5.4320        4.1400     -999.2500     -999.2500       98.4000 
   429.615454     -999.2500       56.9000        6.0814        5.6021        4.2170     -999.2500     -999.2500       98.5000 
   429.767878     -999.2500       57.4000        6.1802        5.7130        4.2170     -999.2500     -999.2500       98.6000 
   429.920202     -999.2500       58.0000        6.2661        5.7228        4.3853     -999.2500     -999.2500       98.9000 
   430.072626     -999.2500       58.2000        6.4121        5.7600        4.6774     -999.2500     -999.2500       98.8000 
   430.225050     -999.2500       59.0000        6.7453        5.9944        4.9431     -999.2500     -999.2500       98.7000 
   430.377474     -999.2500       61.8000        7.2778        6.4476        4.3053     -999.2500     -999.2500       98.4000 
   430.529898     -999.2500       65.6000        7.9800        7.3320        4.2658     -999.2500     -999.2500       98.3000 
   430.682222     -999.2500       66.7000        8.7499        8.4538        4.5920     -999.2500     -999.2500       98.2000 
   430.834646     -999.2500       63.7000        9.4406        9.6703        6.0814     -999.2500     -999.2500       98.0000 
   430.987070     -999.2500       59.0000        9.9541       10.7919       14.7232     -999.2500     -999.2500       98.1000 
   431.139494     -999.2500       56.5000       10.3992       11.5847       18.0719     -999.2500     -999.2500       98.3000 
   431.291818     -999.2500       56.2000       10.7895       11.8222       10.3276     -999.2500     -999.2500       98.7000 
   431.444242     -999.2500       55.2000       10.9648       11.4258        7.9068     -999.2500     -999.2500       99.0000 
   431.596666     -999.2500       55.2000       10.8393       10.7843        6.1376     -999.2500     -999.2500       99.1000 
   431.749090     -999.2500       58.1000       10.4232       10.1577        6.6989     -999.2500     -999.2500       98.7000 
   431.901414     -999.2500       63.2000        9.9051        9.5525        6.5163     -999.2500     -999.2500       98.4000 
   432.053838     -999.2500       67.7000        9.3624        9.0561        4.9545     -999.2500     -999.2500       97.7000 
   432.206262     -999.2500       67.8000        8.8552        8.6903        4.7973     -999.2500     -999.2500       97.8000 
   432.358686     -999.2500       64.1000        8.4213        8.4112        8.2225     -999.2500     -999.2500       97.9000 
   432.511010     -999.2500       59.4000        8.1147        8.2571        9.3756     -999.2500     -999.2500       97.8000 
   432.663434     -999.2500       57.1000        7.9435        8.1832        5.5719     -999.2500     -999.2500       97.9000 
   432.815858     -999.2500       57.8000        7.8625        8.1663        4.6132     -999.2500     -999.2500       98.3000 
   432.968282     -999.2500       58.4000        7.8184        8.1657        4.7424     -999.2500     -999.2500       98.9000 
   433.120606     -999.2500       57.6000        7.6913        8.1230        4.6345     -999.2500     -999.2500       99.2000 
   433.273030     -999.2500       57.0000        7.4139        7.7141        4.3853     -999.2500     -999.2500       98.8000 
   433.425454     -999.2500       59.4000        7.0457        7.2733        4.4361     -999.2500     -999.2500       98.5000 
   433.577878     -999.2500       67.3000        6.6611        6.9717        4.3954     -999.2500     -999.2500       98.0000 
   433.730202     -999.2500       78.6000        6.3218        6.8268        4.1210     -999.2500     -999.2500       98.0000 
   433.882626     -999.2500       86.1000        6.0427        6.0721        3.5727     -999.2500     -999.2500       98.2000 
   434.035050     -999.2500       86.9000        5.8088        5.4605        3.4995     -999.2500     -999.2500       98.3000 
   434.187474     -999.2500       83.5000        5.5985        5.0142        3.5892     -999.2500     -999.2500       98.3000 
   434.339898     -999.2500       79.1000        5.3943        4.7104        3.5237     -999.2500     -999.2500       98.2000 
   434.492222     -999.2500       75.3000        5.1880        4.6154        3.4754     -999.2500     -999.2500       98.1000 
   434.644646     -999.2500       72.3000        4.9659        4.5222        3.4834     -999.2500     -999.2500       98.1000 
   434.797070     -999.2500       72.8000        4.7973        4.4306        3.2659     -999.2500     -999.2500       98.1000 
   434.949494     -999.2500       78.7000        4.6774        4.3471        3.2137     -999.2500     -999.2500       98.2000 
   435.101818     -999.2500       89.4000        4.6238        4.2766        3.1333     -999.2500     -999.2500       98.3000 
   435.254242     -999.2500      101.7000        4.5920        4.2191        3.2211     -999.2500     -999.2500       98.1000 
   435.406666     -999.2500      108.7000        4.5709        4.1817        3.4356     -999.2500     -999.2500       97.9000 
   435.559090     -999.2500      106.4000        4.5394        4.1566        3.6813     -999.2500     -999.2500       97.7000 
   435.711414     -999.2500       98.0000        4.4978        4.1438        3.4674     -999.2500     -999.2500       98.0000 
   435.863838     -999.2500       90.1000        4.4771        4.1540        3.1769     -999.2500     -999.2500       98.5000 
   436.016262     -999.2500       84.8000        4.4771        4.1720        3.0269     -999.2500     -999.2500       98.7000 
   436.168686     -999.2500       80.0000        4.4771        4.1976        3.2434     -999.2500     -999.2500       98.8000 
   436.321010     -999.2500       76.4000        4.4668        4.2209        3.0974     -999.2500     -999.2500       98.5000 
   436.473434     -999.2500       76.7000        4.4361        4.2325        3.1550     -999.2500     -999.2500       98.4000 
   436.625858     -999.2500       79.6000        4.3752        4.2325        3.0690     -999.2500     -999.2500       98.2000 
   436.778282     -999.2500       80.1000        4.3252        4.2267        3.0339     -999.2500     -999.2500       98.4000 
   436.930606     -999.2500       78.4000        4.2855        4.2267        2.9923     -999.2500     -999.2500       98.5000 
