~Version
VERS.           2.0   :CWLS Log ASCII Standard - VERSION 2.0
WRAP.           NO   :One line per index step
~Well
#  MNEM.UNIT                             DATA:  DESCRIPTION      
#-----------             ---------------------  -----------------
STRT  .M        131.9780                     : START INDEX
STOP  .M       1012.2404                     : STOP INDEX
STEP  .M          0.1524                     : STEP
NULL  .       -999.25                        : NULL VALUE
COMP  .                                      : COMPANY
WELL  .       AB-1                           : WELL
FLD   .       AB                       : FIELD
LOC   .                                      : LOCATION
PROV  .                                      : PROVINCE
CNTY  .                                      : COUNTY
STAT  .                                      : STATE
CTRY  .                                      : COUNTRY
SRVC  .                                      : SERVICE COMPANY
API   .                                      : API NUMBER
UWI   .       AB-1		                     : UNIQUE WELL ID
LATI  .DEG                                   : LATITUDE
LONG  .DEG                                   : LONGITUDE
~Curve
#  MNEM.UNIT                        LOG CODES:  CURVE DESCRIPTION
#-----------             ---------------------  -----------------
DEPT  .M                                     : Depth Index
CALI  .IN                                    : 
GR    .GAPI                                  : 
ILD   .ohmm                                  : 
ILM   .ohmm                                  : 
NPHI  .M3M3                                  : 
RHOB  .G/C3                                  : 
SP    .MV                                    : 
LL3   .ohmm                                  : 
#
#----------------------------------------------------------------------------------------------------------------------------
# DEPT          CALI          GR            ILD           ILM           NPHI          RHOB          SP            LL3           
# 
~Ascii
# ...
   948.080000        9.3000       59.1000        4.3109        4.1387        0.4061        2.0340       42.1333        5.4702 
   948.232424        9.9100       52.1000        4.2002        4.0539        0.4087        1.9570       42.0444        5.7810 
   948.384848        9.9300       46.1000        4.1034        3.8929        0.4087        1.9120       42.1000        5.7017 
   948.537272       10.0600       45.5000        4.0300        3.8034        0.4153        1.9450       42.2111        5.4450 
   948.689696       10.0500       53.7000        3.9482        3.7474        0.4347        2.0630       42.7444        5.0583 
   948.842020        9.1900       68.1000        3.8149        3.6275        0.4562        2.2020       43.9000        4.6026 
   948.994444        8.8200       82.2000        3.6252        3.4394        0.4619        2.2680       45.9000        4.2756 
   949.146868        8.7300       89.9000        3.4072        3.2235        0.4458        2.2440       48.5000        4.2954 
   949.299292        8.6000       88.2000        3.1991        3.0108        0.4133        2.1820       50.8000        4.4566 
   949.451616        8.5700       79.1000        3.0307        2.8635        0.3752        2.1310       51.4000        4.6026 
   949.604040        8.6200       66.5000        2.9065        2.7442        0.3427        2.1150       49.7000        4.4259 
   949.756464        8.6900       55.5000        2.8207        2.6556        0.3273        2.1340       46.3000        4.1976 
   949.908888        8.6700       48.2000        2.7542        2.5935        0.3383        2.1680       42.9000        4.1305 
   950.061212        8.6600       44.9000        2.7128        2.5551        0.3736        2.2000       41.8000        4.0365 
   950.213636        8.7600       46.7000        2.6883        2.5404        0.4183        2.2280       43.0285        3.9628 
   950.366060        8.8600       54.4000        2.6956        2.5529        0.4571        2.2550       45.1711        3.9446 
   950.518484        8.7700       66.1000        2.7410        2.6005        0.4843        2.2950       48.7286        3.9811 
   950.670808        8.9100       76.9000        2.8226        2.6862        0.4933        2.3250       53.4151        3.9811 
   950.823232        9.1400       84.2000        2.9335        2.8319        0.4769        2.3430       56.8717        4.0551 
   950.975656        9.1300       87.8000        3.0526        3.0177        0.4444        2.3240       57.3286        4.1976 
   951.128080        8.8200       86.0000        3.1584        3.2211        0.4163        2.2460       56.1000        4.4771 
   951.280404        8.7700       77.7000        3.2343        3.4048        0.4004        2.1110       53.8000        4.7973 
   951.432828        9.3000       65.2000        3.2721        3.5171        0.3842        1.9550       50.6000        4.9204 
   951.585252        9.5600       53.5000        3.2730        3.5087        0.3536        1.8430       46.7000        4.8084 
   951.737676       10.4900       47.2000        3.2474        3.4099        0.3206        1.8340       43.8000        4.5499 
   951.890000       10.3100       46.3000        3.2124        3.2820        0.3078        1.9410       42.9000        4.2560 
   952.042424        9.3200       48.4000        3.1778        3.1613        0.3173        2.1020       42.6000        3.9811 
   952.194848        9.0200       52.7000        3.1435        3.0966        0.3350        2.2310       42.7000        3.8637 
   952.347272        8.7900       59.9000        3.1096        3.0881        0.3515        2.2870       43.3000        4.0551 
   952.499696        8.8800       68.0000        3.0761        3.1108        0.3612        2.2800       44.5000        4.3853 
   952.652020        8.9300       71.8000        3.0298        3.1373        0.3628        2.2360       45.8000        4.6452 
   952.804444        8.9500       68.2000        2.9842        3.1411        0.3628        2.1890       46.8000        4.6238 
   952.956868        8.8900       60.1000        2.9560        3.1070        0.3655        2.1790       46.0000        4.5290 
   953.109292        8.6900       54.8000        2.9564        3.0563        0.3607        2.2140       43.9000        4.3351 
   953.261616        8.6900       55.7000        2.9676        3.0125        0.3400        2.2550       43.3000        4.1687 
   953.414040        8.6900       58.5000        2.9761        2.9936        0.3139        2.2610       44.3000        4.2170 
   953.566464        8.6900       57.0000        2.9585        2.9945        0.2988        2.2290       45.7000        4.4056 
   953.718888        8.6900       50.1000        2.9124        2.9818        0.2949        2.1970       45.3000        4.5290 
   953.871212        8.6900       44.1000        2.8562        2.9245        0.2954        2.1880       43.3000        4.5499 
   954.023636        8.6900       43.9000        2.8142        2.8369        0.2999        2.1900       41.9000        4.5186 
   954.176060        8.7000       48.8000        2.8013        2.7680        0.3206        2.1660       41.3000        4.2756 
   954.328484        9.0300       53.8000        2.8150        2.7516        0.3666        2.0630       41.5000        4.1115 
   954.480808        8.9400       53.6000        2.8472        2.7611        0.4268        1.8680       42.3000        4.0365 
   954.633232        9.2200       48.5000        2.8892        2.7997        0.4764        1.6580       43.6000        3.9446 
   954.785656        9.1300       43.6000        2.9565        2.8768        0.5002        1.5460       45.2000        4.1495 
   954.938080        8.9300       45.4000        3.0563        3.0080        0.4938        1.6040       47.3000        5.0466 
   955.090404        8.9300       56.2000        3.1915        3.2100        0.4649        1.8290       49.8000        5.8345 
   955.242828        8.9300       72.3000        3.3574        3.4733        0.4283        2.0990       52.0000        6.2087 
   955.395252        8.9400       86.8000        3.5075        3.7399        0.3963        2.2590       53.6000        6.5313 
   955.547676        8.9600       94.9000        3.6392        3.9633        0.3773        2.2890       52.3000        6.4417 
   955.700000        8.8200       96.8000        3.7411        4.1157        0.3682        2.2650       50.8000        5.6885 
   955.852424        8.7900       94.7000        3.8107        4.1523        0.3650        2.2180       48.3000        5.0583 
   956.004848        8.8700       89.5000        3.8107        4.0418        0.3661        2.1330       45.4000        4.8306 
   956.157272        9.0800       81.3000        3.7239        3.8221        0.3672        2.0390       43.4444        4.7206 
   956.309696        9.5300       71.5000        3.5645        3.5707        0.3639        1.9900       42.2666        4.4771 
   956.462020       10.1900       63.5000        3.3501        3.3077        0.3655        2.0230       41.7999        4.1976 
   956.614444        9.8000       60.7000        3.1866        3.0892        0.3837        2.1260       41.8667        3.9811 
   956.766868        9.3800       62.8000        3.1006        2.9523        0.4188        2.2330       42.3557        3.9995 
   956.919292        8.8200       66.5000        3.0801        2.9175        0.4543        2.2920       43.4000        4.2170 
   957.071616        8.7900       70.2000        3.1036        2.9690        0.4784        2.3140       45.3120        4.4771 
   957.224040        8.8200       73.6000        3.1551        3.0686        0.4853        2.3200       48.2344        4.7206 
   957.376464        9.3500       75.6000        3.2434        3.1769        0.4838        2.3160       51.7000        4.8641 
   957.528888        9.3900       75.1000        3.3574        3.3128        0.4853        2.3110       54.9151        4.8306 
