~Version
VERS.           2.0   :CWLS Log ASCII Standard - VERSION 2.0
WRAP.           NO   :One line per index step
~Well
#  MNEM.UNIT                             DATA:  DESCRIPTION      
#-----------             ---------------------  -----------------
STRT  .M        148.2850                     : START INDEX
STOP  .M        995.9338                     : STOP INDEX
STEP  .M          0.1524                     : STEP
NULL  .       -999.25                        : NULL VALUE
COMP  .                                      : COMPANY
WELL  .       AD-3                           : WELL
FLD   .       AD                             : FIELD
LOC   .                                      : LOCATION
PROV  .                                      : PROVINCE
CNTY  .                                      : COUNTY
STAT  .                                      : STATE
CTRY  .                                      : COUNTRY
SRVC  .                                      : SERVICE COMPANY
API   .                                      : API NUMBER
UWI   .       AD-3		                     : UNIQUE WELL ID
LATI  .DEG                                   : LATITUDE
LONG  .DEG                                   : LONGITUDE
~Curve
#  MNEM.UNIT                        LOG CODES:  CURVE DESCRIPTION
#-----------             ---------------------  -----------------
DEPT  .M                                     : Depth Index
CALI  .IN                                    : 
GR    .GAPI                                  : 
ILD   .ohmm                                  : 
ILM   .ohmm                                  : 
LL3   .ohmm                                  : 
NPHI  .M3M3                                  : 
RHOB  .G/C3                                  : 
SP    .MV                                    : 
#
#----------------------------------------------------------------------------------------------------------
# DEPT        CALI        GR          ILD         ILM         LL3         NPHI        RHOB        SP          
# 
~Ascii
   148.2850   -999.2500   -999.2500     64.7366   9750.0371   -999.2500   -999.2500   -999.2500   -999.2500 
   148.4374   -999.2500   -999.2500     73.1845   9750.0371   -999.2500   -999.2500   -999.2500   -999.2500 
   148.5898   -999.2500     62.0196     91.8649   9750.0371      0.4683   -999.2500   -999.2500   -999.2500 
   148.7422   -999.2500     65.0561    219.4499   9750.0371      0.4674   -999.2500   -999.2500   -999.2500 
   148.8946   -999.2500     64.6690   9932.0078   9750.0371      0.4664   -999.2500   -999.2500   -999.2500 
   149.0470   -999.2500     62.8871   9932.0078   9750.0371      0.4572   -999.2500   -999.2500   -999.2500 
   149.1994   -999.2500     60.2818   9932.0078   9750.0371      0.4580   -999.2500   -999.2500    123.1163 
   149.3518   -999.2500     58.0414   9932.0078   9750.0371      0.4572   -999.2500   -999.2500    123.7019 
   149.5042   -999.2500     54.6100   9932.0078   9750.0371      0.4579   -999.2500   -999.2500    128.6795 
   149.6566   -999.2500     53.0198   9932.0078   9750.0371      0.4695   -999.2500   -999.2500    129.8263 
   149.8090   -999.2500     50.7260   9932.0078   9750.0371      0.4793   -999.2500   -999.2500    131.7905 
   149.9614   -999.2500     49.8893   9932.0078   9750.0371      0.4694   -999.2500   -999.2500    136.4631 
   150.1138   -999.2500     49.1670   9932.0078   9750.0371      0.4702   -999.2500   -999.2500    139.9767 
   150.2662   -999.2500     48.7443   9932.0078   9750.0371      0.4734   -999.2500   -999.2500    149.0779 
   150.4186   -999.2500     47.6539   9932.0078   9750.0371      0.4878   -999.2500   -999.2500    159.7773 
   150.5710   -999.2500     47.4585   9932.0078   9750.0371      0.7832   -999.2500   -999.2500    172.5995 
   150.7234   -999.2500     48.9498     20.4212   9750.0371      1.5602   -999.2500   -999.2500    189.0939 
   150.8758   -999.2500     53.7683      5.7654     29.4378      2.6553   -999.2500   -999.2500    199.8299 
   151.0282   -999.2500     61.2086      3.3779     12.4660      3.8802   -999.2500   -999.2500    199.8299 
   151.1806   -999.2500     67.8680      2.7811      9.9321      5.0619   -999.2500   -999.2500    191.7047 
   151.3330   -999.2500     71.7386      3.0089     12.5063      5.9261   -999.2500   -999.2500    168.8907 
   151.4854   -999.2500     72.4589      4.1837     29.3016      6.4461   -999.2500   -999.2500    151.1275 
   151.6378   -999.2500     71.9416      6.3992   9750.0371      6.6715   -999.2500   -999.2500    141.9531 
   151.7902   -999.2500     73.2008      8.8833   9750.0371      6.9530   -999.2500   -999.2500    136.5485 
   151.9426   -999.2500     75.6770     10.2575     51.7284      7.2161   -999.2500   -999.2500    130.3387 
   152.0950   -999.2500     77.1421      9.7034     18.5879      7.3553   -999.2500   -999.2500    127.4107 
   152.2474   -999.2500     76.3864      8.5433     10.9450      7.5076   -999.2500   -999.2500    125.3367 
   152.3998   -999.2500     73.1519      8.5051      8.2120      7.4842   -999.2500   -999.2500    123.9947 
   152.5522   -999.2500     70.2139      8.7712      7.4091      7.2766   -999.2500   -999.2500    121.8231 
   152.7046   -999.2500     69.5517      8.9098      7.2252      7.0362   -999.2500   -999.2500    121.5547 
   152.8570   -999.2500     71.1777      8.8438      7.1798      6.8202   -999.2500   -999.2500    122.1037 
   153.0094   -999.2500     72.7175      8.4035      7.0193      6.4888   -999.2500   -999.2500    121.9451 
   153.1618   -999.2500     72.9615      7.6621      6.5560      6.3998   -999.2500   -999.2500    121.4449 
   153.3142   -999.2500     71.5681      6.8572      5.8173      6.1635   -999.2500   -999.2500    120.7556 
   153.4666   -999.2500     70.6776      6.1210      5.0967      5.6373   -999.2500   -999.2500    120.1883 
   153.6190   -999.2500     72.5154      5.5552      4.5879      5.0852   -999.2500   -999.2500    120.3835 
   153.7714   -999.2500     76.5680      5.1333      4.2766      4.5547   -999.2500   -999.2500    121.2619 
   153.9238   -999.2500     84.4133      4.8182      4.0958      3.9440   -999.2500   -999.2500    122.4331 
   154.0762   -999.2500     95.0626      4.6041      3.9994      3.4358   -999.2500   -999.2500    123.8971 
   154.2286   -999.2500    104.1057      4.4852      3.9497      3.3410   -999.2500   -999.2500    125.1415 
   154.3810   -999.2500    108.7850      4.4342      3.9359      3.4227   -999.2500   -999.2500    126.1236 
   154.5334   -999.2500    109.6830      4.4445      3.9503      3.4528   -999.2500   -999.2500    126.6177 
   154.6858   -999.2500    106.6399      4.4911      3.9803      3.4907   -999.2500   -999.2500    126.6055 
   154.8382   -999.2500    103.4425      4.5448      4.0170      3.5846   -999.2500   -999.2500    126.4347 
   154.9906   -999.2500    103.8723      4.5863      4.0479      3.6497   -999.2500   -999.2500    126.3371 
   155.1430   -999.2500    104.4930      4.6089      4.0773      3.7094   -999.2500   -999.2500    126.5323 
   155.2954   -999.2500    105.1325      4.6151      4.1006      3.7719   -999.2500   -999.2500    126.4103 
   155.4478   -999.2500    104.7270      4.6176      4.1153      3.8176   -999.2500   -999.2500    125.7515 
   155.6002   -999.2500    102.6646      4.6222      4.1204      3.8547   -999.2500   -999.2500    124.4827 
   155.7526   -999.2500    100.1263      4.6291      4.1174      3.8670   -999.2500   -999.2500    123.6775 
   155.9050   -999.2500     98.9476      4.6365      4.1130      3.8705   -999.2500   -999.2500    120.8654 
   156.0574   -999.2500     97.5978      4.6422      4.1080      3.8600   -999.2500   -999.2500    116.7723 
   156.2098   -999.2500     96.5129      4.6473      4.1038      3.8549   -999.2500   -999.2500    119.4075 
   156.3622   -999.2500     95.7972      4.6571      4.1016      3.8498   -999.2500   -999.2500    126.4103 
   156.5146   -999.2500     98.0097      4.6793      4.1032      3.8469   -999.2500   -999.2500    125.8247 
   156.6670   -999.2500    101.8665      4.7211      4.1138      3.8541   -999.2500   -999.2500    127.9963 
   156.8194   -999.2500    105.6148      4.7875      4.1413      3.8698   -999.2500   -999.2500    125.4404 
   156.9718   -999.2500    107.4904      4.8806      4.1972      3.8976   -999.2500   -999.2500    126.2151 
   157.1242   -999.2500    106.2799      5.0010      4.2949      3.9029   -999.2500   -999.2500    126.8129 
   157.2766   -999.2500    104.4550      5.1515      4.4475      3.9830   -999.2500   -999.2500    124.5681 
   157.4290   -999.2500    104.2521      5.3370      4.6638      4.0981   -999.2500   -999.2500    125.8247 
   157.5814   -999.2500    103.1426      5.5655      4.9468      4.2514   -999.2500   -999.2500    126.0443 
   157.7338   -999.2500    101.8801      5.8459      5.2924      4.3973   -999.2500   -999.2500    123.7019 
   157.8862   -999.2500     99.4949      6.2017      5.6712      4.5779   -999.2500   -999.2500    125.4526 
   158.0386   -999.2500     96.1669      6.5966      6.1049      4.6456   -999.2500   -999.2500    125.8247 
   158.1910   -999.2500     94.0415      6.9995      6.5863      4.8054   -999.2500   -999.2500    124.6779 
   158.3434   -999.2500     92.0168      7.3615      7.0769      5.0657   -999.2500   -999.2500    122.8967 
   158.4958   -999.2500     91.2567      7.6330      7.4944      5.2893   -999.2500   -999.2500    124.1899 
   158.6482   -999.2500     92.7923      7.7835      7.7111      5.6111   -999.2500   -999.2500    124.1899 
   158.8006   -999.2500     92.7764      7.8051      7.6318      5.7919   -999.2500   -999.2500    120.2615 
   158.9530   -999.2500     92.8763      7.7122      7.2588      5.5156   -999.2500   -999.2500    121.8475 
   159.1054   -999.2500     91.8720      7.5411      6.8083      5.2013   -999.2500   -999.2500    121.2375 
   159.2578   -999.2500     91.0845      7.3175      6.4218      4.8636   -999.2500   -999.2500    120.9691 
   159.4102   -999.2500     90.8639      7.0599      6.1357      4.3392   -999.2500   -999.2500    121.4571 
