~Version
VERS.           2.0   :CWLS Log ASCII Standard - VERSION 2.0
WRAP.           NO   :One line per index step
~Well
#  MNEM.UNIT                             DATA:  DESCRIPTION      
#-----------             ---------------------  -----------------
STRT  .M        131.9780                     : START INDEX
STOP  .M       1012.2404                     : STOP INDEX
STEP  .M          0.1524                     : STEP
NULL  .       -999.25                        : NULL VALUE
COMP  .                                      : COMPANY
WELL  .       AB-1                           : WELL
FLD   .       AB                       : FIELD
LOC   .                                      : LOCATION
PROV  .                                      : PROVINCE
CNTY  .                                      : COUNTY
STAT  .                                      : STATE
CTRY  .                                      : COUNTRY
SRVC  .                                      : SERVICE COMPANY
API   .                                      : API NUMBER
UWI   .       AB-1		                     : UNIQUE WELL ID
LATI  .DEG                                   : LATITUDE
LONG  .DEG                                   : LONGITUDE
~Curve
#  MNEM.UNIT                        LOG CODES:  CURVE DESCRIPTION
#-----------             ---------------------  -----------------
DEPT  .M                                     : Depth Index
CALI  .IN                                    : 
GR    .GAPI                                  : 
ILD   .ohmm                                  : 
ILM   .ohmm                                  : 
NPHI  .M3M3                                  : 
RHOB  .G/C3                                  : 
SP    .MV                                    : 
LL3   .ohmm                                  : 
#
#----------------------------------------------------------------------------------------------------------------------------
# DEPT          CALI          GR            ILD           ILM           NPHI          RHOB          SP            LL3           
# 
~Ascii
# ...
   304.799696     -999.2500      141.4000        5.2229        4.7200        0.4318     -999.2500       86.2095        4.8978 
   304.952020     -999.2500      140.4000        5.2355        4.7651        0.4134     -999.2500       86.0095        4.9431 
   305.104444     -999.2500      143.2000        5.2481        4.8291        0.3936     -999.2500       85.9000        5.0234 
   305.256868     -999.2500      149.6000        5.2804        4.8689        0.3869     -999.2500       85.7957        5.0816 
   305.409292     -999.2500      155.2000        5.3320        4.8849        0.3977     -999.2500       85.5831        5.0816 
   305.561616     -999.2500      153.7000        5.4203        4.9317        0.4159     -999.2500       85.1746        5.0583 
   305.714040     -999.2500      143.9000        5.5282        5.0339        0.4269     -999.2500       84.7915        5.1523 
   305.866464     -999.2500      131.2000        5.6484        5.1845        0.4204     -999.2500       84.6681        5.3334 
   306.018888     -999.2500      120.1000        5.7769        5.3713        0.3972     -999.2500       84.4127        5.5081 
   306.171212     -999.2500      111.9000        5.9053        5.5730        0.3698     -999.2500       84.4851        5.6494 
   306.323636     -999.2500      105.1000        6.0289        5.7787        0.3525     -999.2500       84.3489        5.7810 
   306.476060     -999.2500       98.0000        6.1660        5.9668        0.3509     -999.2500       84.0617        5.8614 
   306.628484     -999.2500       91.4000        6.3493        6.1109        0.3567     -999.2500       83.9425        5.8749 
   306.780808     -999.2500       87.1000        6.5125        6.2134        0.3635     -999.2500       84.1000        5.8884 
   306.933232     -999.2500       86.1000        6.6387        6.2952        0.3698     -999.2500       84.0744        5.8884 
   307.085656     -999.2500       87.4000        6.6940        6.3533        0.3760     -999.2500       84.0277        5.8614 
   307.238080     -999.2500       88.3000        6.6989        6.3826        0.3807     -999.2500       84.1596        5.8749 
   307.390404     -999.2500       87.5000        6.6835        6.3774        0.3864     -999.2500       84.3957        5.8614 
   307.542828     -999.2500       86.9000        6.6745        6.3495        0.3962     -999.2500       84.7361        5.8210 
   307.695252     -999.2500       86.3000        6.5986        6.2837        0.4154     -999.2500       85.1085        5.7280 
   307.847676     -999.2500       85.3000        6.4124        6.1584        0.4469     -999.2500       85.4149        5.6885 
   308.000000     -999.2500       84.9000        6.0697        5.9058        0.4921     -999.2500       85.5191        5.6364 
   308.152424     -999.2500       85.2000        5.6092        5.4762        0.5331     -999.2500       85.2723        5.5208 
   308.304848     -999.2500       83.6000        5.1339        4.9573        0.5413     -999.2500       85.2340        5.1523 
   308.457272     -999.2500       78.0000        4.7076        4.3969        0.5117     -999.2500       85.2128        4.7206 
   308.609696     -999.2500       71.7000        4.3618        3.9081        0.4822     -999.2500       85.0489        4.2560 
   308.762020     -999.2500       68.9000        4.0658        3.5635        0.4889     -999.2500       85.2532        3.7670 
   308.914444     -999.2500       70.2000        3.8069        3.3530        0.5281     -999.2500       85.3468        3.4041 
   309.066868     -999.2500       73.6000        3.5974        3.2252        0.5713     -999.2500       85.2446        3.3113 
   309.219292     -999.2500       76.4000        3.4633        3.1369        0.5908     -999.2500       85.3724        3.3497 
   309.371616     -999.2500       78.1000        3.4100        3.0697        0.5794     -999.2500       85.6191        3.3807 
   309.524040     -999.2500       77.7000        3.4106        3.0152        0.5522     -999.2500       85.8233        3.3807 
   309.676464     -999.2500       74.3000        3.4337        2.9690        0.5310     -999.2500       85.9638        3.3497 
   309.828888     -999.2500       69.5000        3.4555        2.9417        0.5183     -999.2500       85.9340        3.3266 
   309.981212     -999.2500       67.1000        3.4594        2.9344        0.5139     -999.2500       86.0361        3.2885 
   310.133636     -999.2500       67.6000        3.4689        2.9513        0.5319     -999.2500       85.9596        3.2734 
   310.286060     -999.2500       69.3000        3.4899        2.9868        0.5761     -999.2500       85.8277        3.2885 
   310.438484     -999.2500       69.9000        3.5182        3.0021        0.6209     -999.2500       85.8744        3.3113 
   310.590808     -999.2500       68.4000        3.5418        3.0010        0.6377     -999.2500       85.9000        3.3113 
   310.743232     -999.2500       67.7000        3.5545        3.0192        0.6214     -999.2500       85.8212        3.3266 
   310.895656     -999.2500       68.9000        3.5485        3.0522        0.5813     -999.2500       85.8000        3.3266 
   311.048080     -999.2500       71.6000        3.5308        3.0678        0.5324     -999.2500       86.0490        3.3266 
   311.200404     -999.2500       74.2000        3.5237        3.0479        0.4953     -999.2500       86.1851        3.3497 
   311.352828     -999.2500       74.5000        3.5200        3.0255        0.4884     -999.2500       86.0255        3.3651 
   311.505252     -999.2500       73.7000        3.5105        3.0055        0.5100     -999.2500       85.2852        3.3651 
   311.657676     -999.2500       72.4000        3.5010        2.9978        0.5363     -999.2500       84.7426        3.3651 
   311.810000     -999.2500       71.4000        3.4838        3.0041        0.5479     -999.2500       84.8872        3.3497 
   311.962424     -999.2500       71.6000        3.4754        3.0208        0.5455     -999.2500       85.4745        3.3266 
   312.114848     -999.2500       71.9000        3.4754        3.0362        0.5358     -999.2500       85.7936        3.3113 
   312.267272     -999.2500       71.5000        3.4715        3.0409        0.5178     -999.2500       85.9000        3.3266 
   312.419696     -999.2500       71.0000        3.4621        3.0418        0.4963     -999.2500       86.2021        3.3651 
   312.572020     -999.2500       71.2000        3.4528        3.0493        0.4845     -999.2500       86.3000        3.4041 
   312.724444     -999.2500       72.0000        3.4674        3.0719        0.4914     -999.2500       86.3000        3.4198 
   312.876868     -999.2500       73.5000        3.5237        3.0974        0.5135     -999.2500       86.2915        3.4198 
   313.029292     -999.2500       75.7000        3.6308        3.0974        0.5382     -999.2500       86.1680        3.4198 
   313.181616     -999.2500       77.3000        3.7757        3.1117        0.5546     -999.2500       85.9764        3.4198 
   313.334040     -999.2500       76.5000        3.9537        3.1961        0.5536     -999.2500       86.5446        3.4041 
   313.486464     -999.2500       73.1000        4.1591        3.3697        0.5392     -999.2500       86.8340        3.3807 
   313.638888     -999.2500       71.3000        4.3853        3.6234        0.5178     -999.2500       87.0000        3.3807 
   313.791212     -999.2500       77.3000        4.6559        3.9405        0.4904     -999.2500       86.9787        3.4041 
   313.943636     -999.2500       91.5000        5.0004        4.2593        0.4592     -999.2500       86.8298        3.4914 
   314.096060     -999.2500      109.4000        5.3703        4.5441        0.4365     -999.2500       86.4979        3.8107 
   314.248484     -999.2500      123.3000        5.7148        4.8388        0.4296     -999.2500       86.1447        4.1687 
