~Version
VERS.           2.0   :CWLS Log ASCII Standard - VERSION 2.0
WRAP.           NO   :One line per index step
~Well
#  MNEM.UNIT                             DATA:  DESCRIPTION      
#-----------             ---------------------  -----------------
STRT  .M        131.9780                     : START INDEX
STOP  .M       1012.2404                     : STOP INDEX
STEP  .M          0.1524                     : STEP
NULL  .       -999.25                        : NULL VALUE
COMP  .                                      : COMPANY
WELL  .       AB-1                           : WELL
FLD   .       AB                       : FIELD
LOC   .                                      : LOCATION
PROV  .                                      : PROVINCE
CNTY  .                                      : COUNTY
STAT  .                                      : STATE
CTRY  .                                      : COUNTRY
SRVC  .                                      : SERVICE COMPANY
API   .                                      : API NUMBER
UWI   .       AB-1		                     : UNIQUE WELL ID
LATI  .DEG                                   : LATITUDE
LONG  .DEG                                   : LONGITUDE
~Curve
#  MNEM.UNIT                        LOG CODES:  CURVE DESCRIPTION
#-----------             ---------------------  -----------------
DEPT  .M                                     : Depth Index
CALI  .IN                                    : 
GR    .GAPI                                  : 
ILD   .ohmm                                  : 
ILM   .ohmm                                  : 
NPHI  .M3M3                                  : 
RHOB  .G/C3                                  : 
SP    .MV                                    : 
LL3   .ohmm                                  : 
#
#----------------------------------------------------------------------------------------------------------------------------
# DEPT          CALI          GR            ILD           ILM           NPHI          RHOB          SP            LL3           
# 
~Ascii
     131.9780     -999.2500     -999.2500     -999.2500     -999.2500     -999.2500     -999.2500     -999.2500     -999.2500 
   132.130404     -999.2500        0.0000     -999.2500     -999.2500        0.0000     -999.2500     -999.2500        0.5998 
   132.282828     -999.2500        0.0000     -999.2500     -999.2500        0.0000     -999.2500       76.0000        0.5260 
   132.435252     -999.2500        0.0000       11.3763     -999.2500        0.0000     -999.2500       76.0000        0.5260 
   132.587676     -999.2500        0.0000       11.3240    12162.0742        0.0000     -999.2500       75.9000        0.8017 
   132.740000     -999.2500        0.0000       11.2461    12162.0742        0.0000     -999.2500       75.5000        0.6546 
   132.892424     -999.2500        0.0000       11.1687    12162.0742        0.0000     -999.2500       75.2000        0.6368 
   133.044848     -999.2500        0.0000       11.1430    12162.0742        0.0000     -999.2500       75.4000        0.6902 
   133.197272     -999.2500        0.0000       11.2461    12162.0742        0.0000     -999.2500       75.8000        0.6730 
   133.349696     -999.2500        0.0000       11.5080    12162.0742        0.0000     -999.2500       76.2000        0.4898 
   133.502020     -999.2500        0.0000       11.7490    12162.0742        0.0000     -999.2500       76.6000        0.5821 
   133.654444     -999.2500        0.0000       11.8850    12162.0742        0.0000     -999.2500       77.3000        0.6180 
   133.806868     -999.2500        0.0000       11.9124    12162.0742        0.0000     -999.2500       77.4000        0.6180 
   133.959292     -999.2500        0.0000       11.9399    12162.0742        0.0000     -999.2500       77.6000        0.6546 
   134.111616     -999.2500        0.0000       11.9124    12162.0742        0.0000     -999.2500       78.1000        0.6180 
   134.264040     -999.2500        0.0000       11.9124    12162.0742        0.0000     -999.2500       78.6000        0.6546 
   134.416464     -999.2500        0.0000       11.9399    12162.0742        0.0000     -999.2500       79.4000        0.6546 
   134.568888     -999.2500        0.0000       11.9124    12162.0742        0.0000     -999.2500       79.8000        0.6546 
   134.721212     -999.2500        0.0000       11.8577    12162.0742        0.0000     -999.2500       80.0000        0.6180 
   134.873636     -999.2500       50.9000       11.8304    12162.0742        0.6119     -999.2500       80.3000        0.6368 
   135.026060     -999.2500       50.9000       11.8577    12162.0742        0.6119     -999.2500       80.8000        0.6368 
   135.178484     -999.2500       52.1000       12.0227    12162.0742        0.6091     -999.2500       81.1000        0.6368 
   135.330808     -999.2500       52.4000       12.2744    12162.0742        0.5992     -999.2500       81.5000        0.6546 
   135.483232     -999.2500       52.2000       12.5314    12162.0742        0.6091     -999.2500       82.2000        0.6730 
   135.635656     -999.2500       54.3000       12.7058    12162.0742        0.6296     -999.2500       82.9000        0.7112 
   135.788080     -999.2500       59.9000       12.7938    12162.0742        0.6334     -999.2500       83.2000        0.6902 
   135.940404     -999.2500       65.7000       12.9122    12162.0742        0.6175     -999.2500       83.7000        0.6902 
   136.092828     -999.2500       67.5000       13.0617    12162.0742        0.6128     -999.2500       84.5000        0.6902 
   136.245252     -999.2500       66.1000       13.0919    12162.0742        0.6352     -999.2500       85.6000        0.6902 
   136.397676     -999.2500       64.4000       13.0317    12162.0742        0.6583     -999.2500       86.7000        0.6730 
   136.550000     -999.2500       64.9000       13.0919    12162.0742        0.6496     -999.2500       87.7000        0.6730 
   136.702424     -999.2500       67.8000       13.4277    12162.0742        0.6278     -999.2500       89.2000        0.6902 
   136.854848     -999.2500       70.0000       13.8996    12162.0742        0.6362     -999.2500       91.8000        0.6902 
   137.007272     -999.2500       69.3000       14.1906    12162.0742        0.6671     -999.2500       94.5000        0.6902 
   137.159696     -999.2500       67.5000       14.4544    12162.0742        0.6799     -999.2500       98.2000        0.6902 
   137.312020     -999.2500       65.8000       15.2406    12162.0742        0.6657     -999.2500      103.4000        0.7112 
   137.464444     -999.2500       64.4000       16.5197    12162.0742        0.6537     -999.2500      110.3000        0.7295 
   137.616868     -999.2500       63.8000       16.8268    12162.0742        0.6685     -999.2500      120.2000        0.7112 
   137.769292     -999.2500       64.0000       15.4527    12162.0742        0.6988     -999.2500      132.1000        0.6730 
   137.921616     -999.2500       63.7000       13.8676    12162.0742        0.7097     -999.2500      145.0000        0.6546 
   138.074040     -999.2500       61.6000       13.8996    12162.0742        0.6857     -999.2500      157.5000        0.6546 
   138.226464     -999.2500       59.8000       17.1002    12162.0742        0.6536     -999.2500      171.6000        0.6368 
   138.378888     -999.2500       61.1000       24.2104    12162.0742        0.6443     -999.2500      180.7000        0.6180 
   138.531212     -999.2500       65.2000       23.3347    12162.0742        0.6369     -999.2500      177.0000        0.6730 
   138.683636     -999.2500       70.3000       13.5208    12162.0742        0.5901     -999.2500      161.6000        1.0914 
   138.836060     -999.2500       75.5000        8.6896     3618.2095        0.5147     -999.2500      140.0000        1.7179 
   138.988484     -999.2500       80.5000        7.3791      765.8947        0.4586     -999.2500      116.6000        2.2336 
   139.140808     -999.2500       86.8000        7.2111      339.9632        0.4412     -999.2500      105.9000        2.7542 
   139.293232     -999.2500       93.3000        5.7677      203.7162        0.4491     -999.2500      100.1000        3.2211 
   139.445656     -999.2500       97.1000        3.9811       55.1500        0.4665     -999.2500       97.1000        3.3266 
   139.598080     -999.2500       99.2000        3.3266        6.7580        0.4848     -999.2500       95.3000        3.2211 
   139.750404     -999.2500      102.9000        3.8548        2.8882        0.4893     -999.2500       93.6000        3.2359 
   139.902828     -999.2500      107.7000        6.2661        2.8959        0.4744     -999.2500       92.3000        3.3497 
   140.055252     -999.2500      107.5000       12.3595        3.4921        0.4576     -999.2500       91.1000        3.5318 
   140.207676     -999.2500      103.1000       17.2982        4.2118        0.4536     -999.2500       89.6000        3.7497 
   140.360000     -999.2500       99.9000       12.1339        4.9479        0.4556     -999.2500       87.9000        3.9811 
   140.512424     -999.2500       99.0000        7.6560        5.2995        0.4526     -999.2500       86.1000        4.1687 
   140.664848     -999.2500       96.7000        5.9429        5.3569        0.4446     -999.2500       84.1000        4.3152 
   140.817272     -999.2500       91.8000        5.7148        5.4580        0.4284     -999.2500       83.0000        4.4771 
   140.969696     -999.2500       87.8000        6.0674        5.6839        0.4023     -999.2500       83.1000        4.6666 
   141.122020     -999.2500       85.3000        6.4121        6.0148        0.3777     -999.2500       84.5000        4.8865 
   141.274444     -999.2500       83.8000        6.6835        6.3835        0.3704     -999.2500       85.1000        5.1523 
   141.426868     -999.2500       81.5000        6.9663        6.6730        0.3756     -999.2500       85.6000        5.4325 
