~Version
VERS.           2.0   :CWLS Log ASCII Standard - VERSION 2.0
WRAP.           NO   :One line per index step
~Well
#  MNEM.UNIT                             DATA:  DESCRIPTION      
#-----------             ---------------------  -----------------
STRT  .M        149.0470                     : START INDEX
STOP  .M       1003.7062                     : STOP INDEX
STEP  .M          0.1524                     : STEP
NULL  .       -999.25                        : NULL VALUE
COMP  .                                      : COMPANY
WELL  .       AC-2                           : WELL
FLD   .       AC                             : FIELD
LOC   .                                      : LOCATION
PROV  .                                      : PROVINCE
CNTY  .                                      : COUNTY
STAT  .                                      : STATE
CTRY  .                                      : COUNTRY
SRVC  .                                      : SERVICE COMPANY
API   .                                      : API NUMBER
UWI   .       AC-2		                     : UNIQUE WELL ID
LATI  .DEG                                   : LATITUDE
LONG  .DEG                                   : LONGITUDE
~Curve
#  MNEM.UNIT                        LOG CODES:  CURVE DESCRIPTION
#-----------             ---------------------  -----------------
DEPT  .M                                     : Depth Index
CALI  .IN                                    : 
GR    .GAPI                                  : 
ILD   .ohmm                                  : 
ILM   .ohmm                                  : 
LLG3  .ohmm                                  : 
NPHI  .M3M3                                  : 
RHOB  .G/C3                                  : 
SP    .MV                                    : 
#
#----------------------------------------------------------------------------------------------------------------------------
# DEPT          CALI          GR            ILD           ILM           LLG3          NPHI          RHOB          SP            
# 
~Ascii
# ...
   657.910606     -999.2500       81.3000        1.3260        1.3348        1.3646     -999.2500     -999.2500      119.0496 
   658.063030     -999.2500       84.9000        1.2907        1.2853        1.3836     -999.2500     -999.2500      119.0776 
   658.215454     -999.2500       88.5000        1.2478        1.2365        1.3583     -999.2500     -999.2500      119.1000 
   658.367878     -999.2500       93.0000        1.2007        1.1931        1.3552     -999.2500     -999.2500      118.8526 
   658.520202     -999.2500       97.0000        1.1550        1.1531        1.3677     -999.2500     -999.2500      118.7152 
   658.672626     -999.2500       97.7000        1.1133        1.1176        1.3152     -999.2500     -999.2500      118.7000 
   658.825050     -999.2500       94.1000        1.0844        1.0871        1.2503     -999.2500     -999.2500      118.7896 
   658.977474     -999.2500       89.7000        1.0705        1.0613        1.2331     -999.2500     -999.2500      118.9840 
   659.129898     -999.2500       88.0000        1.0734        1.0532        1.2331     -999.2500     -999.2500      119.1888 
   659.282222     -999.2500       88.0000        1.0891        1.0645        1.2303     -999.2500     -999.2500      119.2000 
   659.434646     -999.2500       87.9000        1.1155        1.0933        1.2023     -999.2500     -999.2500      119.1008 
   659.587070     -999.2500       86.6000        1.1506        1.1401        1.1967     -999.2500     -999.2500      119.1983 
   659.739494     -999.2500       83.6000        1.1950        1.2024        1.1995     -999.2500     -999.2500      119.1000 
   659.891818     -999.2500       81.2000        1.2471        1.2647        1.2218     -999.2500     -999.2500      119.0936 
   660.044242     -999.2500       81.9000        1.3049        1.3213        1.2764     -999.2500     -999.2500      119.0000 
   660.196666     -999.2500       84.6000        1.3659        1.3740        1.3183     -999.2500     -999.2500      119.0336 
   660.349090     -999.2500       85.5000        1.4271        1.4256        1.3677     -999.2500     -999.2500      119.2863 
   660.501414     -999.2500       84.3000        1.4793        1.4705        1.3677     -999.2500     -999.2500      119.1680 
   660.653838     -999.2500       85.1000        1.5252        1.5103        1.3804     -999.2500     -999.2500      119.0185 
   660.806262     -999.2500       86.7000        1.5598        1.5477        1.4158     -999.2500     -999.2500      119.0583 
   660.958686     -999.2500       88.2000        1.5808        1.5834        1.4689     -999.2500     -999.2500      118.9000 
   661.111010     -999.2500       90.9000        1.5905        1.6075        1.4757     -999.2500     -999.2500      118.8743 
   661.263434     -999.2500       93.1000        1.5839        1.6079        1.4962     -999.2500     -999.2500      118.7158 
   661.415858     -999.2500       93.1000        1.5596        1.5853        1.5031     -999.2500     -999.2500      118.4087 
   661.568282     -999.2500       91.4000        1.5261        1.5420        1.5241     -999.2500     -999.2500      118.1015 
   661.720606     -999.2500       90.4000        1.4892        1.4855        1.5382     -999.2500     -999.2500      117.9000 
   661.873030     -999.2500       88.9000        1.4546        1.4270        1.5171     -999.2500     -999.2500      117.8248 
   662.025454     -999.2500       85.8000        1.4241        1.3892        1.4723     -999.2500     -999.2500      117.8201 
   662.177878     -999.2500       84.9000        1.4020        1.3625        1.5101     -999.2500     -999.2500      118.0848 
   662.330202     -999.2500       87.0000        1.3941        1.3473        1.4028     -999.2500     -999.2500      118.3793 
   662.482626     -999.2500       88.7000        1.4089        1.3449        1.3366     -999.2500     -999.2500      118.6000 
   662.635050     -999.2500       87.1000        1.4545        1.3603        1.3032     -999.2500     -999.2500      118.6497 
   662.787474     -999.2500       82.2000        1.5412        1.4046        1.3459     -999.2500     -999.2500      118.7000 
   662.939898     -999.2500       78.9000        1.6650        1.4931        1.3868     -999.2500     -999.2500      118.4822 
   663.092222     -999.2500       81.4000        1.8190        1.6399        1.4421     -999.2500     -999.2500      118.1863 
   663.244646     -999.2500       88.5000        1.9961        1.8496        1.4488     -999.2500     -999.2500      117.8630 
   663.397070     -999.2500       94.6000        2.1920        2.1834        1.4355     -999.2500     -999.2500      117.6383 
   663.549494     -999.2500       95.9000        2.4109        2.5057        1.6368     -999.2500     -999.2500      117.4078 
   663.701818     -999.2500       93.5000        2.6339        2.7534        2.2594     -999.2500     -999.2500      117.2335 
   663.854242     -999.2500       90.8000        2.8244        2.9246        2.4660     -999.2500     -999.2500      117.2000 
   664.006666     -999.2500       91.0000        2.9528        2.9866        2.4322     -999.2500     -999.2500      117.1287 
   664.159090     -999.2500       95.2000        3.0048        2.9584        2.4266     -999.2500     -999.2500      117.2472 
   664.311414     -999.2500      103.9000        3.0048        2.8972        2.4210     -999.2500     -999.2500      117.3760 
   664.463838     -999.2500      112.7000        2.9911        2.8555        2.2856     -999.2500     -999.2500      117.5568 
   664.616262     -999.2500      115.9000        2.9894        2.8228        2.1577     -999.2500     -999.2500      118.0853 
   664.768686     -999.2500      112.9000        3.0120        2.8034        2.1878     -999.2500     -999.2500      118.1167 
   664.921010     -999.2500      106.9000        3.0585        2.8018        2.1777     -999.2500     -999.2500      118.1856 
   665.073434     -999.2500      102.6000        3.1149        2.8224        2.1380     -999.2500     -999.2500      117.7598 
   665.225858     -999.2500      100.1000        3.1643        2.8832        2.0845     -999.2500     -999.2500      117.3382 
   665.378282     -999.2500       97.4000        3.2040        2.9611        2.1478     -999.2500     -999.2500      117.1143 
   665.530606     -999.2500       93.5000        3.2368        3.0496        2.3014     -999.2500     -999.2500      116.5285 
   665.683030     -999.2500       87.9000        3.2587        3.1418        2.5823     -999.2500     -999.2500      115.7190 
   665.835454     -999.2500       85.7000        3.2620        3.2308        2.8907     -999.2500     -999.2500      115.4000 
   665.987878     -999.2500       89.5000        3.2433        3.3199        2.9992     -999.2500     -999.2500      115.5000 
   666.140202     -999.2500       94.8000        3.2029        3.3212        2.6792     -999.2500     -999.2500      116.1096 
   666.292626     -999.2500       95.9000        3.1451        3.2459        2.3281     -999.2500     -999.2500      116.9092 
   666.445050     -999.2500       94.5000        3.0811        3.1591        2.3067     -999.2500     -999.2500      117.3879 
   666.597474     -999.2500       95.9000        3.0250        3.0792        2.3174     -999.2500     -999.2500      116.9030 
   666.749898     -999.2500       99.1000        2.9770        3.0131        2.2491     -999.2500     -999.2500      117.0000 
   666.902222     -999.2500       99.9000        2.9298        2.9655        2.2542     -999.2500     -999.2500      116.9915 
   667.054646     -999.2500       97.0000        2.8863        2.9268        2.2699     -999.2500     -999.2500      116.7806 
   667.207070     -999.2500       93.3000        2.8413        2.8756        2.2962     -999.2500     -999.2500      116.3891 
   667.359494     -999.2500       90.5000        2.7844        2.8142        2.2803     -999.2500     -999.2500      116.1939 
