~Version
VERS.           2.0   :CWLS Log ASCII Standard - VERSION 2.0
WRAP.           NO   :One line per index step
~Well
#  MNEM.UNIT                             DATA:  DESCRIPTION      
#-----------             ---------------------  -----------------
STRT  .M        149.0470                     : START INDEX
STOP  .M       1003.7062                     : STOP INDEX
STEP  .M          0.1524                     : STEP
NULL  .       -999.25                        : NULL VALUE
COMP  .                                      : COMPANY
WELL  .       AC-2                           : WELL
FLD   .       AC                             : FIELD
LOC   .                                      : LOCATION
PROV  .                                      : PROVINCE
CNTY  .                                      : COUNTY
STAT  .                                      : STATE
CTRY  .                                      : COUNTRY
SRVC  .                                      : SERVICE COMPANY
API   .                                      : API NUMBER
UWI   .       AC-2		                     : UNIQUE WELL ID
LATI  .DEG                                   : LATITUDE
LONG  .DEG                                   : LONGITUDE
~Curve
#  MNEM.UNIT                        LOG CODES:  CURVE DESCRIPTION
#-----------             ---------------------  -----------------
DEPT  .M                                     : Depth Index
CALI  .IN                                    : 
GR    .GAPI                                  : 
ILD   .ohmm                                  : 
ILM   .ohmm                                  : 
LLG3  .ohmm                                  : 
NPHI  .M3M3                                  : 
RHOB  .G/C3                                  : 
SP    .MV                                    : 
#
#----------------------------------------------------------------------------------------------------------------------------
# DEPT          CALI          GR            ILD           ILM           LLG3          NPHI          RHOB          SP            
# 
~Ascii
# ...
   542.696262     -999.2500       84.2000        2.6363        2.8463        2.9377     -999.2500     -999.2500      126.3000 
   542.848686     -999.2500       87.7000        2.6669        2.8501        2.4378     -999.2500     -999.2500      127.0000 
   543.001010     -999.2500       91.3000        2.6424        2.7493        2.1677     -999.2500     -999.2500      127.8000 
   543.153434     -999.2500       92.8000        2.5586        2.6011        1.9770     -999.2500     -999.2500      127.8000 
   543.305858     -999.2500       90.8000        2.4322        2.4399        1.8155     -999.2500     -999.2500      128.1000 
   543.458282     -999.2500       88.2000        2.2961        2.2856        1.9099     -999.2500     -999.2500      127.5000 
   543.610606     -999.2500       88.1000        2.1727        2.1505        1.8408     -999.2500     -999.2500      127.2000 
   543.763030     -999.2500       91.1000        2.0845        2.0403        1.7620     -999.2500     -999.2500      127.3000 
   543.915454     -999.2500       94.2000        2.0324        1.9603        1.7620     -999.2500     -999.2500      127.0000 
   544.067878     -999.2500       94.3000        2.0137        1.9209        1.7824     -999.2500     -999.2500      126.9000 
   544.220202     -999.2500       92.8000        2.0091        1.9333        1.9454     -999.2500     -999.2500      126.8000 
   544.372626     -999.2500       91.6000        2.0091        1.9840        1.9861     -999.2500     -999.2500      126.9000 
   544.525050     -999.2500       91.6000        2.0137        2.0215        2.0417     -999.2500     -999.2500      127.0000 
   544.677474     -999.2500       92.5000        2.0091        2.0247        1.9364     -999.2500     -999.2500      127.1000 
   544.829898     -999.2500       92.2000        2.0045        1.9965        1.8535     -999.2500     -999.2500      127.2000 
   544.982222     -999.2500       90.8000        1.9953        1.9525        1.8030     -999.2500     -999.2500      127.2000 
   545.134646     -999.2500       90.2000        1.9770        1.9105        1.8030     -999.2500     -999.2500      127.2000 
   545.287070     -999.2500       92.1000        1.9543        1.8774        1.7418     -999.2500     -999.2500      127.1000 
   545.439494     -999.2500       98.1000        1.9231        1.8592        1.7100     -999.2500     -999.2500      127.1000 
   545.591818     -999.2500      103.9000        1.8923        1.8441        1.7947     -999.2500     -999.2500      127.6000 
   545.744242     -999.2500      106.7000        1.8664        1.8253        1.8664     -999.2500     -999.2500      128.5000 
   545.896666     -999.2500      105.5000        1.8408        1.8030        1.7378     -999.2500     -999.2500      128.2000 
   546.049090     -999.2500       99.2000        1.8281        1.7819        1.7100     -999.2500     -999.2500      128.5000 
   546.201414     -999.2500       92.6000        1.8239        1.7647        1.7179     -999.2500     -999.2500      128.4000 
   546.353838     -999.2500       89.1000        1.8197        1.7551        1.6788     -999.2500     -999.2500      128.1000 
   546.506262     -999.2500       88.9000        1.8239        1.7539        1.6866     -999.2500     -999.2500      128.3000 
   546.658686     -999.2500       89.6000        1.8281        1.7602        1.6904     -999.2500     -999.2500      127.7000 
   546.811010     -999.2500       88.8000        1.8365        1.7785        1.7539     -999.2500     -999.2500      127.6000 
   546.963434     -999.2500       88.0000        1.8493        1.8073        1.7701     -999.2500     -999.2500      127.6000 
   547.115858     -999.2500       89.6000        1.8750        1.8433        1.7701     -999.2500     -999.2500      127.7000 
   547.268282     -999.2500       93.6000        1.9011        1.8833        1.7989     -999.2500     -999.2500      127.7000 
   547.420606     -999.2500       97.8000        1.9320        1.9210        1.8323     -999.2500     -999.2500      128.5000 
   547.573030     -999.2500       99.3000        1.9589        1.9511        1.8072     -999.2500     -999.2500      128.8880 
   547.725454     -999.2500       97.8000        1.9679        1.9448        1.8072     -999.2500     -999.2500      129.0879 
   547.877878     -999.2500       97.4000        1.9595        1.8950        1.8967     -999.2500     -999.2500      128.5543 
   548.030202     -999.2500       96.6000        1.9263        1.8207        1.8578     -999.2500     -999.2500      128.4121 
   548.182626     -999.2500       94.8000        1.8844        1.7493        1.7179     -999.2500     -999.2500      128.3151 
   548.335050     -999.2500       93.0000        1.8403        1.6963        1.6520     -999.2500     -999.2500      128.3000 
   548.487474     -999.2500       91.9000        1.8001        1.6773        1.5922     -999.2500     -999.2500      128.3788 
   548.639898     -999.2500       92.0000        1.7696        1.6861        1.6144     -999.2500     -999.2500      128.4757 
   548.792222     -999.2500       91.6000        1.7499        1.7081        1.6032     -999.2500     -999.2500      128.5000 
   548.944646     -999.2500       93.1000        1.7418        1.7372        1.6069     -999.2500     -999.2500      128.5697 
   549.097070     -999.2500       98.2000        1.7458        1.7655        1.6032     -999.2500     -999.2500      128.7333 
   549.249494     -999.2500      103.0000        1.7620        1.7915        1.7179     -999.2500     -999.2500      128.8000 
   549.401818     -999.2500      104.1000        1.7824        1.8156        1.7418     -999.2500     -999.2500      128.7394 
   549.554242     -999.2500      103.6000        1.8113        1.8389        1.7061     -999.2500     -999.2500      128.6424 
   549.706666     -999.2500      105.2000        1.8493        1.8659        1.7498     -999.2500     -999.2500      128.4908 
   549.859090     -999.2500      108.2000        1.8880        1.8967        1.7906     -999.2500     -999.2500      128.4000 
   550.011414     -999.2500      109.2000        1.9231        1.9275        1.7338     -999.2500     -999.2500      128.3030 
   550.163838     -999.2500      107.5000        1.9498        1.9543        1.7620     -999.2500     -999.2500      128.2454 
   550.316262     -999.2500      105.4000        1.9724        1.9724        1.8365     -999.2500     -999.2500      128.3424 
   550.468686     -999.2500      103.5000        1.9861        1.9861        1.8493     -999.2500     -999.2500      128.3606 
   550.621010     -999.2500      100.9000        2.0045        1.9912        1.8281     -999.2500     -999.2500      128.3363 
   550.773434     -999.2500       97.0000        2.0184        1.9943        1.8578     -999.2500     -999.2500      128.4666 
   550.925858     -999.2500       92.3000        2.0324        1.9948        1.8365     -999.2500     -999.2500      128.6000 
   551.078282     -999.2500       90.4000        2.0417        1.9933        1.8281     -999.2500     -999.2500      128.6000 
   551.230606     -999.2500       93.1000        2.0464        1.9882        1.8155     -999.2500     -999.2500      128.5757 
   551.383030     -999.2500       98.9000        2.0357        1.9792        1.8323     -999.2500     -999.2500      128.4788 
   551.535454     -999.2500      106.8000        2.0250        1.9670        1.8281     -999.2500     -999.2500      128.3636 
   551.687878     -999.2500      114.0000        2.0204        1.9531        1.8707     -999.2500     -999.2500      128.2303 
   551.840202     -999.2500      116.8000        2.0391        1.9469        1.8707     -999.2500     -999.2500      128.4121 
   551.992626     -999.2500      115.3000        2.0922        1.9573        1.8365     -999.2500     -999.2500      128.5000 
   552.145050     -999.2500      112.6000        2.1938        1.9769        1.8197     -999.2500     -999.2500      128.4879 
