~Version
VERS.           2.0   :CWLS Log ASCII Standard - VERSION 2.0
WRAP.           NO   :One line per index step
~Well
#  MNEM.UNIT                             DATA:  DESCRIPTION      
#-----------             ---------------------  -----------------
STRT  .M        149.0470                     : START INDEX
STOP  .M       1003.7062                     : STOP INDEX
STEP  .M          0.1524                     : STEP
NULL  .       -999.25                        : NULL VALUE
COMP  .                                      : COMPANY
WELL  .       AC-2                           : WELL
FLD   .       AC                             : FIELD
LOC   .                                      : LOCATION
PROV  .                                      : PROVINCE
CNTY  .                                      : COUNTY
STAT  .                                      : STATE
CTRY  .                                      : COUNTRY
SRVC  .                                      : SERVICE COMPANY
API   .                                      : API NUMBER
UWI   .       AC-2		                     : UNIQUE WELL ID
LATI  .DEG                                   : LATITUDE
LONG  .DEG                                   : LONGITUDE
~Curve
#  MNEM.UNIT                        LOG CODES:  CURVE DESCRIPTION
#-----------             ---------------------  -----------------
DEPT  .M                                     : Depth Index
CALI  .IN                                    : 
GR    .GAPI                                  : 
ILD   .ohmm                                  : 
ILM   .ohmm                                  : 
LLG3  .ohmm                                  : 
NPHI  .M3M3                                  : 
RHOB  .G/C3                                  : 
SP    .MV                                    : 
#
#----------------------------------------------------------------------------------------------------------------------------
# DEPT          CALI          GR            ILD           ILM           LLG3          NPHI          RHOB          SP            
# 
~Ascii
# ...
   878.738282        9.4852       79.9000        1.2748        1.2912        1.3062        0.6099        2.1490       88.6000 
   878.890606        9.2242       81.1000        1.2781        1.2900        1.3243        0.6126        2.1590       88.4133 
   879.043030        9.1194       82.4000        1.2815        1.2900        1.3614        0.6110        2.1610       88.2267 
   879.195454        9.0193       83.5000        1.2849        1.2933        1.3583        0.6022        2.1580       88.2800 
   879.347878        9.0125       84.0000        1.2853        1.2968        1.3521        0.5912        2.1540       88.3733 
   879.500202        8.9650       83.7000        1.2879        1.3032        1.3428        0.5832        2.1540       88.2666 
   879.652626        9.0176       81.5000        1.2929        1.3058        1.3366        0.5772        2.1590       88.0200 
   879.805050        9.0600       78.4000        1.2962        1.3038        1.3366        0.5716        2.1690       87.9000 
   879.957474        9.0374       74.8000        1.3005        1.3052        1.3677        0.5689        2.1790       87.9466 
   880.109898        8.9855       72.3000        1.3045        1.3062        1.3397        0.5710        2.1810       88.0399 
   880.262222        8.9647       73.1000        1.3092        1.3075        1.3459        0.5757        2.1760       88.1333 
   880.414646        8.8673       75.2000        1.3166        1.3102        1.3583        0.5797        2.1710       88.1467 
   880.567070        8.8522       76.5000        1.3223        1.3135        1.3804        0.5816        2.1700       88.0400 
   880.719494        8.8580       74.8000        1.3305        1.3189        1.3677        0.5836        2.1720       88.1733 
   880.871818        8.9400       71.5000        1.3366        1.3243        1.3366        0.5870        2.1730       88.0200 
   881.024242        8.9351       71.1000        1.3397        1.3366        1.3459        0.5938        2.1740       88.3000 
   881.176666        8.9271       73.8000        1.3428        1.3490        1.4125        0.6057        2.1780       88.4867 
   881.329090        8.9593       77.2000        1.3397        1.3583        1.3152        0.6235        2.1830       88.5000 
   881.481414        8.9832       78.2000        1.3366        1.3646        1.3366        0.6443        2.1830       88.5000 
   881.633838        8.9600       76.4000        1.3305        1.3646        1.3305        0.6607        2.1750       88.6467 
   881.786262        8.9536       75.4000        1.3243        1.3552        1.3152        0.6657        2.1640       88.5667 
   881.938686        8.9216       76.7000        1.3152        1.3356        1.3366        0.6587        2.1560       88.3200 
   882.091010        8.8859       79.2000        1.3098        1.3233        1.3521        0.6456        2.1500       88.0401 
   882.243434        8.8581       80.3000        1.3022        1.3152        1.3646        0.6327        2.1440       87.6669 
   882.395858        8.8408       79.7000        1.2942        1.3112        1.3428        0.6173        2.1420       87.2801 
   882.548282        8.9532       79.8000        1.2879        1.3052        1.3092        0.5998        2.1470       87.2665 
   882.700606        8.8728       80.4000        1.2840        1.3002        1.3092        0.5874        2.1560       87.4934 
   882.853030        8.8365       80.2000        1.2814        1.3002        1.3002        0.5879        2.1610       87.2000 
   883.005454        8.8268       79.3000        1.2787        1.3002        1.3243        0.5922        2.1610       87.1600 
   883.157878        8.8600       79.2000        1.2761        1.3002        1.3243        0.5870        2.1620       86.9133 
   883.310202        8.8711       81.1000        1.2735        1.3002        1.3614        0.5755        2.1660       87.1000 
   883.462626        8.9315       83.0000        1.2664        1.2982        1.3459        0.5769        2.1770       86.7000 
   883.615050        8.9488       84.6000        1.2565        1.2939        1.3335        0.5956        2.1960       87.0000 
   883.767474        9.0170       86.6000        1.2466        1.2875        1.3092        0.6195        2.2090       87.1000 
   883.919898        9.1281       87.8000        1.2400        1.2797        1.3062        0.6360        2.2020       87.2000 
   884.072222        9.1748       85.9000        1.2429        1.2709        1.3274        0.6360        2.1760       87.0000 
   884.224646        9.1475       83.2000        1.2519        1.2645        1.3335        0.6110        2.1530       87.0000 
   884.377070        9.2000       84.9000        1.2647        1.2630        1.3740        0.5591        2.1440       87.0000 
   884.529494        9.2023       90.3000        1.2853        1.2723        1.4322        0.4930        2.1420       86.5000 
   884.681818        9.2264       93.0000        1.3152        1.2951        1.4757        0.4421        2.1380       86.1444 
   884.834242        9.2729       91.5000        1.3614        1.3285        1.4689        0.4298        2.1410       85.7110 
   884.986666        9.2168       89.7000        1.4289        1.3709        1.4859        0.4573        2.1560       85.1999 
   885.139090        9.2818       88.6000        1.5206        1.4783        1.6788        0.4837        2.1760       84.2220 
   885.291414        9.2650       86.8000        1.6368        1.6438        2.0370        0.4890        2.1900       83.0664 
   885.443838        8.8892       82.4000        1.7742        1.8387        2.3442        0.4796        2.2080       81.7662 
   885.596262        8.8822       76.2000        1.9231        2.0505        2.5527        0.4672        2.2330       79.9437 
   885.748686        8.9080       69.3000        2.1143        2.2677        2.6363        0.4616        2.2500       77.7214 
   885.901010        8.8781       62.5000        2.3157        2.4782        2.4889        0.4692        2.2470       75.5000 
   886.053434        8.8500       57.6000        2.5029        2.6661        2.7797        0.4889        2.2300       73.9000 
   886.205858        8.8500       56.2000        2.6235        2.8045        2.7925        0.5106        2.2180       73.4000 
   886.358282        8.8514       57.8000        2.6416        2.8626        2.8314        0.5304        2.2230       73.0000 
   886.510606        8.8808       60.8000        2.5697        2.8143        2.5645        0.5493        2.2460       72.7000 
   886.663030        8.9010       63.1000        2.4491        2.6581        2.1038        0.5672        2.2770       72.8000 
   886.815454        8.9329       65.0000        2.3335        2.4341        1.9143        0.5743        2.2930       73.8000 
   886.967878        9.0307       68.1000        2.2284        2.2340        1.7539        0.5604        2.2730       74.8000 
   887.120202        9.0597       71.3000        2.1233        2.0910        1.7989        0.5355        2.2320       76.1000 
   887.272626        9.0399       72.9000        2.0277        1.9953        1.8281        0.5106        2.1970       77.8667 
   887.425050        9.0300       75.0000        1.9543        1.9390        1.8408        0.4949        2.1800       78.5334 
   887.577474        9.2100       78.7000        1.9187        1.9011        1.7742        0.4895        2.1710       78.6000 
   887.729898        9.2214       79.6000        1.9275        1.8808        1.7418        0.4907        2.1630       79.1664 
   887.882222        9.2214       74.2000        1.9770        1.8895        1.8239        0.4923        2.1580       79.6333 
   888.034646        9.0671       65.1000        2.0555        1.9298        1.8323        0.4910        2.1600       80.2000 
   888.187070        8.8900       58.9000        2.1449        2.0080        1.8493        0.4896        2.1680       79.9000 
