~Version
VERS.           2.0   :CWLS Log ASCII Standard - VERSION 2.0
WRAP.           NO   :One line per index step
~Well
#  MNEM.UNIT                             DATA:  DESCRIPTION      
#-----------             ---------------------  -----------------
STRT  .M        131.9780                     : START INDEX
STOP  .M       1012.2404                     : STOP INDEX
STEP  .M          0.1524                     : STEP
NULL  .       -999.25                        : NULL VALUE
COMP  .                                      : COMPANY
WELL  .       AB-1                           : WELL
FLD   .       AB                       : FIELD
LOC   .                                      : LOCATION
PROV  .                                      : PROVINCE
CNTY  .                                      : COUNTY
STAT  .                                      : STATE
CTRY  .                                      : COUNTRY
SRVC  .                                      : SERVICE COMPANY
API   .                                      : API NUMBER
UWI   .       AB-1		                     : UNIQUE WELL ID
LATI  .DEG                                   : LATITUDE
LONG  .DEG                                   : LONGITUDE
~Curve
#  MNEM.UNIT                        LOG CODES:  CURVE DESCRIPTION
#-----------             ---------------------  -----------------
DEPT  .M                                     : Depth Index
CALI  .IN                                    : 
GR    .GAPI                                  : 
ILD   .ohmm                                  : 
ILM   .ohmm                                  : 
NPHI  .M3M3                                  : 
RHOB  .G/C3                                  : 
SP    .MV                                    : 
LL3   .ohmm                                  : 
#
#----------------------------------------------------------------------------------------------------------------------------
# DEPT          CALI          GR            ILD           ILM           NPHI          RHOB          SP            LL3           
# 
~Ascii
# ...
  1005.687272        9.1600        0.0000        2.3659        2.4013       -0.0330        2.1920       29.4000        3.6560 
  1005.839696        8.9300        0.0000        2.3823        2.4687       -0.0330        2.2250       29.4000        3.7154 
  1005.992020        8.8200        0.0000        2.3933        2.5305       -0.0330        2.2390       29.9000        3.7497 
  1006.144444        8.8300        0.0000        2.4266        2.5100       -0.0330        2.2140       30.5000        3.7670 
  1006.296868        8.8600        0.0000        2.4889        2.4472       -0.0330        2.1620       30.6000        3.7844 
  1006.449292        0.0000        0.0000        2.5763        2.4212       -0.0330        2.1210       30.1000        3.8283 
  1006.601616        0.0000        0.0000        2.6363        2.3928       -0.0330        2.1120       30.5000        3.7497 
  1006.754040        0.0000        0.0000        2.2961        2.3643       -0.0330        2.1200       31.2000        3.6560 
  1006.906464     -999.2500        0.0000        2.2803        2.3401       -0.0330     -999.2500       32.6000        3.5892 
  1007.058888     -999.2500        0.0000        2.2647        2.3339        0.0000     -999.2500       35.7000        3.5481 
  1007.211212     -999.2500        0.0000        2.2439        2.3452        0.0000     -999.2500       36.2000        3.4356 
  1007.363636     -999.2500        0.0000        2.1928        2.3746        0.0000     -999.2500       35.9000        3.3266 
  1007.516060     -999.2500        0.0000        2.1330        2.4265        0.0000     -999.2500       35.0000        3.2359 
  1007.668484     -999.2500        0.0000        2.0845        2.4767        0.0000     -999.2500       40.2000        3.1261 
  1007.820808     -999.2500        0.0000        2.4099        2.5184        0.0000     -999.2500       36.2000        3.0903 
  1007.973232     -999.2500        0.0000        2.4044        2.5468        0.0000     -999.2500       36.2000        3.2359 
  1008.125656     -999.2500        0.0000        2.1281        2.5527        0.0000     -999.2500       36.1000        3.4198 
  1008.278080     -999.2500        0.0000        1.5596        2.5468        0.0000     -999.2500       36.0000        3.6058 
  1008.430404     -999.2500        0.0000        1.1272        2.5351        0.0000     -999.2500       35.8000        3.7844 
  1008.582828     -999.2500        0.0000        0.9247        2.5177        0.0000     -999.2500        0.0000        3.7670 
  1008.735252     -999.2500        0.0000      261.8204        2.5061        0.0000     -999.2500        0.0000        3.6058 
  1008.887676     -999.2500        0.0000      272.9009        2.5704        0.0000     -999.2500        0.0000        3.5156 
  1009.040000     -999.2500        0.0000      167.4952        2.2387        0.0000     -999.2500        0.0000        3.4198 
  1009.192424     -999.2500        0.0000       75.3363        1.6069        0.0000     -999.2500        0.0000        3.3113 
  1009.344848     -999.2500        0.0000       43.1521        1.1588        0.0000     -999.2500        0.0000        3.3113 
  1009.497272     -999.2500        0.0000       32.6589        0.9528        0.0000     -999.2500        0.0000        3.3497 
  1009.649696     -999.2500        0.0000   100002.4062      293.7680        0.0000     -999.2500        0.0000        3.3807 
  1009.802020     -999.2500        0.0000   100002.4062      287.0812        0.0000     -999.2500        0.0000        3.4041 
  1009.954444     -999.2500        0.0000   100002.4062      277.3341        0.0000     -999.2500        0.0000        3.4754 
  1010.106868     -999.2500        0.0000   100002.4062      270.3987        0.0000     -999.2500        0.0000        4.3351 
  1010.259292     -999.2500        0.0000   100002.4062      266.0750        0.0000     -999.2500        0.0000        4.4056 
  1010.411616     -999.2500        0.0000   100002.4062      264.8538        0.0000     -999.2500        0.0000        4.4056 
  1010.564040     -999.2500        0.0000   100002.4062      205.5904        0.0000     -999.2500        0.0000        4.4056 
  1010.716464     -999.2500        0.0000        1.0000      122.7451        0.0000     -999.2500        0.0000        4.3451 
  1010.868888     -999.2500        0.0000        1.0000       79.7999        0.0000     -999.2500        0.0000        3.5645 
  1011.021212     -999.2500        0.0000        1.0000       63.2419        0.0000     -999.2500        0.0000        3.2734 
  1011.173636     -999.2500        0.0000        1.0000   100002.4062        0.0000     -999.2500        0.0000        2.9717 
  1011.326060     -999.2500        0.0000        1.0000   100002.4062        0.0000     -999.2500        0.0000        2.6792 
  1011.478484     -999.2500        0.0000        1.0000   100002.4062        0.0000     -999.2500        0.0000        2.4210 
  1011.630808     -999.2500        0.0000        1.0000   100002.4062        0.0000     -999.2500        0.0000        1.0000 
  1011.783232     -999.2500        0.0000        1.0000   100002.4062        0.0000     -999.2500        0.0000        1.0000 
  1011.935656     -999.2500        0.0000        1.0000     -999.2500        0.0000     -999.2500        0.0000        1.0000 
  1012.088080     -999.2500        0.0000        1.0000     -999.2500        0.0000     -999.2500        0.0000        1.0000 
  1012.240404     -999.2500     -999.2500     -999.2500     -999.2500     -999.2500     -999.2500        0.0000     -999.2500 
