~Version
VERS.           2.0   :CWLS Log ASCII Standard - VERSION 2.0
WRAP.           NO   :One line per index step
~Well
#  MNEM.UNIT                             DATA:  DESCRIPTION      
#-----------             ---------------------  -----------------
STRT  .M        131.9780                     : START INDEX
STOP  .M       1012.2404                     : STOP INDEX
STEP  .M          0.1524                     : STEP
NULL  .       -999.25                        : NULL VALUE
COMP  .                                      : COMPANY
WELL  .       AB-1                           : WELL
FLD   .       AB                       : FIELD
LOC   .                                      : LOCATION
PROV  .                                      : PROVINCE
CNTY  .                                      : COUNTY
STAT  .                                      : STATE
CTRY  .                                      : COUNTRY
SRVC  .                                      : SERVICE COMPANY
API   .                                      : API NUMBER
UWI   .       AB-1		                     : UNIQUE WELL ID
LATI  .DEG                                   : LATITUDE
LONG  .DEG                                   : LONGITUDE
~Curve
#  MNEM.UNIT                        LOG CODES:  CURVE DESCRIPTION
#-----------             ---------------------  -----------------
DEPT  .M                                     : Depth Index
CALI  .IN                                    : 
GR    .GAPI                                  : 
ILD   .ohmm                                  : 
ILM   .ohmm                                  : 
NPHI  .M3M3                                  : 
RHOB  .G/C3                                  : 
SP    .MV                                    : 
LL3   .ohmm                                  : 
#
#----------------------------------------------------------------------------------------------------------------------------
# DEPT          CALI          GR            ILD           ILM           NPHI          RHOB          SP            LL3           
# 
~Ascii
# ...
   775.258484     -999.2500       61.3000        1.3002        1.2943        0.5523     -999.2500       85.2007        2.1979 
   775.410808     -999.2500       61.7000        1.2106        1.2134        0.5436     -999.2500       85.1519        2.0845 
   775.563232     -999.2500       62.4000        1.1298        1.1309        0.5349     -999.2500       84.9834        1.9770 
   775.715656     -999.2500       63.5000        1.0641        1.0546        0.5203     -999.2500       84.8000        1.8450 
   775.868080     -999.2500       65.3000        1.0257        0.9925        0.5041     -999.2500       84.8000        1.7701 
   776.020404     -999.2500       67.4000        1.0093        0.9515        0.4987     -999.2500       84.7391        1.7906 
   776.172828     -999.2500       67.4000        1.0163        0.9394        0.5061     -999.2500       84.7000        2.0512 
   776.325252     -999.2500       65.4000        1.0447        0.9711        0.5154     -999.2500       84.7000        2.2336 
   776.477676     -999.2500       64.0000        1.0889        1.0565        0.5217     -999.2500       84.4970        2.4378 
   776.630000     -999.2500       65.5000        1.1561        1.1744        0.5315     -999.2500       84.1902        2.6242 
   776.782424     -999.2500       67.9000        1.2474        1.3069        0.5426     -999.2500       83.8112        2.7542 
   776.934848     -999.2500       68.5000        1.3709        1.4433        0.5465     -999.2500       83.7000        2.6977 
   777.087272     -999.2500       67.4000        1.5171        1.5715        0.5407     -999.2500       83.6233        2.7164 
   777.239696     -999.2500       66.0000        1.6673        1.6851        0.5392     -999.2500       83.2842        2.7164 
   777.392020     -999.2500       65.3000        1.7947        1.7791        0.5557     -999.2500       82.9564        2.7353 
   777.544444     -999.2500       65.8000        1.8880        1.8409        0.5853     -999.2500       82.6496        2.7353 
   777.696868     -999.2500       67.9000        1.9409        1.8812        0.6085     -999.2500       82.6000        2.7353 
   777.849292     -999.2500       70.4000        1.9770        1.9175        0.6085     -999.2500       82.4240        2.7353 
   778.001616     -999.2500       71.4000        2.0045        1.9420        0.5891     -999.2500       82.1293        2.7733 
   778.154040     -999.2500       70.0000        2.0370        1.9656        0.5629     -999.2500       82.0075        2.8054 
   778.306464     -999.2500       66.9000        2.0701        2.0015        0.5368     -999.2500       81.9053        2.8642 
   778.458888     -999.2500       64.2000        2.0941        2.0567        0.5120     -999.2500       82.4820        2.8973 
   778.611212     -999.2500       62.4000        2.1086        2.1071        0.4938     -999.2500       82.8970        2.9377 
   778.763636     -999.2500       61.3000        2.1086        2.1166        0.4928     -999.2500       82.7985        2.9377 
   778.916060     -999.2500       61.8000        2.0893        2.0872        0.5115     -999.2500       82.6924        2.8973 
   779.068484     -999.2500       63.4000        2.0559        2.0206        0.5388     -999.2500       82.4880        2.8054 
   779.220808     -999.2500       64.7000        2.0137        1.9327        0.5600     -999.2500       82.2917        2.7353 
   779.373232     -999.2500       64.4000        1.9589        1.8525        0.5725     -999.2500       82.2000        2.6607 
   779.525656     -999.2500       63.0000        1.9055        1.7812        0.5858     -999.2500       82.1872        2.5882 
   779.678080     -999.2500       61.4000        1.8535        1.7257        0.6071     -999.2500       82.0250        2.4946 
   779.830404     -999.2500       59.5000        1.8113        1.6992        0.6297     -999.2500       81.4787        2.4378 
   779.982828     -999.2500       58.2000        1.7783        1.6987        0.6362     -999.2500       80.6656        2.4774 
   780.135252     -999.2500       59.6000        1.7579        1.7141        0.6180     -999.2500       79.5910        2.5704 
   780.287676     -999.2500       63.0000        1.7499        1.7400        0.5877     -999.2500       79.2241        2.6424 
   780.440000     -999.2500       65.1000        1.7458        1.7668        0.5696     -999.2500       79.4053        2.7353 
   780.592424     -999.2500       65.2000        1.7458        1.7864        0.5734     -999.2500       79.9001        2.8249 
   780.744848     -999.2500       64.3000        1.7378        1.7940        0.5868     -999.2500       80.6775        2.8445 
   780.897272     -999.2500       62.6000        1.7140        1.7849        0.5925     -999.2500       81.6639        2.8249 
   781.049696     -999.2500       59.7000        1.6673        1.7515        0.5853     -999.2500       82.7887        2.7542 
   781.202020     -999.2500       57.4000        1.5922        1.6864        0.5729     -999.2500       83.6879        2.5882 
   781.354444     -999.2500       58.0000        1.5031        1.5367        0.5658     -999.2500       83.8406        2.4210 
   781.506868     -999.2500       61.8000        1.4093        1.3744        0.5619     -999.2500       83.3894        2.2699 
   781.659292     -999.2500       67.8000        1.3243        1.2443        0.5557     -999.2500       83.0556        2.0845 
   781.811616     -999.2500       78.5000        1.2589        1.1642        0.5460     -999.2500       82.8600        1.9953 
   781.964040     -999.2500      103.4000        1.2106        1.1298        0.5368     -999.2500       82.5534        2.0324 
   782.116464     -999.2500      152.6000        1.1803        1.1357        0.5339     -999.2500       82.1955        2.1232 
   782.268888     -999.2500      211.5999        1.1668        1.1786        0.5392     -999.2500       81.8398        2.2336 
   782.421212     -999.2500      240.9000        1.1695        1.2295        0.5494     -999.2500       81.7556        2.3768 
   782.573636     -999.2500      215.8000        1.1803        1.2678        0.5600     -999.2500       82.2632        2.4946 
   782.726060     -999.2500      154.8000        1.1967        1.2758        0.5725     -999.2500       83.0812        2.5119 
   782.878484     -999.2500       99.5000        1.2106        1.2582        0.5839     -999.2500       83.4000        2.4604 
   783.030808     -999.2500       70.5000        1.2303        1.2342        0.5863     -999.2500       82.9474        2.3227 
   783.183232     -999.2500       61.1000        1.2474        1.2211        0.5768     -999.2500       82.7000        2.1777 
   783.335656     -999.2500       58.8000        1.2677        1.2281        0.5634     -999.2500       82.7000        2.1232 
   783.488080     -999.2500       58.6000        1.2823        1.2522        0.5547     -999.2500       82.4142        2.1979 
   783.640404     -999.2500       60.7000        1.2882        1.2791        0.5518     -999.2500       82.3736        2.2856 
   783.792828     -999.2500       63.6000        1.2912        1.2979        0.5508     -999.2500       82.7038        2.3605 
   783.945252     -999.2500       65.8000        1.2942        1.3069        0.5504     -999.2500       82.9564        2.4210 
   784.097676     -999.2500       68.6000        1.2942        1.3042        0.5479     -999.2500       83.1609        2.4378 
   784.250000     -999.2500       72.6000        1.2912        1.2870        0.5470     -999.2500       83.3654        2.3768 
   784.402424     -999.2500       75.2000        1.2794        1.2553        0.5547     -999.2500       83.5699        2.2699 
   784.554848     -999.2500       74.9000        1.2618        1.2142        0.5701     -999.2500       83.6872        2.1777 
   784.707272     -999.2500       75.3000        1.2331        1.1735        0.5853     -999.2500       83.4315        2.1038 
