~Version
VERS.           2.0   :CWLS Log ASCII Standard - VERSION 2.0
WRAP.           NO   :One line per index step
~Well
#  MNEM.UNIT                             DATA:  DESCRIPTION      
#-----------             ---------------------  -----------------
STRT  .M        148.2850                     : START INDEX
STOP  .M        995.9338                     : STOP INDEX
STEP  .M          0.1524                     : STEP
NULL  .       -999.25                        : NULL VALUE
COMP  .                                      : COMPANY
WELL  .       AD-3                           : WELL
FLD   .       AD                             : FIELD
LOC   .                                      : LOCATION
PROV  .                                      : PROVINCE
CNTY  .                                      : COUNTY
STAT  .                                      : STATE
CTRY  .                                      : COUNTRY
SRVC  .                                      : SERVICE COMPANY
API   .                                      : API NUMBER
UWI   .       AD-3		                     : UNIQUE WELL ID
LATI  .DEG                                   : LATITUDE
LONG  .DEG                                   : LONGITUDE
~Curve
#  MNEM.UNIT                        LOG CODES:  CURVE DESCRIPTION
#-----------             ---------------------  -----------------
DEPT  .M                                     : Depth Index
CALI  .IN                                    : 
GR    .GAPI                                  : 
ILD   .ohmm                                  : 
ILM   .ohmm                                  : 
LL3   .ohmm                                  : 
NPHI  .M3M3                                  : 
RHOB  .G/C3                                  : 
SP    .MV                                    : 
#
#----------------------------------------------------------------------------------------------------------
# DEPT        CALI        GR          ILD         ILM         LL3         NPHI        RHOB        SP          
# 
~Ascii
# ...
   430.2250   -999.2500     62.0022      6.3865      6.0249      5.3337   -999.2500   -999.2500    130.5883 
   430.3774   -999.2500     61.3154      6.4670      6.0319      5.3635   -999.2500   -999.2500    130.4035 
   430.5298   -999.2500     58.3267      6.5265      6.0509      5.3706   -999.2500   -999.2500    130.3227 
   430.6822   -999.2500     54.9197      6.5613      6.0950      5.3840   -999.2500   -999.2500    130.4444 
   430.8346   -999.2500     52.5343      6.5715      6.1373      5.3594   -999.2500   -999.2500    130.8397 
   430.9870   -999.2500     51.9492      6.5605      6.0929      5.3747   -999.2500   -999.2500    131.1483 
   431.1394   -999.2500     52.1664      6.5877      5.9234      5.3695   -999.2500   -999.2500    131.2171 
   431.2918   -999.2500     52.6284      6.6425      5.7466      5.3838   -999.2500   -999.2500    131.2171 
   431.4442   -999.2500     52.2991      6.6720      5.7033      5.3881   -999.2500   -999.2500    131.2783 
   431.5966   -999.2500     52.6755      6.6549      5.8168      5.4370   -999.2500   -999.2500    131.2315 
   431.7490   -999.2500     58.8352      6.6508      6.0335      5.4612   -999.2500   -999.2500    131.2139 
   431.9014   -999.2500     69.5545      6.7132      6.2139      5.5118   -999.2500   -999.2500    131.4267 
   432.0538   -999.2500     75.6911      6.7582      6.1922      5.5514   -999.2500   -999.2500    131.5623 
   432.2062   -999.2500     74.1473      6.7692      6.0839      5.5676   -999.2500   -999.2500    131.4333 
   432.3586   -999.2500     67.6876      6.7609      5.9918      5.5477   -999.2500   -999.2500    131.2551 
   432.5110   -999.2500     60.0984      6.7370      5.9469      5.5555   -999.2500   -999.2500    131.2747 
   432.6634   -999.2500     60.1106      6.7157      5.9356      5.5642   -999.2500   -999.2500    131.2319 
   432.8158   -999.2500     64.3505      6.7110      5.9321      5.5800   -999.2500   -999.2500    131.2023 
   432.9682   -999.2500     66.2452      6.7201      5.9502      5.5781   -999.2500   -999.2500    131.1938 
   433.1206   -999.2500     65.1252      6.7302      5.9930      5.6126   -999.2500   -999.2500    131.2129 
   433.2730   -999.2500     63.1604      6.7222      6.0416      5.6690   -999.2500   -999.2500    130.8694 
   433.4254   -999.2500     60.6418      6.7188      6.1224      5.6748   -999.2500   -999.2500    130.5746 
   433.5778   -999.2500     58.4210      6.7111      6.1686      5.6262   -999.2500   -999.2500    130.4449 
   433.7302   -999.2500     55.3646      6.7027      6.2018      5.5765   -999.2500   -999.2500    130.4355 
   433.8826   -999.2500     52.1558      6.7018      6.2297      5.5009   -999.2500   -999.2500    130.7792 
   434.0350   -999.2500     48.0219      6.7116      6.2447      5.4209   -999.2500   -999.2500    131.0868 
   434.1874   -999.2500     44.7532      6.7255      6.2462      5.3877   -999.2500   -999.2500    131.0318 
   434.3398   -999.2500     43.5370      6.7360      6.2391      5.3805   -999.2500   -999.2500    130.7336 
   434.4922   -999.2500     43.1156      6.7455      6.2198      5.4839   -999.2500   -999.2500    130.4581 
   434.6446   -999.2500     43.2265      6.7464      6.1799      5.5707   -999.2500   -999.2500    130.3456 
   434.7970   -999.2500     43.9647      6.7349      6.1205      5.6424   -999.2500   -999.2500    130.5220 
   434.9494   -999.2500     45.4091      6.7413      6.0520      5.7464   -999.2500   -999.2500    130.7192 
   435.1018   -999.2500     47.6584      6.8018      6.0304      5.8117   -999.2500   -999.2500    131.1036 
   435.2542   -999.2500     50.3350      6.9529      6.0829      5.8084   -999.2500   -999.2500    131.4034 
   435.4066   -999.2500     51.3049      7.2248      6.2480      5.8199   -999.2500   -999.2500    131.4840 
   435.5590   -999.2500     50.7466      7.6051      6.5618      5.8624   -999.2500   -999.2500    131.6062 
   435.7114   -999.2500     49.5863      8.0145      7.0579      6.3068   -999.2500   -999.2500    131.5831 
   435.8638   -999.2500     49.0611      8.3862      7.8685     10.1780   -999.2500   -999.2500    131.8046 
   436.0162   -999.2500     48.7946      8.6963      8.7294     11.6799   -999.2500   -999.2500    131.9960 
   436.1686   -999.2500     48.0714      8.9668      9.2100     11.9968   -999.2500   -999.2500    131.9061 
   436.3210   -999.2500     46.8780      9.2291      9.2619     12.2300   -999.2500   -999.2500    132.0994 
   436.4734   -999.2500     46.7884      9.4162      9.1028     12.0709   -999.2500   -999.2500    132.1919 
   436.6258   -999.2500     47.7990      9.3079      8.8936      8.6229   -999.2500   -999.2500    132.1466 
   436.7782   -999.2500     48.6846      8.8087      8.5451      8.1655   -999.2500   -999.2500    131.7748 
   436.9306   -999.2500     50.2056      8.0690      7.8277      8.0115   -999.2500   -999.2500    131.3674 
   437.0830   -999.2500     53.7791      7.3237      6.7840      7.4907   -999.2500   -999.2500    130.9331 
   437.2354   -999.2500     59.0027      6.6627      6.0511      6.9461   -999.2500   -999.2500    131.0477 
   437.3878   -999.2500     63.8359      6.2047      5.5044      6.3132   -999.2500   -999.2500    131.2713 
   437.5402   -999.2500     66.9465      5.8644      5.1331      5.1021   -999.2500   -999.2500    131.1905 
   437.6926   -999.2500     67.1481      5.5953      4.9117      4.7556   -999.2500   -999.2500    130.8985 
   437.8450   -999.2500     66.5125      5.3992      4.7997      4.7778   -999.2500   -999.2500    130.1964 
   437.9974   -999.2500     66.5512      5.2814      4.7603      4.7552   -999.2500   -999.2500    129.9276 
   438.1498   -999.2500     67.5609      5.2219      4.7460      4.7884   -999.2500   -999.2500    129.9601 
   438.3022   -999.2500     67.9358      5.1885      4.7459      4.8142   -999.2500   -999.2500    130.0591 
   438.4546   -999.2500     68.6105      5.1570      4.7483      4.8060   -999.2500   -999.2500    130.3119 
   438.6070   -999.2500     69.7726      5.1371      4.7415      4.8301   -999.2500   -999.2500    130.6689 
   438.7594   -999.2500     72.3167      5.1392      4.7003      4.7859   -999.2500   -999.2500    130.8230 
   438.9118   -999.2500     75.0392      5.1576      4.6535      4.6796   -999.2500   -999.2500    130.8329 
   439.0642   -999.2500     75.8251      5.1699      4.6186      4.5675   -999.2500   -999.2500    130.9243 
   439.2166   -999.2500     74.6675      5.1708      4.6178      4.6836   -999.2500   -999.2500    130.9441 
   439.3690   -999.2500     71.6049      5.1734      4.6418      4.6624   -999.2500   -999.2500    131.0540 
   439.5214   -999.2500     67.8252      5.1877      4.6807      4.6400   -999.2500   -999.2500    131.2234 
   439.6738   -999.2500     64.3883      5.2148      4.7155      4.6781   -999.2500   -999.2500    131.2891 
   439.8262   -999.2500     63.8142      5.2472      4.7578      4.8503   -999.2500   -999.2500    131.1905 
   439.9786   -999.2500     65.1257      5.2706      4.8290      4.7860   -999.2500   -999.2500    130.9782 
   440.1310   -999.2500     66.6598      5.2779      4.8663      4.7471   -999.2500   -999.2500    130.5051 
   440.2834   -999.2500     66.3491      5.2700      4.8176      4.8059   -999.2500   -999.2500    130.1661 
   440.4358   -999.2500     65.2360      5.2503      4.7510      4.8196   -999.2500   -999.2500    130.0539 
   440.5882   -999.2500     64.2310      5.2215      4.7130      4.6625   -999.2500   -999.2500    130.1547 
   440.7406   -999.2500     65.4889      5.1943      4.7113      4.5594   -999.2500   -999.2500    129.9973 
   440.8930   -999.2500     68.4309      5.1833      4.7045      4.5544   -999.2500   -999.2500    129.4909 
   441.0454   -999.2500     70.9816      5.1884      4.6820      4.5422   -999.2500   -999.2500    129.3605 
   441.1978   -999.2500     72.6190      5.1906      4.6498      4.5646   -999.2500   -999.2500    129.4209 
   441.3502   -999.2500     74.3321      5.1717      4.6349      4.5955   -999.2500   -999.2500    129.6884 
