~Version
VERS.           2.0   :CWLS Log ASCII Standard - VERSION 2.0
WRAP.           NO   :One line per index step
~Well
#  MNEM.UNIT                             DATA:  DESCRIPTION      
#-----------             ---------------------  -----------------
STRT  .M        148.2850                     : START INDEX
STOP  .M        995.9338                     : STOP INDEX
STEP  .M          0.1524                     : STEP
NULL  .       -999.25                        : NULL VALUE
COMP  .                                      : COMPANY
WELL  .       AD-3                           : WELL
FLD   .       AD                             : FIELD
LOC   .                                      : LOCATION
PROV  .                                      : PROVINCE
CNTY  .                                      : COUNTY
STAT  .                                      : STATE
CTRY  .                                      : COUNTRY
SRVC  .                                      : SERVICE COMPANY
API   .                                      : API NUMBER
UWI   .       AD-3		                     : UNIQUE WELL ID
LATI  .DEG                                   : LATITUDE
LONG  .DEG                                   : LONGITUDE
~Curve
#  MNEM.UNIT                        LOG CODES:  CURVE DESCRIPTION
#-----------             ---------------------  -----------------
DEPT  .M                                     : Depth Index
CALI  .IN                                    : 
GR    .GAPI                                  : 
ILD   .ohmm                                  : 
ILM   .ohmm                                  : 
LL3   .ohmm                                  : 
NPHI  .M3M3                                  : 
RHOB  .G/C3                                  : 
SP    .MV                                    : 
#
#----------------------------------------------------------------------------------------------------------
# DEPT        CALI        GR          ILD         ILM         LL3         NPHI        RHOB        SP          
# 
~Ascii
# ...
   644.4994   -999.2500     93.4465      1.4806      1.4145      1.9276   -999.2500   -999.2500    125.5097 
   644.6518   -999.2500     93.8192      1.4545      1.3947      1.9146   -999.2500   -999.2500    125.8503 
   644.8042   -999.2500     95.2732      1.4281      1.3724      1.9019   -999.2500   -999.2500    126.0151 
   644.9566   -999.2500     93.7333      1.4031      1.3483      1.8911   -999.2500   -999.2500    126.1939 
   645.1090   -999.2500     91.3688      1.3827      1.3264      1.8744   -999.2500   -999.2500    126.3808 
   645.2614   -999.2500     89.2837      1.3685      1.3112      1.8571   -999.2500   -999.2500    126.3371 
   645.4138   -999.2500     90.0642      1.3607      1.3040      1.8325   -999.2500   -999.2500    126.3127 
   645.5662   -999.2500     92.3300      1.3604      1.3052      1.8376   -999.2500   -999.2500    126.4091 
   645.7186   -999.2500     96.1803      1.3730      1.3152      1.8278   -999.2500   -999.2500    126.4347 
   645.8710   -999.2500     96.9713      1.4036      1.3388      1.8750   -999.2500   -999.2500    126.1018 
   646.0234   -999.2500     95.9958      1.4568      1.3817      1.8920   -999.2500   -999.2500    125.8819 
   646.1758   -999.2500     93.9354      1.5339      1.4493      1.9421   -999.2500   -999.2500    125.6108 
   646.3282   -999.2500     94.6684      1.6321      1.5454      1.9821   -999.2500   -999.2500    125.3162 
   646.4806   -999.2500     94.3767      1.7429      1.6689      2.0944   -999.2500   -999.2500    125.2433 
   646.6330   -999.2500     95.3785      1.8538      1.8081      2.2444   -999.2500   -999.2500    125.3406 
   646.7854   -999.2500     94.5060      1.9485      1.9348      2.4451   -999.2500   -999.2500    125.1157 
   646.9378   -999.2500     94.5677      2.0150      2.0177      2.5526   -999.2500   -999.2500    124.7182 
   647.0902   -999.2500     93.4727      2.0455      2.0418      2.5932   -999.2500   -999.2500    124.2594 
   647.2426   -999.2500     93.0890      2.0372      2.0145      2.5768   -999.2500   -999.2500    123.7722 
   647.3950   -999.2500     90.8647      1.9959      1.9541      2.4915   -999.2500   -999.2500    123.2815 
   647.5474   -999.2500     90.2183      1.9384      1.8803      2.3345   -999.2500   -999.2500    123.2880 
   647.6998   -999.2500     89.1502      1.8822      1.8089      2.2157   -999.2500   -999.2500    123.9067 
   647.8522   -999.2500     86.9935      1.8448      1.7545      2.1620   -999.2500   -999.2500    124.6820 
   648.0046   -999.2500     85.0017      1.8169      1.7296      2.1016   -999.2500   -999.2500    125.2078 
   648.1570   -999.2500     81.4567      1.7975      1.7227      2.0642   -999.2500   -999.2500    125.5138 
   648.3094   -999.2500     79.9518      1.7842      1.7252      2.0896   -999.2500   -999.2500    125.7139 
   648.4618   -999.2500     79.8176      1.7763      1.7288      2.1622   -999.2500   -999.2500    125.8379 
   648.6142   -999.2500     80.1052      1.7711      1.7272      2.2206   -999.2500   -999.2500    125.9157 
   648.7666   -999.2500     78.1855      1.7638      1.7181      2.2593   -999.2500   -999.2500    126.2798 
   648.9190   -999.2500     77.5943      1.7508      1.7025      2.2385   -999.2500   -999.2500    126.2452 
   649.0714   -999.2500     75.7078      1.7312      1.6833      2.2049   -999.2500   -999.2500    125.8548 
   649.2238   -999.2500     75.5367      1.7056      1.6620      2.1353   -999.2500   -999.2500    125.7335 
   649.3762   -999.2500     76.8347      1.6767      1.6320      2.0754   -999.2500   -999.2500    125.5667 
   649.5286   -999.2500     78.6067      1.6478      1.6001      2.0277   -999.2500   -999.2500    125.4640 
   649.6810   -999.2500     80.1359      1.6209      1.5670      2.0095   -999.2500   -999.2500    125.4529 
   649.8334   -999.2500     83.6145      1.5971      1.5333      1.9797   -999.2500   -999.2500    125.6221 
   649.9858   -999.2500     85.9963      1.5764      1.5017      1.9586   -999.2500   -999.2500    125.5472 
   650.1382   -999.2500     87.7263      1.5577      1.4757      1.9271   -999.2500   -999.2500    125.2720 
   650.2906   -999.2500     86.7597      1.5381      1.4571      1.9431   -999.2500   -999.2500    125.0611 
   650.4430   -999.2500     86.5160      1.5152      1.4468      1.9237   -999.2500   -999.2500    124.9543 
   650.5954   -999.2500     84.3368      1.4882      1.4345      1.9207   -999.2500   -999.2500    124.7777 
   650.7478   -999.2500     84.3266      1.4579      1.4153      1.9428   -999.2500   -999.2500    124.8731 
   650.9002   -999.2500     83.4072      1.4255      1.3875      1.9657   -999.2500   -999.2500    125.0439 
   651.0526   -999.2500     82.0002      1.3931      1.3528      1.9394   -999.2500   -999.2500    125.0536 
   651.2050   -999.2500     79.2559      1.3602      1.3149      1.9013   -999.2500   -999.2500    124.9663 
   651.3574   -999.2500     79.7843      1.3264      1.2778      1.8643   -999.2500   -999.2500    125.0072 
   651.5098   -999.2500     80.5827      1.2919      1.2438      1.7989   -999.2500   -999.2500    125.1049 
   651.6622   -999.2500     82.5768      1.2582      1.2134      1.7617   -999.2500   -999.2500    125.1589 
   651.8146   -999.2500     83.3599      1.2270      1.1833      1.7176   -999.2500   -999.2500    125.3332 
   651.9670   -999.2500     82.1787      1.2001      1.1579      1.7021   -999.2500   -999.2500    125.4343 
   652.1194   -999.2500     81.7652      1.1780      1.1378      1.6991   -999.2500   -999.2500    125.2496 
   652.2718   -999.2500     82.0582      1.1605      1.1230      1.6909   -999.2500   -999.2500    125.1624 
   652.4242   -999.2500     82.3326      1.1472      1.1120      1.6940   -999.2500   -999.2500    125.0336 
   652.5766   -999.2500     83.6702      1.1373      1.1032      1.7123   -999.2500   -999.2500    124.8731 
   652.7290   -999.2500     83.4903      1.1305      1.0954      1.7425   -999.2500   -999.2500    125.0125 
   652.8814   -999.2500     80.0200      1.1272      1.0885      1.7399   -999.2500   -999.2500    124.9847 
   653.0338   -999.2500     77.2071      1.1280      1.0849      1.7343   -999.2500   -999.2500    124.6779 
   653.1862   -999.2500     76.8067      1.1322      1.0860      1.7052   -999.2500   -999.2500    124.5733 
   653.3386   -999.2500     77.4666      1.1386      1.0926      1.7036   -999.2500   -999.2500    124.6779 
   653.4910   -999.2500     80.2840      1.1466      1.1033      1.7112   -999.2500   -999.2500    124.7459 
   653.6434   -999.2500     82.3295      1.1562      1.1157      1.7181   -999.2500   -999.2500    125.0211 
   653.7958   -999.2500     83.3267      1.1679      1.1284      1.7291   -999.2500   -999.2500    125.2252 
   653.9482   -999.2500     83.5376      1.1834      1.1412      1.7404   -999.2500   -999.2500    125.3454 
   654.1006   -999.2500     85.4256      1.2007      1.1549      1.7498   -999.2500   -999.2500    125.4404 
   654.2530   -999.2500     86.4513      1.2164      1.1700      1.7689   -999.2500   -999.2500    125.5275 
   654.4054   -999.2500     86.6632      1.2274      1.1871      1.7835   -999.2500   -999.2500    125.5540 
   654.5578   -999.2500     85.1987      1.2327      1.1950      1.8170   -999.2500   -999.2500    125.5563 
   654.7102   -999.2500     84.8667      1.2338      1.1913      1.8242   -999.2500   -999.2500    125.5563 
   654.8626   -999.2500     83.6124      1.2339      1.1806      1.8136   -999.2500   -999.2500    125.4634 
   655.0150   -999.2500     81.6313      1.2362      1.1712      1.7616   -999.2500   -999.2500    125.2384 
   655.1674   -999.2500     79.7073      1.2417      1.1707      1.7245   -999.2500   -999.2500    125.0175 
   655.3198   -999.2500     77.4473      1.2506      1.1837      1.6952   -999.2500   -999.2500    124.8859 
   655.4722   -999.2500     76.2912      1.2619      1.2046      1.6909   -999.2500   -999.2500    124.7511 
   655.6246   -999.2500     77.5822      1.2739      1.2295      1.7226   -999.2500   -999.2500    124.6715 
