~Version
VERS.           2.0   :CWLS Log ASCII Standard - VERSION 2.0
WRAP.           NO   :One line per index step
~Well
#  MNEM.UNIT                             DATA:  DESCRIPTION      
#-----------             ---------------------  -----------------
STRT  .M        131.9780                     : START INDEX
STOP  .M       1012.2404                     : STOP INDEX
STEP  .M          0.1524                     : STEP
NULL  .       -999.25                        : NULL VALUE
COMP  .                                      : COMPANY
WELL  .       AB-1                           : WELL
FLD   .       AB                       : FIELD
LOC   .                                      : LOCATION
PROV  .                                      : PROVINCE
CNTY  .                                      : COUNTY
STAT  .                                      : STATE
CTRY  .                                      : COUNTRY
SRVC  .                                      : SERVICE COMPANY
API   .                                      : API NUMBER
UWI   .       AB-1		                     : UNIQUE WELL ID
LATI  .DEG                                   : LATITUDE
LONG  .DEG                                   : LONGITUDE
~Curve
#  MNEM.UNIT                        LOG CODES:  CURVE DESCRIPTION
#-----------             ---------------------  -----------------
DEPT  .M                                     : Depth Index
CALI  .IN                                    : 
GR    .GAPI                                  : 
ILD   .ohmm                                  : 
ILM   .ohmm                                  : 
NPHI  .M3M3                                  : 
RHOB  .G/C3                                  : 
SP    .MV                                    : 
LL3   .ohmm                                  : 
#
#----------------------------------------------------------------------------------------------------------------------------
# DEPT          CALI          GR            ILD           ILM           NPHI          RHOB          SP            LL3           
# 
~Ascii
# ...
   832.865656        9.0700       48.5000        2.0415        1.9493        0.5994        2.0670       79.8526        4.2170 
   833.018080        9.0800       46.5000        1.8004        1.7250        0.5923        2.0900       80.0584        3.6560 
   833.170404        8.8000       45.0000        1.5999        1.5403        0.5709        2.1180       80.4120        2.9923 
   833.322828        8.8000       46.8000        1.4437        1.3916        0.5651        2.1300       80.6532        2.6792 
   833.475252        8.9800       50.6000        1.3329        1.2786        0.5876        2.1230       80.7000        2.6424 
   833.627676        9.2500       53.1000        1.2611        1.2040        0.6183        2.1120       80.5390        2.5882 
   833.780000        8.7900       52.8000        1.2198        1.1611        0.6258        2.1100       80.0766        2.5119 
   833.932424        8.7500       51.2000        1.2040        1.1503        0.5994        2.1170       79.4213        2.3768 
   834.084848        8.7600       50.9000        1.2115        1.1625        0.5618        2.1240       78.6113        2.3067 
   834.237272        8.9200       52.2000        1.2452        1.1981        0.5439        2.1220       78.0911        2.2856 
   834.389696        8.9000       53.0000        1.3074        1.2580        0.5545        2.1090       77.9453        2.3227 
   834.542020        8.9100       51.8000        1.4043        1.3457        0.5761        2.0890       77.7353        2.4210 
   834.694444        8.7300       49.2000        1.5376        1.4657        0.5880        2.0670       77.6000        2.5293 
   834.846868        8.7200       46.3000        1.7090        1.6227        0.5890        2.0630       77.9318        2.6424 
   834.999292        8.6200       43.6000        1.9109        1.8221        0.5866        2.0950       78.5330        2.8249 
   835.151616        8.6400       42.4000        2.1299        2.0606        0.5819        2.1470       79.1343        3.1842 
   835.304040        8.8200       44.7000        2.3556        2.3770        0.5814        2.1760       79.4559        3.6224 
   835.456464        9.2200       48.2000        2.5713        2.6361        0.5975        2.1630       79.3877        3.9995 
   835.608888        9.9200       49.2000        2.7686        2.8039        0.6197        2.1360       79.2436        4.1495 
   835.761212       10.0800       48.6000        2.9281        2.9039        0.6202        2.1230       79.2000        4.1305 
   835.913636        9.4900       50.2000        3.0295        2.9749        0.5918        2.1230       79.2568        3.9446 
   836.066060        9.2600       54.1000        3.0606        3.0162        0.5589        2.1180       79.0719        3.6983 
   836.218484        9.2100       55.8000        3.0329        3.0090        0.5449        2.0970       78.6712        3.6392 
   836.370808        9.3100       54.2000        2.9923        2.9646        0.5526        2.0720       78.4426        3.7154 
   836.523232        9.4700       52.6000        2.9588        2.9177        0.5680        2.0540       78.3424        3.8107 
   836.675656        8.8200       53.7000        2.9580        2.8845        0.5752        2.0420       78.1844        3.8815 
   836.828080        8.7100       56.2000        2.9707        2.8708        0.5704        2.0310       78.2160        3.8459 
   836.980404        8.6400       57.0000        3.0027        2.8799        0.5666        2.0280       78.6493        3.6983 
   837.132828        8.6200       55.9000        3.0428        2.9178        0.5723        2.0440       79.1921        3.6224 
   837.285252        8.6700       54.5000        3.1024        2.9964        0.5874        2.0780       79.3413        3.6224 
   837.437676        8.7000       54.6000        3.1840        3.1191        0.6044        2.1160       79.6532        3.6392 
   837.590000        8.8100       55.5000        3.2894        3.2846        0.6157        2.1450       80.1364        3.7154 
   837.742424        9.0500       55.3000        3.4145        3.4801        0.6129        2.1680       80.1814        3.8283 
   837.894848        9.1600       53.9000        3.5536        3.6787        0.5988        2.1900       79.8024        4.0365 
   838.047272        9.2000       53.0000        3.6941        3.8502        0.5840        2.2120       79.1820        4.2954 
   838.199696        9.1900       53.8000        3.8002        3.9680        0.5759        2.2290       78.3010        4.4771 
   838.352020        9.0900       55.1000        3.8222        3.9925        0.5735        2.2390       77.4188        4.6238 
   838.504444        8.8100       56.0000        3.7063        3.8842        0.5702        2.2330       77.8238        4.7315 
   838.656868        8.8700       57.3000        3.4440        3.5936        0.5587        2.2030       79.3892        4.7315 
   838.809292        8.7900       59.8000        3.0812        3.1978        0.5364        2.1490       80.1000        4.6452 
   838.961616        8.7700       61.9000        2.6964        2.7619        0.5145        2.0820       79.6734        4.5186 
   839.114040        8.7700       61.3000        2.3431        2.3522        0.5145        2.0190       78.6661        4.2756 
   839.266464        8.7700       58.1000        2.0433        2.0059        0.5447        1.9710       78.2000        3.8815 
   839.418888        8.7600       53.9000        1.7976        1.7367        0.5864        1.9470       79.3700        3.4198 
   839.571212        8.6900       51.0000        1.5937        1.5395        0.6115        1.9440       80.4708        2.9512 
   839.723636        8.8000       51.6000        1.4166        1.3969        0.6073        1.9500       80.8240        2.6242 
   839.876060        8.8100       55.0000        1.2588        1.2867        0.5840        1.9540       80.9622        2.4774 
   840.028484        8.7900       58.5000        1.1239        1.1864        0.5596        1.9590       81.0000        2.4378 
   840.180808        8.6600       62.5000        1.0167        1.0743        0.5442        1.9780       81.0000        2.4378 
   840.333232        8.0700       69.4000        0.9412        0.9697        0.5398        2.0090       80.9371        2.4210 
   840.485656        7.9500       79.4000        0.8959        0.8879        0.5442        2.0430       80.7109        2.3227 
   840.638080        7.9500       89.8000        0.8738        0.8371        0.5510        2.0810       80.6632        2.1429 
   840.790404        8.0100      101.0000        0.8681        0.8205        0.5529        2.1310       80.8903        2.0137 
   840.942828        8.4700      115.6000        0.8731        0.8370        0.5505        2.1860       81.1273        1.9770 
   841.095252        8.6000      129.6000        0.8840        0.8772        0.5534        2.2220       81.1361        2.0845 
   841.247676        8.6000      135.4000        0.9069        0.9283        0.5654        2.2190       81.1640        2.2336 
   841.400000        8.6000      130.2000        0.9436        0.9715        0.5750        2.1830       81.0714        2.3768 
   841.552424        8.5700      118.2000        0.9975        1.0103        0.5721        2.1400       80.5483        2.4774 
   841.704848        8.5200      105.8000        1.0626        1.0491        0.5644        2.1150       79.3938        2.5293 
   841.857272        8.3400       96.3000        1.1324        1.0879        0.5587        2.1100       78.3160        2.4946 
   842.009696        8.3300       91.3000        1.1931        1.1247        0.5548        2.1200       78.6515        2.4604 
   842.162020        8.3300       91.1000        1.2385        1.1597        0.5582        2.1440       79.3266        2.4044 
   842.314444        8.3300       94.1000        1.2725        1.1905        0.5687        2.1750       79.5000        2.4044 
