~Version
VERS.           2.0   :CWLS Log ASCII Standard - VERSION 2.0
WRAP.           NO   :One line per index step
~Well
#  MNEM.UNIT                             DATA:  DESCRIPTION      
#-----------             ---------------------  -----------------
STRT  .M        148.2850                     : START INDEX
STOP  .M        995.9338                     : STOP INDEX
STEP  .M          0.1524                     : STEP
NULL  .       -999.25                        : NULL VALUE
COMP  .                                      : COMPANY
WELL  .       AD-3                           : WELL
FLD   .       AD                             : FIELD
LOC   .                                      : LOCATION
PROV  .                                      : PROVINCE
CNTY  .                                      : COUNTY
STAT  .                                      : STATE
CTRY  .                                      : COUNTRY
SRVC  .                                      : SERVICE COMPANY
API   .                                      : API NUMBER
UWI   .       AD-3		                     : UNIQUE WELL ID
LATI  .DEG                                   : LATITUDE
LONG  .DEG                                   : LONGITUDE
~Curve
#  MNEM.UNIT                        LOG CODES:  CURVE DESCRIPTION
#-----------             ---------------------  -----------------
DEPT  .M                                     : Depth Index
CALI  .IN                                    : 
GR    .GAPI                                  : 
ILD   .ohmm                                  : 
ILM   .ohmm                                  : 
LL3   .ohmm                                  : 
NPHI  .M3M3                                  : 
RHOB  .G/C3                                  : 
SP    .MV                                    : 
#
#----------------------------------------------------------------------------------------------------------
# DEPT        CALI        GR          ILD         ILM         LL3         NPHI        RHOB        SP          
# 
~Ascii
# ...
   700.8874   -999.2500     82.0090      1.0094      1.0003      1.7255   -999.2500   -999.2500    121.7839 
   701.0398   -999.2500     83.4065      1.0075      0.9801      1.9285   -999.2500   -999.2500    121.5220 
   701.1922   -999.2500     85.9075      1.0182      0.9692      2.1117   -999.2500   -999.2500    121.5063 
   701.3446   -999.2500     89.0741      1.0481      0.9758      2.2905   -999.2500   -999.2500    121.7367 
   701.4970   -999.2500     92.7215      1.1013      1.0166      2.4582   -999.2500   -999.2500    122.0265 
   701.6494   -999.2500     94.2587      1.1793      1.1025      2.5344   -999.2500   -999.2500    122.1995 
   701.8018   -999.2500     93.5401      1.2809      1.2384      2.5626   -999.2500   -999.2500    122.5663 
   701.9542   -999.2500     91.6188      1.4054      1.4180      2.5504   -999.2500   -999.2500    122.9932 
   702.1066   -999.2500     89.3626      1.5537      1.6245      2.5172   -999.2500   -999.2500    123.2954 
   702.2590   -999.2500     87.3484      1.7238      1.8358      2.4565   -999.2500   -999.2500    123.5356 
   702.4114   -999.2500     85.0447      1.8996      2.0292      2.3583   -999.2500   -999.2500    123.6734 
   702.5638   -999.2500     83.5062      2.0495      2.1548      2.2247   -999.2500   -999.2500    123.5628 
   702.7162   -999.2500     82.3416      2.1378      2.2141      2.1339   -999.2500   -999.2500    123.2968 
   702.8686   -999.2500     80.8740      2.1493      2.1981      2.0781   -999.2500   -999.2500    122.9323 
   703.0210   -999.2500     79.6121      2.0969      2.1182      1.9946   -999.2500   -999.2500    122.5358 
   703.1734   -999.2500     79.4717      2.0039      2.0010      1.9085   -999.2500   -999.2500    121.8525 
   703.3258   -999.2500     79.0724      1.8873      1.8735      1.8285   -999.2500   -999.2500    121.1470 
   703.4782   -999.2500     81.4804      1.7602      1.7496      1.7589   -999.2500   -999.2500    120.3194 
   703.6306   -999.2500     86.3913      1.6324      1.6304      1.6970   -999.2500   -999.2500    119.6370 
   703.7830   -999.2500     93.2096      1.5391      1.5151      1.6891   -999.2500   -999.2500    119.3528 
   703.9354   -999.2500    100.0380      1.4592      1.4100      1.7210   -999.2500   -999.2500    119.5303 
   704.0878   -999.2500    104.1750      1.3940      1.3249      1.7720   -999.2500   -999.2500    120.0278 
   704.2402   -999.2500    103.3713      1.3425      1.2674      1.7936   -999.2500   -999.2500    120.6191 
   704.3926   -999.2500     96.6892      1.3023      1.2356      1.7847   -999.2500   -999.2500    121.1451 
   704.5450   -999.2500     89.1722      1.2708      1.2210      1.7722   -999.2500   -999.2500    121.8449 
   704.6974   -999.2500     82.3291      1.2465      1.2137      1.7527   -999.2500   -999.2500    122.9451 
   704.8498   -999.2500     79.0390      1.2294      1.2098      1.7770   -999.2500   -999.2500    123.8036 
   705.0022   -999.2500     79.2773      1.2210      1.2100      1.7954   -999.2500   -999.2500    124.1425 
   705.1546   -999.2500     81.6606      1.2223      1.2164      1.8168   -999.2500   -999.2500    124.4208 
   705.3070   -999.2500     81.1157      1.2337      1.2313      1.8324   -999.2500   -999.2500    124.3086 
   705.4594   -999.2500     80.0485      1.2546      1.2557      1.8483   -999.2500   -999.2500    123.9711 
   705.6118   -999.2500     78.8870      1.2831      1.2887      1.8133   -999.2500   -999.2500    123.7356 
   705.7642   -999.2500     80.8712      1.3140      1.3262      1.7803   -999.2500   -999.2500    123.6220 
   705.9166   -999.2500     84.7456      1.3432      1.3621      1.7452   -999.2500   -999.2500    123.5251 
   706.0690   -999.2500     87.8955      1.3688      1.3898      1.7248   -999.2500   -999.2500    123.6659 
   706.2214   -999.2500     90.0761      1.3897      1.4047      1.6992   -999.2500   -999.2500    123.7719 
   706.3738   -999.2500     88.1833      1.4060      1.4041      1.6817   -999.2500   -999.2500    123.4754 
   706.5262   -999.2500     85.9703      1.4186      1.3946      1.6656   -999.2500   -999.2500    123.1563 
   706.6786   -999.2500     83.7587      1.4277      1.3777      1.6669   -999.2500   -999.2500    122.8499 
   706.8310   -999.2500     83.0790      1.4282      1.3553      1.6991   -999.2500   -999.2500    122.5742 
   706.9834   -999.2500     84.7866      1.4175      1.3295      1.7720   -999.2500   -999.2500    122.4485 
   707.1358   -999.2500     91.7003      1.3979      1.3045      1.8494   -999.2500   -999.2500    122.6810 
   707.2882   -999.2500     95.7861      1.3745      1.2841      1.9518   -999.2500   -999.2500    123.0479 
   707.4406   -999.2500     97.5839      1.3549      1.2702      2.0064   -999.2500   -999.2500    123.2607 
   707.5930   -999.2500     95.2485      1.3452      1.2643      1.9995   -999.2500   -999.2500    123.3711 
   707.7454   -999.2500     90.4872      1.3488      1.2673      1.9150   -999.2500   -999.2500    123.5536 
   707.8978   -999.2500     87.4268      1.3661      1.2869      1.8104   -999.2500   -999.2500    123.6647 
   708.0502   -999.2500     84.7625      1.3951      1.3230      1.6787   -999.2500   -999.2500    123.8695 
   708.2026   -999.2500     80.2875      1.4297      1.3725      1.5871   -999.2500   -999.2500    124.2292 
   708.3550   -999.2500     75.7540      1.4612      1.4272      1.5057   -999.2500   -999.2500    124.3507 
   708.5074   -999.2500     73.5288      1.4794      1.4716      1.4772   -999.2500   -999.2500    124.1226 
   708.6598   -999.2500     73.2860      1.4765      1.4851      1.4701   -999.2500   -999.2500    123.9182 
   708.8122   -999.2500     76.9947      1.4517      1.4534      1.4848   -999.2500   -999.2500    123.7222 
   708.9646   -999.2500     81.0839      1.4094      1.3830      1.5029   -999.2500   -999.2500    123.5206 
   709.1170   -999.2500     82.3551      1.3510      1.2945      1.5379   -999.2500   -999.2500    123.3957 
   709.2694   -999.2500     81.2581      1.2865      1.2095      1.5611   -999.2500   -999.2500    123.4957 
   709.4218   -999.2500     78.8598      1.2202      1.1378      1.5944   -999.2500   -999.2500    123.4732 
   709.5742   -999.2500     75.0844      1.1576      1.0819      1.6012   -999.2500   -999.2500    123.2348 
   709.7266   -999.2500     73.8011      1.1047      1.0405      1.6045   -999.2500   -999.2500    123.1914 
   709.8790   -999.2500     74.8030      1.0659      1.0132      1.6148   -999.2500   -999.2500    123.2121 
   710.0314   -999.2500     74.6767      1.0427      0.9983      1.6261   -999.2500   -999.2500    123.3049 
   710.1838   -999.2500     74.4865      1.0333      0.9936      1.5965   -999.2500   -999.2500    123.4714 
   710.3362   -999.2500     74.4468      1.0340      0.9958      1.6089   -999.2500   -999.2500    123.7578 
   710.4886   -999.2500     73.6040      1.0407      1.0013      1.6070   -999.2500   -999.2500    123.7982 
   710.6410   -999.2500     74.6665      1.0501      1.0084      1.6041   -999.2500   -999.2500    123.8922 
   710.7934   -999.2500     76.7669      1.0599      1.0159      1.6084   -999.2500   -999.2500    123.9670 
   710.9458   -999.2500     76.1161      1.0689      1.0229      1.5976   -999.2500   -999.2500    124.0639 
   711.0982   -999.2500     75.2845      1.0755      1.0287      1.5618   -999.2500   -999.2500    123.9974 
   711.2506   -999.2500     74.1282      1.0793      1.0329      1.5393   -999.2500   -999.2500    123.9947 
   711.4030   -999.2500     73.2071      1.0794      1.0354      1.5594   -999.2500   -999.2500    123.9828 
   711.5554   -999.2500     73.0134      1.0759      1.0366      1.5325   -999.2500   -999.2500    124.0897 
   711.7078   -999.2500     75.1420      1.0723      1.0352      1.5224   -999.2500   -999.2500    123.9007 
   711.8602   -999.2500     76.1152      1.0661      1.0312      1.5114   -999.2500   -999.2500    123.8009 
   712.0126   -999.2500     77.4035      1.0475      1.0252      1.4924   -999.2500   -999.2500    123.5094 
