~Version
VERS.           2.0   :CWLS Log ASCII Standard - VERSION 2.0
WRAP.           NO   :One line per index step
~Well
#  MNEM.UNIT                             DATA:  DESCRIPTION      
#-----------             ---------------------  -----------------
STRT  .M        149.0470                     : START INDEX
STOP  .M       1003.7062                     : STOP INDEX
STEP  .M          0.1524                     : STEP
NULL  .       -999.25                        : NULL VALUE
COMP  .                                      : COMPANY
WELL  .       AC-2                           : WELL
FLD   .       AC                             : FIELD
LOC   .                                      : LOCATION
PROV  .                                      : PROVINCE
CNTY  .                                      : COUNTY
STAT  .                                      : STATE
CTRY  .                                      : COUNTRY
SRVC  .                                      : SERVICE COMPANY
API   .                                      : API NUMBER
UWI   .       AC-2		                     : UNIQUE WELL ID
LATI  .DEG                                   : LATITUDE
LONG  .DEG                                   : LONGITUDE
~Curve
#  MNEM.UNIT                        LOG CODES:  CURVE DESCRIPTION
#-----------             ---------------------  -----------------
DEPT  .M                                     : Depth Index
CALI  .IN                                    : 
GR    .GAPI                                  : 
ILD   .ohmm                                  : 
ILM   .ohmm                                  : 
LLG3  .ohmm                                  : 
NPHI  .M3M3                                  : 
RHOB  .G/C3                                  : 
SP    .MV                                    : 
#
#----------------------------------------------------------------------------------------------------------------------------
# DEPT          CALI          GR            ILD           ILM           LLG3          NPHI          RHOB          SP            
# 
~Ascii
# ...
   206.654242     -999.2500      128.2000        5.9114        5.4536        3.5727     -999.2500     -999.2500      107.0000 
   206.806666     -999.2500      131.0000        6.0729        5.5780        3.5892     -999.2500     -999.2500      107.0000 
   206.959090     -999.2500      127.7000        6.2753        5.7649        3.7584     -999.2500     -999.2500      106.6000 
   207.111414     -999.2500      118.4000        6.5128        6.0134        3.7411     -999.2500     -999.2500      106.6000 
   207.263838     -999.2500      107.8000        6.7954        6.3310        4.0179     -999.2500     -999.2500      106.2000 
   207.416262     -999.2500       98.9000        7.1241        6.7890        4.6989     -999.2500     -999.2500      105.6000 
   207.568686     -999.2500       92.0000        7.4817        7.3124        5.1523     -999.2500     -999.2500      105.4000 
   207.721010     -999.2500       87.6000        7.9433        7.7846        5.1523     -999.2500     -999.2500      105.0000 
   207.873434     -999.2500       84.8000        8.4140        8.2676        5.4450     -999.2500     -999.2500      104.8000 
   208.025858     -999.2500       82.6000        8.8920        8.7351        5.5081     -999.2500     -999.2500      104.7000 
   208.178282     -999.2500       80.1000        9.2683        9.0991        5.4200     -999.2500     -999.2500      104.5000 
   208.330606     -999.2500       76.8000        9.5061        9.3067        5.4702     -999.2500     -999.2500      104.0000 
   208.483030     -999.2500       74.2000        9.5720        9.3326        5.4450     -999.2500     -999.2500      103.4000 
   208.635454     -999.2500       74.5000        9.4406        9.2049        5.2120     -999.2500     -999.2500      103.4000 
   208.787878     -999.2500       80.2000        9.1622        8.9212        5.0234     -999.2500     -999.2500      103.4000 
   208.940202     -999.2500       88.9000        8.6601        8.4261        4.7973     -999.2500     -999.2500      104.4000 
   209.092626     -999.2500       95.8000        8.0945        7.8036        4.5604     -999.2500     -999.2500      104.9000 
   209.245050     -999.2500       99.4000        7.5059        7.1089        4.1210     -999.2500     -999.2500      105.9000 
   209.397474     -999.2500      101.2000        6.9361        6.4250        3.5975     -999.2500     -999.2500      106.7000 
   209.549898     -999.2500      103.4000        6.4196        5.7932        3.1623     -999.2500     -999.2500      107.5000 
   209.702222     -999.2500      106.9000        5.9584        5.3022        3.0903     -999.2500     -999.2500      107.3000 
   209.854646     -999.2500      110.5000        5.5591        4.9464        3.1478     -999.2500     -999.2500      107.1000 
   210.007070     -999.2500      111.7000        5.1972        4.6800        3.0339     -999.2500     -999.2500      107.3000 
   210.159494     -999.2500      109.9000        4.9475        4.4879        2.9923     -999.2500     -999.2500      106.8000 
   210.311818     -999.2500      106.6000        4.8084        4.3854        2.9107     -999.2500     -999.2500      107.1000 
   210.464242     -999.2500      104.3000        4.7461        4.3451        2.8054     -999.2500     -999.2500      107.2000 
   210.616666     -999.2500      106.5000        4.7461        4.3451        2.7669     -999.2500     -999.2500      107.4000 
   210.769090     -999.2500      111.2000        4.7973        4.3451        2.9174     -999.2500     -999.2500      107.3000 
   210.921414     -999.2500      115.5000        4.8597        4.3752        2.8774     -999.2500     -999.2500      107.8000 
   211.073838     -999.2500      118.2000        4.9297        4.4361        2.8840     -999.2500     -999.2500      107.8000 
   211.226262     -999.2500      116.9000        5.0075        4.5372        2.8840     -999.2500     -999.2500      108.0000 
   211.378686     -999.2500      113.4000        5.0888        4.6658        2.9377     -999.2500     -999.2500      107.8000 
   211.531010     -999.2500      108.0000        5.1642        4.8090        3.0200     -999.2500     -999.2500      108.0000 
   211.683434     -999.2500      101.8000        5.2313        4.9462        3.1478     -999.2500     -999.2500      107.7000 
   211.835858     -999.2500       97.1000        5.2919        5.0533        3.0690     -999.2500     -999.2500      107.6000 
   211.988282     -999.2500       93.1000        5.3408        5.1168        3.1696     -999.2500     -999.2500      107.9000 
   212.140606     -999.2500       92.5000        5.3753        5.1401        3.1623     -999.2500     -999.2500      108.2000 
   212.293030     -999.2500       95.8000        5.3951        5.1372        3.2659     -999.2500     -999.2500      108.0000 
   212.445454     -999.2500      100.8000        5.3951        5.1252        3.2359     -999.2500     -999.2500      107.9000 
   212.597878     -999.2500      106.2000        5.3827        5.1118        3.1915     -999.2500     -999.2500      108.2000 
   212.750202     -999.2500      110.3000        5.3703        5.0916        3.1915     -999.2500     -999.2500      108.0000 
   212.902626     -999.2500      112.5000        5.3580        5.0566        3.2509     -999.2500     -999.2500      108.7000 
   213.055050     -999.2500      110.8000        5.3580        5.0367        3.1623     -999.2500     -999.2500      108.0000 
   213.207474     -999.2500      106.7000        5.3457        5.0234        3.1842     -999.2500     -999.2500      108.3000 
   213.359898     -999.2500      103.7000        5.3457        5.0337        3.2137     -999.2500     -999.2500      108.0000 
   213.512222     -999.2500      103.8000        5.3334        5.0260        3.2434     -999.2500     -999.2500      109.2000 
   213.664646     -999.2500      108.2000        5.3089        5.0080        3.2961     -999.2500     -999.2500      108.3000 
   213.817070     -999.2500      114.0000        5.2845        4.9749        3.2509     -999.2500     -999.2500      108.4000 
   213.969494     -999.2500      118.0000        5.2481        4.9343        3.2285     -999.2500     -999.2500      108.0000 
   214.121818     -999.2500      115.8000        5.2000        4.8866        3.1333     -999.2500     -999.2500      107.9000 
   214.274242     -999.2500      109.9000        5.1405        4.8269        3.0903     -999.2500     -999.2500      107.9000 
   214.426666     -999.2500      107.5000        5.0699        4.7656        3.0269     -999.2500     -999.2500      108.0000 
   214.579090     -999.2500      108.2000        4.9889        4.6881        3.0200     -999.2500     -999.2500      107.7000 
   214.731414     -999.2500      108.2000        4.9317        4.5891        3.0339     -999.2500     -999.2500      107.7000 
   214.883838     -999.2500      105.1000        4.8753        4.4876        2.9174     -999.2500     -999.2500      107.5000 
   215.036262     -999.2500      102.4000        4.8306        4.4187        2.9309     -999.2500     -999.2500      107.5000 
   215.188686     -999.2500      102.8000        4.7863        4.3839        2.8184     -999.2500     -999.2500      107.5000 
   215.341010     -999.2500      104.0000        4.7643        4.3680        2.8708     -999.2500     -999.2500      107.8000 
   215.493434     -999.2500      103.9000        4.7534        4.3652        2.9040     -999.2500     -999.2500      107.6000 
   215.645858     -999.2500      103.2000        4.7643        4.3752        2.8445     -999.2500     -999.2500      107.9000 
   215.798282     -999.2500      102.3000        4.7863        4.3899        2.8973     -999.2500     -999.2500      107.7000 
   215.950606     -999.2500      101.2000        4.8306        4.4139        2.8973     -999.2500     -999.2500      107.5000 
   216.103030     -999.2500      101.3000        4.8865        4.4492        2.8907     -999.2500     -999.2500      107.3000 
