~Version
VERS.           2.0   :CWLS Log ASCII Standard - VERSION 2.0
WRAP.           NO   :One line per index step
~Well
#  MNEM.UNIT                             DATA:  DESCRIPTION      
#-----------             ---------------------  -----------------
STRT  .M        148.2850                     : START INDEX
STOP  .M        995.9338                     : STOP INDEX
STEP  .M          0.1524                     : STEP
NULL  .       -999.25                        : NULL VALUE
COMP  .                                      : COMPANY
WELL  .       AD-3                           : WELL
FLD   .       AD                             : FIELD
LOC   .                                      : LOCATION
PROV  .                                      : PROVINCE
CNTY  .                                      : COUNTY
STAT  .                                      : STATE
CTRY  .                                      : COUNTRY
SRVC  .                                      : SERVICE COMPANY
API   .                                      : API NUMBER
UWI   .       AD-3		                     : UNIQUE WELL ID
LATI  .DEG                                   : LATITUDE
LONG  .DEG                                   : LONGITUDE
~Curve
#  MNEM.UNIT                        LOG CODES:  CURVE DESCRIPTION
#-----------             ---------------------  -----------------
DEPT  .M                                     : Depth Index
CALI  .IN                                    : 
GR    .GAPI                                  : 
ILD   .ohmm                                  : 
ILM   .ohmm                                  : 
LL3   .ohmm                                  : 
NPHI  .M3M3                                  : 
RHOB  .G/C3                                  : 
SP    .MV                                    : 
#
#----------------------------------------------------------------------------------------------------------
# DEPT        CALI        GR          ILD         ILM         LL3         NPHI        RHOB        SP          
# 
~Ascii
# ...
   813.6634      9.2142     50.4402      4.5723      4.5350      3.9345      0.7049      2.2705    107.2239 
   813.8158      9.1402     51.7322      4.5663      4.5773      3.7046      0.6910      2.2563    107.1898 
   813.9682      9.1326     54.1836      4.4739      4.5008      3.5314      0.6686      2.2392    107.3051 
   814.1206      9.2114     57.3551      4.3190      4.3203      3.3974      0.6492      2.2247    107.3051 
   814.2730      9.3124     59.9316      4.1289      4.0816      3.2807      0.6380      2.2188    107.3051 
   814.4254      9.4199     60.7971      3.9244      3.8338      3.1925      0.6332      2.2216    107.3427 
   814.5778      9.5436     59.9086      3.7195      3.5942      3.1284      0.6321      2.2300    107.4719 
   814.7302      9.6612     58.0611      3.5230      3.3969      3.0341      0.6346      2.2383    107.6265 
   814.8826      9.7554     56.6983      3.3429      3.2326      2.9232      0.6410      2.2432    107.9012 
   815.0350      9.8283     57.1003      3.1831      3.0884      2.8220      0.6500      2.2425    108.4367 
   815.1874      9.8755     57.5153      3.0483      2.9547      2.7285      0.6572      2.2381    108.8648 
   815.3398      9.8662     59.4617      2.9386      2.8324      2.6781      0.6580      2.2320    109.1890 
   815.4922      9.7480     60.5132      2.8479      2.7297      2.6759      0.6528      2.2263    109.4695 
   815.6446      9.5514     61.7823      2.7699      2.6548      2.6697      0.6465      2.2215    109.5744 
   815.7970      9.3731     61.4605      2.7013      2.6027      2.6809      0.6433      2.2147    109.6311 
   815.9494      9.2367     62.1119      2.6440      2.5642      2.6879      0.6432      2.2039    109.7026 
   816.1018      9.1535     61.8781      2.6042      2.5301      2.6625      0.6429      2.1920    109.7643 
   816.2542      9.1777     62.5276      2.5869      2.4958      2.6292      0.6378      2.1829    109.5491 
   816.4066      9.2711     62.2897      2.5893      2.4585      2.5828      0.6261      2.1802    109.3080 
   816.5590      9.3499     62.2290      2.6045      2.4153      2.4957      0.6112      2.1847    109.2861 
   816.7114      9.3927     61.5001      2.6213      2.3711      2.4043      0.5999      2.1918    109.3476 
   816.8638      9.4174     60.9112      2.6381      2.3231      2.3529      0.5981      2.1961    109.3582 
   817.0162      9.4242     60.7583      2.6508      2.2752      2.2830      0.6051      2.1927    109.5675 
   817.1686      9.4186     60.3648      2.6551      2.2300      2.2294      0.6159      2.1816    110.0313 
   817.3210      9.4053     60.6333      2.6462      2.1859      2.1887      0.6263      2.1673    110.3583 
   817.4734      9.3785     60.9454      2.6103      2.1403      2.1614      0.6355      2.1561    110.5079 
   817.6258      9.3641     60.6203      2.5484      2.0885      2.1005      0.6456      2.1495    110.5228 
   817.7782      9.4041     60.1796      2.4547      2.0182      2.0313      0.6586      2.1448    110.4138 
   817.9306      9.4812     65.2053      2.3226      1.9489      1.9565      0.6726      2.1352    110.1111 
   818.0830      9.4784     74.1531      2.1442      1.8648      1.8445      0.6854      2.1170    110.2088 
   818.2354      9.4013     87.1004      1.8517      1.7514      1.6675      0.6949      2.0925    110.6770 
   818.3878      9.3274     95.5804      1.5188      1.6045      1.4947      0.7008      2.0686    111.2936 
   818.5402      9.2249     95.3467      1.1970      1.4409      1.3539      0.7036      2.0521    111.7627 
   818.6926      9.1193     87.0992      0.9262      1.0423      1.2342      0.7022      2.0462    112.1903 
   818.8450      9.1440     77.9781      0.7149      0.7188      1.1457      0.6941      2.0477    112.5955 
   818.9974      9.2905     70.4688      0.5521      0.5012      1.0945      0.6810      2.0515    112.7493 
   819.1498      9.4123     68.8544      0.4286      0.3757      1.0647      0.6673      2.0556    113.0914 
   819.3022      9.4886     68.7052      0.3370      0.3045      1.0333      0.6582      2.0607    113.2388 
   819.4546      9.5038     68.4010      0.2723      0.2689      1.0088      0.6562      2.0648    113.2236 
   819.6070      9.4471     66.0756      0.2309      0.2602      1.0669      0.6579      2.0556    112.9619 
   819.7594      9.3703     61.5558      0.2093      0.2741      1.2704      0.6561      2.0225    112.2617 
   819.9118      9.3278     54.5161      0.2043      0.3181      1.4909      0.6454      1.9703    110.8092 
   820.0642      9.3151     47.1801      0.2141      0.4199      1.7057      0.6250      1.9228    108.4322 
   820.2166      9.3228     41.6539      0.2392      0.6017      1.9583      0.6010      1.9099    105.8382 
   820.3690      9.2966     39.6768      0.2824      0.8724      2.1469      0.5770      1.9476    104.0568 
   820.5214      9.2923     39.9327      0.3489      1.2258      2.1975      0.5503      2.0162    103.3268 
   820.6738      9.3804     42.3054      0.4479      1.5592      2.1790      0.5242      2.0837    103.7315 
   820.8262      9.4560     44.1876      0.5941      1.7321      2.1385      0.5048      2.1269    105.8023 
   820.9786      9.4681     44.7101      0.8059      1.7175      2.0453      0.4980      2.1424    108.6835 
   821.1310      9.5113     45.1928      1.0944      1.6271      1.9473      0.4989      2.1411    111.9880 
   821.2834      9.5141     45.3452      1.4389      1.5402      1.8598      0.4997      2.1390    114.4438 
   821.4358      9.4067     45.1401      1.7608      1.4857      1.8175      0.4998      2.1378    115.6881 
   821.5882      9.3491     45.5978      1.9649      1.4859      1.7903      0.5034      2.1335    116.5066 
   821.7406      9.4043     45.7934      2.0269      1.5489      1.7811      0.5123      2.1227    116.7807 
   821.8930      9.5794     47.0156      1.9915      1.6747      1.7611      0.5257      2.1098    116.8767 
   822.0454      9.8663     49.0766      1.9150      1.8044      1.7756      0.5420      2.1040    116.9490 
   822.1978     10.1672     50.6070      1.8375      1.8491      1.8621      0.5591      2.1135    116.8566 
   822.3502     10.3861     50.2534      1.7784      1.7800      2.3314      0.5737      2.1378    116.6250 
   822.5026     10.4577     47.3657      1.7430      1.6423      2.7179      0.5813      2.1627    115.7520 
   822.6550     10.3415     41.1658      1.7296      1.5129      2.8652      0.5776      2.1722    113.5733 
   822.8074     10.0618     37.2720      1.7296      1.4202      2.9464      0.5600      2.1653    109.9959 
   822.9598      9.7204     35.9818      1.7317      1.3845      2.9586      0.5297      2.1510    104.5722 
   823.1122      9.3887     37.8257      1.7279      1.3644      2.5117      0.4930      2.1440     99.4553 
   823.2646      9.1444     39.6786      1.7168      1.3511      2.1024      0.4592      2.1534     98.3851 
   823.4170      8.9798     39.7623      1.7021      1.3400      1.9583      0.4356      2.1737    100.8458 
   823.5694      8.8672     37.7823      1.6882      1.3313      1.8643      0.4259      2.1881    105.1991 
   823.7218      8.7938     37.0524      1.6723      1.3269      1.7662      0.4322      2.1844    110.6235 
   823.8742      8.7518     37.6704      1.6461      1.3270      1.7351      0.4534      2.1608    114.2103 
   824.0266      8.7445     39.6524      1.6058      1.3297      1.7285      0.4855      2.1294    115.3488 
   824.1790      8.7526     42.3461      1.5542      1.3336      1.7040      0.5224      2.1063    115.7014 
   824.3314      8.7634     44.0694      1.4976      1.3382      1.6638      0.5562      2.1005    115.8531 
   824.4838      8.7791     44.4336      1.4445      1.3435      1.6393      0.5809      2.1116    116.0647 
   824.6362      8.7754     44.3929      1.4035      1.3494      1.6411      0.5945      2.1343    116.2815 
   824.7886      8.7482     44.2156      1.3784      1.3551      1.6627      0.6000      2.1617    116.4876 
