~Version
VERS.           2.0   :CWLS Log ASCII Standard - VERSION 2.0
WRAP.           NO   :One line per index step
~Well
#  MNEM.UNIT                             DATA:  DESCRIPTION      
#-----------             ---------------------  -----------------
STRT  .M        148.2850                     : START INDEX
STOP  .M        995.9338                     : STOP INDEX
STEP  .M          0.1524                     : STEP
NULL  .       -999.25                        : NULL VALUE
COMP  .                                      : COMPANY
WELL  .       AD-3                           : WELL
FLD   .       AD                             : FIELD
LOC   .                                      : LOCATION
PROV  .                                      : PROVINCE
CNTY  .                                      : COUNTY
STAT  .                                      : STATE
CTRY  .                                      : COUNTRY
SRVC  .                                      : SERVICE COMPANY
API   .                                      : API NUMBER
UWI   .       AD-3		                     : UNIQUE WELL ID
LATI  .DEG                                   : LATITUDE
LONG  .DEG                                   : LONGITUDE
~Curve
#  MNEM.UNIT                        LOG CODES:  CURVE DESCRIPTION
#-----------             ---------------------  -----------------
DEPT  .M                                     : Depth Index
CALI  .IN                                    : 
GR    .GAPI                                  : 
ILD   .ohmm                                  : 
ILM   .ohmm                                  : 
LL3   .ohmm                                  : 
NPHI  .M3M3                                  : 
RHOB  .G/C3                                  : 
SP    .MV                                    : 
#
#----------------------------------------------------------------------------------------------------------
# DEPT        CALI        GR          ILD         ILM         LL3         NPHI        RHOB        SP          
# 
~Ascii
# ...
   926.4394      9.8181     52.5047      9.6321      7.8761     35.3397      0.3470      2.0470     72.6895 
   926.5918     10.2199     50.2205     11.1166      8.9445     30.2752      0.3415      2.0324     71.0904 
   926.7442     10.8331     48.8492     12.7470     10.9758     23.2185      0.3355      2.0353     69.7132 
   926.8966     11.4911     48.9313     14.3612     13.0314     20.5821      0.3295      2.0539     68.6882 
   927.0490     11.9765     47.9494     15.7376     14.8784     19.3507      0.3239      2.0780     68.0483 
   927.2014     12.1718     45.9049     16.7180     16.0809     16.9256      0.3192      2.0969     67.7771 
   927.3538     12.1863     43.7620     17.3273     16.5669     21.7563      0.3157      2.1059     67.7933 
   927.5062     11.8088     41.3233     17.7941     16.6037     52.1681      0.3128      2.1079     67.8712 
   927.6586     11.1279     39.0345     18.3671     16.2905     95.6137      0.3099      2.1109     68.0394 
   927.8110     10.5667     38.7676     19.2694     16.1589    151.1554      0.3069      2.1185     68.3913 
   927.9634     10.4638     37.2386     20.5751     17.1675    212.3589      0.3035      2.1264     68.7208 
   928.1158     10.4092     35.7295     22.3057     19.6665    256.7108      0.2999      2.1262     68.6530 
   928.2682     10.3834     33.5262     24.4778     24.2444    241.5746      0.2964      2.1142     68.4891 
   928.4206     10.3493     31.3158     27.1248     31.6449    199.5796      0.2932      2.0938     68.3732 
   928.5730     10.2961     29.6066     30.0591     41.9506    143.9453      0.2905      2.0720     68.0874 
   928.7254     10.0190     28.4693     32.7077     52.5497     82.2240      0.2881      2.0511     67.7527 
   928.8778      9.7560     28.0538     34.2106     55.7858     32.1143      0.2861      2.0237     67.3867 
   929.0302      9.5983     28.5794     33.8111     47.3562     16.9622      0.2842      1.9783     67.0939 
   929.1826      9.6187     29.6455     29.9795     35.3776     15.6910      0.2822      1.9130     67.0939 
   929.3350      9.6169     29.9201     25.1082     26.8841     15.0007      0.2797      1.8418     67.0939 
   929.4874      9.5816     29.3557     20.3435     21.9792     13.8261      0.2769      1.7899     67.0939 
   929.6398      9.4843     29.2895     16.1943     19.2059     12.0821      0.2745      1.7785     67.0939 
   929.7922      9.3731     32.9504     12.9091     17.2165     10.2040      0.2733      1.8112     67.5575 
   929.9446      9.2761     41.0756     10.4951     15.2815      8.2194      0.2733      1.8703     68.3627 
   930.0970      9.1960     49.8247      9.1832     13.2456      7.2801      0.2747      1.9321     69.5095 
   930.2494      9.1389     55.7556      8.1047     11.2888      6.9334      0.2779      1.9850     71.3822 
   930.4018      9.1089     57.1506      7.2078      9.4701      6.5473      0.2884      2.0336     71.2907 
   930.5542      9.0748     56.4470      6.4842      7.9524      6.2533      0.3083      2.0902     71.0894 
   930.7066      9.0431     55.1815      5.9198      6.8006      6.1482      0.3395      2.1610     73.2183 
   930.8590      9.0691     56.2527      5.4828      6.0043      6.0374      0.3629      2.2270     77.2199 
   931.0114      9.2249     58.7996      5.1494      5.4787      5.8042      0.3764      2.2771     81.4350 
   931.1638      9.7299     62.5897      4.8978      5.1237      5.6332      0.3746      2.3048     82.3195 
   931.3162     10.4899     69.0537      4.7243      4.8309      5.4959      0.3620      2.3128     82.4781 
   931.4686     10.9636     75.0104      4.6355      4.4845      5.4700      0.3530      2.3092     83.2711 
   931.6210     11.1520     79.4919      4.6320      4.2355      5.5400      0.3494      2.3033     83.7835 
   931.7734     11.1343     82.0091      4.7072      4.1424      5.7571      0.3504      2.2998     83.2711 
   931.9258     10.7822     85.3158      4.8646      4.2463      6.2877      0.3530      2.2972     82.0999 
   932.0782     10.2256     86.4205      5.1196      4.5076      7.3486      0.3547      2.2903     80.4651 
   932.2306      9.8855     85.9417      5.5009      4.9612      8.5552      0.3547      2.2686     78.8059 
   932.3830      9.7229     81.7274      6.0428      5.6433     10.0851      0.3553      2.2318     76.0731 
   932.5354      9.6825     76.3650      7.1205      6.7961     11.4197      0.3572      2.1896     72.5473 
   932.6878      9.6617     71.8374      8.6785      8.4351     14.1903      0.3576      2.1553     69.5339 
   932.8402      9.6315     70.6939     10.8848     10.7051     21.0475      0.3530      2.1333     67.9723 
   932.9926      9.7833     69.3624     14.1285     13.6550     30.9801      0.3436      2.1115     67.0695 
   933.1450     10.0872     63.5951     18.3672     17.2278     40.7059      0.3326      2.0730     66.5083 
   933.2974     10.2016     53.2134     23.7386     21.9538     49.2305      0.3232      2.0076     66.2887 
   933.4498     10.2718     41.6562     28.5903     30.0095     52.8973      0.3133      1.9263     66.1179 
   933.6022     10.3035     33.2167     33.0689     45.0577     50.0717      0.2995      1.8532     65.7275 
   933.7546     10.1861     30.8396     35.4706     61.2512     42.4896      0.2840      1.8143     65.2395 
   933.9070      9.9463     33.6092     34.8845     59.3522     36.1201      0.2727      1.8201     64.9467 
   934.0594      9.8583     37.3068     32.1093     43.6612     29.4535      0.2662      1.8692     64.7271 
   934.2118      9.8729     40.2084     28.8574     31.0233     26.2930      0.2656      1.9377     64.4587 
   934.3642     10.1950     44.4487     25.8553     23.9761     23.7663      0.2725      2.0004     64.4587 
   934.5166     10.7462     50.9490     22.8615     21.2652     22.0165      0.2949      2.0360     64.4526 
   934.6690     11.4445     57.2961     20.2857     18.9781     18.9662      0.3338      2.0409     64.2513 
   934.8214     12.0642     61.7068     17.6618     16.7140     18.1706      0.3683      2.0247     64.5319 
   934.9738     12.6164     64.7328     15.1146     14.3689     15.9407      0.3860      2.0043     65.2151 
   935.1262     12.9635     64.8029     12.7726     12.0525     13.8860      0.3839      1.9807     66.3863 
   935.2786     13.1627     63.6255     10.7683      9.9527     12.0536      0.3607      1.9558     67.2891 
   935.4310     13.2933     62.1970      9.2712      8.2167     10.1358      0.3410      1.9348     68.7531 
   935.5834     13.6018     60.6557      8.0906      6.8906      7.5996      0.3339      1.9335     70.7966 
   935.7358     14.1135     61.6060      7.1584      5.9243      6.0284      0.3384      1.9678     73.5233 
   935.8882     14.7396     67.7505      6.4167      5.1833      5.4954      0.3505      2.0413     77.0247 
   936.0406     15.2337     74.8026      5.8175      4.6236      5.5216      0.3680      2.1280     80.2699 
   936.1930     15.6892     78.9450      5.1006      4.2360      5.6350      0.3910      2.1912     81.3069 
   936.3454     16.1407     78.4849      4.6725      3.9781      5.5476      0.4177      2.2013     80.3431 
   936.4978     15.1775     73.1561      4.5877      3.8567      5.5377      0.4427      2.1495     77.9214 
   936.6502     13.7709     66.8141      4.9865      3.9176      5.7720      0.4586      2.0547     73.5111 
   936.8026     12.3772     61.6526      5.8624      4.2530      7.1545      0.4604      1.9535     68.9361 
   936.9550     10.9646     57.1806      7.2628      4.9838     10.9160      0.4480      1.8767     67.3623 
   937.1074      9.4691     52.8570      8.4358      6.1575     18.1190      0.4283      1.8392     66.4107 
   937.2598      9.2163     48.1911      9.8133      8.0516     27.4862      0.4086      1.8421     64.4587 
   937.4122      9.2664     42.5868     11.3528     10.9609     32.0949      0.3922      1.8701     63.6779 
   937.5646      9.4199     37.4602     12.9748     14.8037     32.1443      0.3804      1.9069     63.3607 
