~Version
VERS.           2.0   :CWLS Log ASCII Standard - VERSION 2.0
WRAP.           NO   :One line per index step
~Well
#  MNEM.UNIT                             DATA:  DESCRIPTION      
#-----------             ---------------------  -----------------
STRT  .M        149.0470                     : START INDEX
STOP  .M       1003.7062                     : STOP INDEX
STEP  .M          0.1524                     : STEP
NULL  .       -999.25                        : NULL VALUE
COMP  .                                      : COMPANY
WELL  .       AC-2                           : WELL
FLD   .       AC                             : FIELD
LOC   .                                      : LOCATION
PROV  .                                      : PROVINCE
CNTY  .                                      : COUNTY
STAT  .                                      : STATE
CTRY  .                                      : COUNTRY
SRVC  .                                      : SERVICE COMPANY
API   .                                      : API NUMBER
UWI   .       AC-2		                     : UNIQUE WELL ID
LATI  .DEG                                   : LATITUDE
LONG  .DEG                                   : LONGITUDE
~Curve
#  MNEM.UNIT                        LOG CODES:  CURVE DESCRIPTION
#-----------             ---------------------  -----------------
DEPT  .M                                     : Depth Index
CALI  .IN                                    : 
GR    .GAPI                                  : 
ILD   .ohmm                                  : 
ILM   .ohmm                                  : 
LLG3  .ohmm                                  : 
NPHI  .M3M3                                  : 
RHOB  .G/C3                                  : 
SP    .MV                                    : 
#
#----------------------------------------------------------------------------------------------------------------------------
# DEPT          CALI          GR            ILD           ILM           LLG3          NPHI          RHOB          SP            
# 
~Ascii
# ...
   369.874646     -999.2500       63.0000        9.4631        7.9331        4.8195     -999.2500     -999.2500      103.3000 
   370.027070     -999.2500       60.6000        9.7265        8.2207        4.7863     -999.2500     -999.2500      103.3000 
   370.179494     -999.2500       61.2000        9.9696        8.7540        5.1761     -999.2500     -999.2500      103.0000 
   370.331818     -999.2500       65.6000       10.1663        9.2608        5.2966     -999.2500     -999.2500      103.1000 
   370.484242     -999.2500       68.7000       10.2897        9.3200        5.4576     -999.2500     -999.2500      102.9000 
   370.636666     -999.2500       68.6000       10.3377        8.9719        5.3580     -999.2500     -999.2500      102.9000 
   370.789090     -999.2500       65.6000       10.3805        8.8224        5.4702     -999.2500     -999.2500      103.0000 
   370.941414     -999.2500       61.2000       10.4047        8.7596        5.8345     -999.2500     -999.2500      103.0000 
   371.093838     -999.2500       58.2000       10.4232        8.7028        6.7921     -999.2500     -999.2500      102.9000 
   371.246262     -999.2500       58.8000       10.4000        8.6489        5.4828     -999.2500     -999.2500      102.9000 
   371.398686     -999.2500       63.0000       10.2979        8.6016        5.1880     -999.2500     -999.2500      103.1000 
   371.551010     -999.2500       66.4000       10.1791        8.5638        5.1761     -999.2500     -999.2500      103.1000 
   371.703434     -999.2500       66.3000       10.0677        8.5294        5.1051     -999.2500     -999.2500      103.3000 
   371.855858     -999.2500       64.1000        9.9873        8.4956        5.0699     -999.2500     -999.2500      103.3000 
   372.008282     -999.2500       62.4000        9.9541        8.4688        5.1404     -999.2500     -999.2500      103.4000 
   372.160606     -999.2500       62.2000        9.9541        8.4482        5.1286     -999.2500     -999.2500      103.4000 
   372.313030     -999.2500       61.5000        9.9610        8.4341        5.2360     -999.2500     -999.2500      103.2000 
   372.465454     -999.2500       60.2000        9.9770        8.4471        5.2240     -999.2500     -999.2500      102.9000 
   372.617878     -999.2500       59.9000        9.9770        8.4528        5.2120     -999.2500     -999.2500      103.0000 
   372.770202     -999.2500       61.7000        9.9620        8.4334        5.1404     -999.2500     -999.2500      102.8000 
   372.922626     -999.2500       65.9000        9.9159        8.4204        5.0583     -999.2500     -999.2500      102.6000 
   373.075050     -999.2500       69.9000        9.8699        8.3946        5.1051     -999.2500     -999.2500      102.8000 
   373.227474     -999.2500       72.3000        9.8401        8.3792        5.2360     -999.2500     -999.2500      102.7000 
   373.379898     -999.2500       72.1000        9.8401        8.3753        5.1642     -999.2500     -999.2500      102.6000 
   373.532222     -999.2500       69.3000        9.8653        8.4381        5.1523     -999.2500     -999.2500      102.6000 
   373.684646     -999.2500       65.2000        9.9170        8.5852        5.1523     -999.2500     -999.2500      102.7000 
   373.837070     -999.2500       60.9000        9.9136        8.7722        5.1404     -999.2500     -999.2500      102.4000 
   373.989494     -999.2500       59.5000        9.8144        8.8554        5.1404     -999.2500     -999.2500      102.2000 
   374.141818     -999.2500       60.7000        9.6073        8.7353        5.0350     -999.2500     -999.2500      102.0000 
   374.294242     -999.2500       60.9000        9.3389        8.4153        5.0004     -999.2500     -999.2500      101.7000 
   374.446666     -999.2500       58.2000        9.0402        8.0119        5.1642     -999.2500     -999.2500      101.5000 
   374.599090     -999.2500       55.5000        8.7510        7.6069        5.5208     -999.2500     -999.2500      101.2000 
   374.751414     -999.2500       57.4000        8.4712        7.2719        5.9704     -999.2500     -999.2500      101.0000 
   374.903838     -999.2500       64.9000        8.2086        7.0152        5.1642     -999.2500     -999.2500      100.7000 
   375.056262     -999.2500       73.0000        7.9727        6.8330        4.6238     -999.2500     -999.2500      100.4000 
   375.208686     -999.2500       76.5000        7.7862        6.7205        4.7643     -999.2500     -999.2500      100.3000 
   375.361010     -999.2500       75.2000        7.6758        6.6699        4.5709     -999.2500     -999.2500      100.2000 
   375.513434     -999.2500       71.1000        7.6384        6.6702        4.4157     -999.2500     -999.2500       99.9000 
   375.665858     -999.2500       66.0000        7.6642        6.7041        4.3752     -999.2500     -999.2500       99.9000 
   375.818282     -999.2500       60.7000        7.7355        6.7677        4.4056     -999.2500     -999.2500       99.9000 
   375.970606     -999.2500       57.4000        7.8349        6.8808        4.5709     -999.2500     -999.2500      100.0000 
   376.123030     -999.2500       56.9000        7.9260        7.0425        4.7643     -999.2500     -999.2500       99.9000 
   376.275454     -999.2500       57.8000        8.0000        7.1569        4.7206     -999.2500     -999.2500      100.0000 
   376.427878     -999.2500       58.8000        8.0648        7.1918        4.6026     -999.2500     -999.2500      100.1000 
   376.580202     -999.2500       59.6000        8.1413        7.2250        4.7098     -999.2500     -999.2500      100.2000 
   376.732626     -999.2500       61.0000        8.2364        7.3890        4.8753     -999.2500     -999.2500      100.3000 
   376.885050     -999.2500       63.2000        8.3326        7.6913        4.8865     -999.2500     -999.2500      100.4000 
   377.037474     -999.2500       67.7000        8.3645        7.8990        4.7863     -999.2500     -999.2500      100.5000 
   377.189898     -999.2500       75.2000        8.2582        7.8685        4.8529     -999.2500     -999.2500      100.6000 
   377.342222     -999.2500       81.9000        8.0027        7.4918        4.9659     -999.2500     -999.2500      100.8000 
   377.494646     -999.2500       81.1000        7.6623        6.9116        4.8641     -999.2500     -999.2500      101.0000 
   377.647070     -999.2500       70.7000        7.3145        6.3217        4.8641     -999.2500     -999.2500      100.9000 
   377.799494     -999.2500       60.6000        6.9826        5.8553        5.2360     -999.2500     -999.2500      100.9000 
   377.951818     -999.2500       62.2000        6.6565        5.5362        7.4131     -999.2500     -999.2500      100.8000 
   378.104242     -999.2500       71.2000        6.3308        5.3236        5.4828     -999.2500     -999.2500      100.6000 
   378.256666     -999.2500       74.2000        6.0413        5.1477        3.8548     -999.2500     -999.2500      100.1000 
   378.409090     -999.2500       66.1000        5.8226        5.0091        3.6898     -999.2500     -999.2500       99.6000 
   378.561414     -999.2500       56.3000        5.7033        4.9218        3.5400     -999.2500     -999.2500       99.4000 
   378.713838     -999.2500       53.5000        5.6926        4.9038        3.6644     -999.2500     -999.2500       99.4000 
   378.866262     -999.2500       56.9000        5.7720        4.9558        3.5975     -999.2500     -999.2500       99.4000 
   379.018686     -999.2500       61.7000        5.9077        5.0602        3.4914     -999.2500     -999.2500       99.4000 
   379.171010     -999.2500       63.3000        6.0990        5.1979        3.4356     -999.2500     -999.2500       99.5000 
   379.323434     -999.2500       60.0000        6.3253        5.3548        3.5810     -999.2500     -999.2500       99.6000 
