~Version
VERS.           2.0   :CWLS Log ASCII Standard - VERSION 2.0
WRAP.           NO   :One line per index step
~Well
#  MNEM.UNIT                             DATA:  DESCRIPTION      
#-----------             ---------------------  -----------------
STRT  .M        148.2850                     : START INDEX
STOP  .M        995.9338                     : STOP INDEX
STEP  .M          0.1524                     : STEP
NULL  .       -999.25                        : NULL VALUE
COMP  .                                      : COMPANY
WELL  .       AD-3                           : WELL
FLD   .       AD                             : FIELD
LOC   .                                      : LOCATION
PROV  .                                      : PROVINCE
CNTY  .                                      : COUNTY
STAT  .                                      : STATE
CTRY  .                                      : COUNTRY
SRVC  .                                      : SERVICE COMPANY
API   .                                      : API NUMBER
UWI   .       AD-3		                     : UNIQUE WELL ID
LATI  .DEG                                   : LATITUDE
LONG  .DEG                                   : LONGITUDE
~Curve
#  MNEM.UNIT                        LOG CODES:  CURVE DESCRIPTION
#-----------             ---------------------  -----------------
DEPT  .M                                     : Depth Index
CALI  .IN                                    : 
GR    .GAPI                                  : 
ILD   .ohmm                                  : 
ILM   .ohmm                                  : 
LL3   .ohmm                                  : 
NPHI  .M3M3                                  : 
RHOB  .G/C3                                  : 
SP    .MV                                    : 
#
#----------------------------------------------------------------------------------------------------------
# DEPT        CALI        GR          ILD         ILM         LL3         NPHI        RHOB        SP          
# 
~Ascii
# ...
   982.8274      8.8876     80.0975      3.0358      3.1818      3.3288      0.3654      2.2279     75.7559 
   982.9798      8.9388     76.1348      2.9715      3.0402      3.3659      0.4057      2.2566     74.1943 
   983.1322      8.9479     71.9098      2.8934      2.8646      3.2966      0.4522      2.2729     72.3643 
   983.2846      8.9323     68.8021      2.8076      2.7281      3.1898      0.4919      2.2564     71.3883 
   983.4370      8.8520     66.4307      2.7143      2.6039      3.0469      0.5158      2.2053     69.6315 
   983.5894      8.8069     62.1799      2.6186      2.4953      2.9845      0.5195      2.1367     64.8491 
   983.7418      8.7617     55.3294      2.5285      2.4054      2.9574      0.5105      2.0800     58.8955 
   983.8942      8.7467     48.3768      2.4539      2.3367      2.9895      0.5005      2.0541     55.3575 
   984.0466      8.7442     42.5328      2.4046      2.3029      3.0653      0.4929      2.0619     54.0155 
   984.1990      8.7893     39.0463      2.3875      2.2983      3.1300      0.4841      2.0897     53.0395 
   984.3514      8.8345     37.5220      2.4038      2.3243      3.1556      0.4721      2.1207     52.1489 
   984.5038      8.8856     39.2353      2.4488      2.3809      3.2070      0.4572      2.1477     51.6487 
   984.6562      8.9559     44.8663      2.5144      2.4669      3.2861      0.4379      2.1731     52.4539 
   984.8086      9.0582     55.2552      2.5978      2.6106      3.3112      0.4134      2.2017     54.2839 
   984.9610      9.1365     66.7865      2.6722      2.7618      3.3719      0.3850      2.2335     57.8219 
   985.1134      9.1861     76.3360      2.7245      2.8746      3.3483      0.3555      2.2599     62.7995 
   985.2658      9.2343     79.6284      2.7486      2.9055      3.2465      0.3291      2.2683     62.8971 
   985.4182      9.3085     76.8451      2.7421      2.8492      3.1244      0.3098      2.2545     58.9809 
   985.5706      9.4119     70.3136      2.7100      2.7397      3.0507      0.3008      2.2228     54.8939 
   985.7230      9.4871     62.3184      2.6602      2.6195      2.9390      0.3005      2.1840     53.0151 
   985.8754      9.5759     55.1821      2.5987      2.5166      2.9730      0.3071      2.1497     51.9415 
   986.0278      9.6121     49.1180      2.5365      2.4415      3.0619      0.3168      2.1281     51.2827 
   986.1802      9.5910     44.0882      2.4851      2.3932      3.1508      0.3265      2.1234     50.8679 
   986.3326      9.5177     39.2671      2.4538      2.3707      3.1921      0.3330      2.1329     50.4043 
   986.4850      9.4646     36.2716      2.4489      2.3730      3.2562      0.3363      2.1512     49.7943 
   986.6374      9.5007     34.5120      2.4719      2.3971      3.2254      0.3338      2.1725     49.6235 
   986.7898      9.6000     29.7005      2.5172      2.4394      3.1653      0.3272      2.1964     50.2091 
   986.9422      9.7023     21.7082      2.5772      2.4955      3.0833      0.3177      2.2261     51.6548 
   987.0946      9.8228     12.4647      2.6437      2.5625      3.0189      0.3057      2.2663     54.6011 
   987.2470      9.9457      4.5726      2.7111      2.6363      2.9372      0.2919      2.3111     60.3595 
   987.3994      9.9216      0.0000      2.7766      2.7121      2.9137      0.2804      2.3508     68.6311 
   987.5518      9.8599      0.0000      2.8403      2.7842      2.9247      0.2736      2.3727     73.1451 
   987.7042      9.6522      0.0000      2.8983      2.8517      3.0217      0.2729      2.3711     74.8043 
   987.8566      9.3903      0.0000      2.9458      2.9117      3.0795      0.2795      2.3487     75.3899 
   988.0090      9.1189      0.0000      2.9814      2.9559      3.0932      0.2968      2.3175     76.0731 
   988.1614      8.9228      0.0000      3.0097      2.9732      3.0742      0.3292      2.2866     76.6343 
   988.3138      8.7256      0.0000      3.0404      2.9649      3.0541      0.3726      2.2629     76.2683 
   988.4662      8.7276      0.0000      3.0805      2.9529      3.0049      0.4219      2.2486     76.3415 
   988.6186      8.8510      0.0000      3.1234      2.9736      3.0317      0.4692      2.2450     77.3175 
   988.7710      9.0437      0.0000      3.1609      3.0338      3.1287      0.5606      2.2537     77.4273 
   988.9234      9.2338      0.0000      3.1935      3.1180      3.2518      0.6545      2.2752     77.2199 
   989.0758      9.3632      0.0000      3.2287      3.2116      3.3807      0.7647      2.3040     76.2439 
   989.2282      9.4786      0.0000      3.2845      3.3190      3.4402      0.9601      2.3315     74.6091 
   989.3806      9.5539      0.0000      3.3587      3.4511      3.5217      1.0991      2.3547     72.7547 
   989.5330      9.5870      0.0000      3.4238      3.5622      3.7222      1.0993      2.3759     70.7966 
   989.6854      9.6389      0.0000      3.4434      3.4173      3.7789      1.0993      2.3983     68.5579 
   989.8378      9.7367      0.0000      3.3984      3.0673      3.7516      1.0993      2.4126     66.6059 
   989.9902      9.7096      0.0000      3.2657      2.7551      3.7072      1.0993      2.4028     64.8491 
   990.1426      9.5689      0.0000      3.0950      2.5540      3.5992      1.0993      2.3591     60.5425 
   990.2950      9.4101      0.0000      2.9198      2.4964      3.2947      1.0993      2.2913     56.2603 
   990.4474      9.2318      0.0000      2.7737      2.4839      3.1417      1.0993      2.2209     53.0395 
   990.5998      5.8531      0.0000      2.6714      2.5068      3.0641      1.0993      2.1706     51.4779 
   990.7522      2.5692      0.0000      2.6168      2.5579      3.0862      1.0993      2.1472     50.0932 
   990.9046     -0.6553      0.0000      2.5848      2.6239      3.1369      1.0993      2.1485     47.5739 
   991.0570     -3.8948      0.0000      2.5930      3.0735      3.2073      0.9600      2.1690     47.5739 
   991.2094     -7.1366      0.0000      2.6240      4.2622      3.2126      0.3780      2.2040     47.5739 
   991.3618     -7.1366      0.0000      2.6645      7.6785      3.2559      0.1723      2.2474     47.5739 
   991.5142     -7.1366      0.0000      2.6984     20.6222      3.2197      0.0274      2.2926     47.5739 
   991.6666     -7.1366      0.0000      2.7173    210.0063      3.1567     -0.0086      2.3318     47.5739 
   991.8190     -7.1366      0.0000      2.7168    209.5074      3.1556     -0.0086      2.3582     47.5739 
   991.9714     -7.1366      0.0000      3.1566    217.1138      3.2245      0.6656      2.3709     47.5739 
   992.1238     -7.1366      0.0000      4.4094    231.0281      3.2793      0.6664      2.3750     47.5739 
   992.2762     -7.1366      0.0000      8.1215    250.4733      3.5214      0.0008      2.3911     47.5739 
   992.4286     -7.1366      0.0000     22.6856    273.4824      3.7349      0.0000      2.4386     47.5739 
   992.5810     -7.1366      0.0000    282.5798    401.7273      3.7704      0.0000      2.5369     47.5739 
   992.7334     -7.1366      0.0000    307.0523   1437.9421      3.7670      0.0000      2.7054     47.5739 
   992.8858     -7.1366      0.0000   1314.4287   9750.0371      3.7286      0.0000      3.1906     47.5739 
   993.0382     -5.8092      0.0000   9932.0078   9750.0371      3.5651      0.0000      3.4608     47.5739 
   993.1906     -4.4819      0.0000   9932.0078   9750.0371      3.4139      0.0000      3.4337     47.5739 
   993.3430     -3.1546      0.0000   9932.0078   9750.0371      3.4038      0.0000      3.0501     47.5739 
   993.4954     -1.8273      0.0000   9932.0078   9750.0371      3.4276      0.0000      2.5559     47.5739 
   993.6478     -1.8273      0.0000   9932.0078   9750.0371      3.4740      0.0000      2.1263     47.5739 
   993.8002      8.7938      0.0000   9932.0078   9750.0371      2.7792      0.0000      2.1263     47.5739 
   993.9526      8.7938      0.0000   9932.0078      0.8912      2.0844      0.0000      2.1263     47.5739 
