~Version
VERS.           2.0   :CWLS Log ASCII Standard - VERSION 2.0
WRAP.           NO   :One line per index step
~Well
#  MNEM.UNIT                             DATA:  DESCRIPTION      
#-----------             ---------------------  -----------------
STRT  .M        131.9780                     : START INDEX
STOP  .M       1012.2404                     : STOP INDEX
STEP  .M          0.1524                     : STEP
NULL  .       -999.25                        : NULL VALUE
COMP  .                                      : COMPANY
WELL  .       AB-1                           : WELL
FLD   .       AB                       : FIELD
LOC   .                                      : LOCATION
PROV  .                                      : PROVINCE
CNTY  .                                      : COUNTY
STAT  .                                      : STATE
CTRY  .                                      : COUNTRY
SRVC  .                                      : SERVICE COMPANY
API   .                                      : API NUMBER
UWI   .       AB-1		                     : UNIQUE WELL ID
LATI  .DEG                                   : LATITUDE
LONG  .DEG                                   : LONGITUDE
~Curve
#  MNEM.UNIT                        LOG CODES:  CURVE DESCRIPTION
#-----------             ---------------------  -----------------
DEPT  .M                                     : Depth Index
CALI  .IN                                    : 
GR    .GAPI                                  : 
ILD   .ohmm                                  : 
ILM   .ohmm                                  : 
NPHI  .M3M3                                  : 
RHOB  .G/C3                                  : 
SP    .MV                                    : 
LL3   .ohmm                                  : 
#
#----------------------------------------------------------------------------------------------------------------------------
# DEPT          CALI          GR            ILD           ILM           NPHI          RHOB          SP            LL3           
# 
~Ascii
# ...
   189.585252     -999.2500       98.3000        6.7298        5.5640        0.3356     -999.2500       79.3111        6.0954 
   189.737676     -999.2500       96.3000        7.1135        6.0635        0.3435     -999.2500       79.1444        6.3974 
   189.890000     -999.2500       94.3000        7.4645        6.7334        0.3619     -999.2500       79.2334        7.0958 
   190.042424     -999.2500       94.9000        7.7279        7.2174        0.3945     -999.2500       79.2444        7.3621 
   190.194848     -999.2500       97.8000        7.8464        7.5128        0.4327     -999.2500       79.2889        7.1615 
   190.347272     -999.2500      100.0000        7.7751        7.4286        0.4569     -999.2500       79.6334        6.7143 
   190.499696     -999.2500       99.0000        7.5189        6.9325        0.4604     -999.2500       80.1667        5.9429 
   190.652020     -999.2500       96.6000        7.1370        6.3256        0.4604     -999.2500       80.4111        4.8641 
   190.804444     -999.2500       95.8000        6.7091        5.8163        0.4718     -999.2500       80.5000        4.1976 
   190.956868     -999.2500       98.5000        6.2951        5.3810        0.4901     -999.2500       80.5000        3.9995 
   191.109292     -999.2500      103.7000        5.8225        5.0191        0.5019     -999.2500       80.5000        3.9811 
   191.261616     -999.2500      108.0000        5.4099        4.7326        0.4999     -999.2500       80.5880        4.0551 
   191.414040     -999.2500      110.7000        5.0404        4.4806        0.4891     -999.2500       80.7680        4.1115 
   191.566464     -999.2500      112.2000        4.7438        4.3255        0.4852     -999.2500       80.8800        4.1495 
   191.718888     -999.2500      111.6000        4.5325        4.2274        0.4985     -999.2500       80.9760        4.1976 
   191.871212     -999.2500      110.2000        4.4347        4.1489        0.5200     -999.2500       81.1440        4.2756 
   192.023636     -999.2500      110.4000        4.4361        4.0881        0.5297     -999.2500       81.2680        4.3652 
   192.176060     -999.2500      113.2000        4.4994        4.0458        0.5248     -999.2500       81.2360        4.4259 
   192.328484     -999.2500      115.7000        4.5891        4.0257        0.5243     -999.2500       81.1400        4.4566 
   192.480808     -999.2500      116.5000        4.6528        4.0318        0.5384     -999.2500       80.9879        4.4463 
   192.633232     -999.2500      116.0000        4.6959        4.0596        0.5538     -999.2500       80.7440        4.4056 
   192.785656     -999.2500      117.7000        4.7253        4.1107        0.5552     -999.2500       80.5040        4.3351 
   192.938080     -999.2500      121.7000        4.7409        4.1807        0.5485     -999.2500       80.4000        4.2560 
   193.090404     -999.2500      125.3000        4.7534        4.2620        0.5379     -999.2500       80.3600        4.2170 
   193.242828     -999.2500      127.0000        4.7315        4.3358        0.5161     -999.2500       80.2640        4.2364 
   193.395252     -999.2500      126.0000        4.7098        4.3775        0.4872     -999.2500       80.2320        4.2560 
   193.547676     -999.2500      124.0000        4.6666        4.3776        0.4758     -999.2500       80.3000        4.2560 
   193.700000     -999.2500      121.2000        4.6238        4.3564        0.4881     -999.2500       80.3240        4.2560 
   193.852424     -999.2500      118.3000        4.5920        4.3132        0.5058     -999.2500       80.4400        4.2560 
   194.004848     -999.2500      117.7000        4.5604        4.2705        0.5170     -999.2500       80.6000        4.1687 
   194.157272     -999.2500      119.7000        4.5394        4.2385        0.5234     -999.2500       80.5639        4.0926 
   194.309696     -999.2500      124.1000        4.5082        4.2034        0.5258     -999.2500       80.3160        4.0551 
   194.462020     -999.2500      129.0000        4.4751        4.1610        0.5200     -999.2500       80.5040        4.0179 
   194.614444     -999.2500      131.9000        4.4423        4.1184        0.5078     -999.2500       80.6000        3.9628 
   194.766868     -999.2500      131.1000        4.4056        4.0867        0.4990     -999.2500       80.6000        3.9628 
   194.919292     -999.2500      129.6000        4.3632        4.0717        0.4960     -999.2500       80.4000        3.9446 
   195.071616     -999.2500      131.2000        4.3152        4.0588        0.5014     -999.2500       80.3000        3.9265 
   195.224040     -999.2500      132.8000        4.2835        4.0241        0.5204     -999.2500       80.2000        3.8994 
   195.376464     -999.2500      133.2000        4.2521        3.9714        0.5538     -999.2500       80.3000        3.8637 
   195.528888     -999.2500      132.3000        4.2325        3.9171        0.5819     -999.2500       80.4000        3.8637 
   195.681212     -999.2500      129.2000        4.2248        3.8681        0.5819     -999.2500       80.7000        3.8815 
   195.833636     -999.2500      124.7000        4.2170        3.8311        0.5571     -999.2500       81.0000        3.9265 
   195.986060     -999.2500      121.1000        4.2364        3.8121        0.5340     -999.2500       80.9111        3.9995 
   196.138484     -999.2500      122.0000        4.2560        3.8194        0.5272     -999.2500       80.6666        4.0551 
   196.290808     -999.2500      124.0000        4.2954        3.8493        0.5301     -999.2500       80.4666        4.1687 
   196.443232     -999.2500      122.9000        4.3451        3.8910        0.5301     -999.2500       80.4000        4.2560 
   196.595656     -999.2500      120.1000        4.4056        3.9445        0.5214     -999.2500       80.4889        4.2954 
   196.748080     -999.2500      116.7000        4.4668        4.0071        0.5117     -999.2500       80.6000        4.2954 
   196.900404     -999.2500      112.6000        4.5499        4.0982        0.5092     -999.2500       80.6444        4.3451 
   197.052828     -999.2500      108.6000        4.6345        4.1853        0.5039     -999.2500       80.8222        4.3451 
   197.205252     -999.2500      104.8000        4.7098        4.2634        0.4881     -999.2500       81.0000        4.3451 
   197.357676     -999.2500      102.2000        4.7973        4.3324        0.4713     -999.2500       81.0000        4.3652 
   197.510000     -999.2500      102.3000        4.8865        4.3911        0.4664     -999.2500       81.0000        4.4771 
   197.662424     -999.2500      102.6000        4.9774        4.4493        0.4659     -999.2500       81.0000        4.5499 
   197.814848     -999.2500       99.5000        5.0699        4.5290        0.4654     -999.2500       80.9555        4.5290 
   197.967272     -999.2500       93.4000        5.1405        4.6026        0.4743     -999.2500       80.9000        4.5186 
   198.119696     -999.2500       89.1000        5.1880        4.6666        0.4901     -999.2500       80.9000        4.5186 
   198.272020     -999.2500       90.2000        5.2120        4.6851        0.4896     -999.2500       80.9778        4.4463 
   198.424444     -999.2500       94.5000        5.2240        4.6574        0.4703     -999.2500       81.1777        4.3853 
   198.576868     -999.2500       98.6000        5.2360        4.6391        0.4604     -999.2500       81.8000        4.3853 
   198.729292     -999.2500      100.8000        5.2360        4.6636        0.4728     -999.2500       82.0223        4.3853 
   198.881616     -999.2500       99.7000        5.2240        4.6851        0.4812     -999.2500       81.2445        4.3451 
   199.034040     -999.2500       96.2000        5.1761        4.6513        0.4664     -999.2500       80.5000        4.2756 
