~Version
VERS.           2.0   :CWLS Log ASCII Standard - VERSION 2.0
WRAP.           NO   :One line per index step
~Well
#  MNEM.UNIT                             DATA:  DESCRIPTION      
#-----------             ---------------------  -----------------
STRT  .M        131.9780                     : START INDEX
STOP  .M       1012.2404                     : STOP INDEX
STEP  .M          0.1524                     : STEP
NULL  .       -999.25                        : NULL VALUE
COMP  .                                      : COMPANY
WELL  .       AB-1                           : WELL
FLD   .       AB                       : FIELD
LOC   .                                      : LOCATION
PROV  .                                      : PROVINCE
CNTY  .                                      : COUNTY
STAT  .                                      : STATE
CTRY  .                                      : COUNTRY
SRVC  .                                      : SERVICE COMPANY
API   .                                      : API NUMBER
UWI   .       AB-1		                     : UNIQUE WELL ID
LATI  .DEG                                   : LATITUDE
LONG  .DEG                                   : LONGITUDE
~Curve
#  MNEM.UNIT                        LOG CODES:  CURVE DESCRIPTION
#-----------             ---------------------  -----------------
DEPT  .M                                     : Depth Index
CALI  .IN                                    : 
GR    .GAPI                                  : 
ILD   .ohmm                                  : 
ILM   .ohmm                                  : 
NPHI  .M3M3                                  : 
RHOB  .G/C3                                  : 
SP    .MV                                    : 
LL3   .ohmm                                  : 
#
#----------------------------------------------------------------------------------------------------------------------------
# DEPT          CALI          GR            ILD           ILM           NPHI          RHOB          SP            LL3           
# 
~Ascii
# ...
   890.472828        9.4000       78.6000        1.4158        1.3135        0.6104        2.1550       70.6333        2.6792 
   890.625252        9.5300       79.7000        1.4407        1.3629        0.6245        2.1670       70.2888        2.6977 
   890.777676        9.4900       82.5000        1.4559        1.4222        0.6339        2.1800       70.3999        2.6424 
   890.930000        9.3200       85.4000        1.4540        1.4577        0.6339        2.1810       70.5555        2.5882 
   891.082424        9.3300       88.1000        1.4464        1.4698        0.6330        2.1660       70.6000        2.5704 
   891.234848        9.2500       89.6000        1.4454        1.4595        0.6390        2.1480       70.5333        2.5704 
   891.387272        9.0700       87.6000        1.4642        1.4384        0.6441        2.1450       70.3110        2.5527 
   891.539696        9.0700       82.2000        1.4978        1.4239        0.6353        2.1560       69.9554        2.5119 
   891.692020        8.9300       75.5000        1.5486        1.4277        0.6104        2.1720       69.6000        2.4604 
   891.844444        9.1000       70.8000        1.6179        1.4569        0.5796        2.1900       69.0000        2.4044 
   891.996868        8.6600       68.7000        1.7061        1.5226        0.5537        2.2120       68.2000        2.4774 
   892.149292        8.4900       67.7000        1.8172        1.6336        0.5329        2.2380       67.1000        2.8642 
   892.301616        8.4900       66.6000        1.9407        1.8219        0.5119        2.2580       65.6000        3.2885 
   892.454040        8.4900       64.9000        2.0777        2.0660        0.4907        2.2680       63.8000        3.8107 
   892.606464        8.5500       63.0000        2.2289        2.3333        0.4743        2.2680       62.0000        4.2560 
   892.758888        8.6000       61.3000        2.3933        2.5465        0.4703        2.2580       60.3000        4.5499 
   892.911212        8.6000       59.6000        2.6849        2.7648        0.4763        2.2380       59.3000        4.5186 
   893.063636        8.6000       57.8000        2.9069        2.9344        0.4793        2.2130       59.1428        4.4463 
   893.216060        8.6400       56.4000        2.9923        3.0428        0.4783        2.1950       59.4857        4.1687 
   893.368484        8.6400       56.1000        2.9491        3.0769        0.4848        2.1880       59.9142        3.9446 
   893.520808        8.6400       57.0000        2.8469        3.0268        0.4976        2.1870       60.8286        3.7325 
   893.673232        8.6600       57.7000        2.7416        2.9271        0.5001        2.1830       62.0858        3.6058 
   893.825656        8.6600       57.8000        2.7015        2.8165        0.4892        2.1770       62.8286        3.4198 
   893.978080        8.6600       57.3000        2.6804        2.6978        0.4843        2.1770       63.1000        3.3497 
   894.130404        8.6600       57.0000        2.6829        2.6026        0.4917        2.1840       63.3285        3.4041 
   894.282828        8.6600       57.2000        2.7103        2.5649        0.4927        2.1970       63.4714        3.4914 
   894.435252        8.7400       57.0000        2.7606        2.6068        0.4753        2.2290       63.4857        3.3651 
   894.587676        8.8200       54.6000        2.8487        2.7137        0.4514        2.2840       63.7714        3.4041 
   894.740000        8.4700       49.9000        2.9478        2.8989        0.4341        2.3350       64.0428        3.9265 
   894.892424        8.4700       45.8000        3.0557        3.1104        0.4202        2.3530       63.8428        4.8978 
   895.044848        8.4300       44.8000        3.1701        3.3448        0.4070        2.3450       63.1000        5.2120 
   895.197272        8.5500       45.8000        3.2885        3.5512        0.3967        2.3400       62.3667        5.3334 
   895.349696        8.5600       45.9000        3.4968        3.7046        0.3878        2.3520       61.5667        5.6494 
   895.502020        8.5700       44.2000        3.7351        3.8397        0.3773        2.3720       60.1000        5.4828 
   895.654444        8.6300       41.4000        3.9531        3.9917        0.3671        2.3810       59.1667        4.8417 
   895.806868        8.6600       39.4000        4.0418        4.1495        0.3655        2.3630       59.0333        5.2240 
   895.959292        8.6400       39.7000        3.9670        4.2560        0.3741        2.3230       59.0000        5.8210 
   896.111616        8.6400       42.4000        3.8135        4.2073        0.3894        2.2820       59.0889        5.7280 
   896.264040        8.6600       46.0000        3.6813        3.9777        0.4075        2.2630       59.1778        5.4702 
   896.416464        8.6600       47.9000        3.5975        3.6717        0.4257        2.2790       59.3333        5.1404 
   896.568888        8.6600       47.7000        3.5075        3.4621        0.4428        2.3220       59.8448        4.4056 
   896.721212        8.6600       45.9000        3.3807        3.3684        0.4653        2.3570       60.6000        4.0365 
   896.873636        8.6600       44.6000        3.1842        3.2840        0.5025        2.3520       61.3332        4.4056 
   897.026060        8.6600       46.8000        2.9444        3.0591        0.5503        2.3140       61.9999        4.6452 
   897.178484        8.6600       53.1000        2.7102        2.7104        0.5962        2.2750       62.7777        4.6452 
   897.330808        8.7000       60.4000        2.5119        2.4201        0.6273        2.2540       63.4000        4.5186 
   897.483232        8.9200       65.2000        2.3551        2.1889        0.6400        2.2430       64.0222        4.0926 
   897.635656        9.0100       67.4000        2.2141        2.0229        0.6348        2.2320       64.4111        3.2885 
   897.788080        8.7500       68.1000        2.1035        1.9210        0.6104        2.2210       64.5667        2.8445 
   897.940404        8.7300       67.3000        2.0140        1.8750        0.5777        2.2120       64.4889        2.5882 
   898.092828        8.5500       65.3000        1.9512        1.8731        0.5556        2.2080       64.1777        2.5704 
   898.245252        8.5500       62.6000        1.9130        1.9026        0.5518        2.2200       63.6001        2.7164 
   898.397676        8.5400       59.8000        1.8868        1.9498        0.5575        2.2560       62.8003        2.9377 
   898.550000        8.5500       57.2000        1.8664        1.9920        0.5648        2.3000       62.1557        3.1046 
   898.702424        8.5500       55.5000        1.8323        1.9856        0.5763        2.3040       62.6000        3.3266 
   898.854848        8.5700       56.1000        1.7824        1.9067        0.5943        2.2510       63.7000        3.4914 
   899.007272        8.8300       60.2000        1.7100        1.7787        0.6071        2.1740       65.0000        3.3266 
   899.159696        8.8500       66.9000        1.6218        1.6462        0.6048        2.1130       66.5000        3.0690 
   899.312020        8.9100       72.9000        1.5276        1.5309        0.5996        2.0780       67.7000        2.9377 
   899.464444        8.8900       75.1000        1.4388        1.4289        0.6088        2.0620       68.4000        2.7164 
   899.616868        8.8200       74.0000        1.3709        1.3521        0.6243        2.0580       68.9000        2.4378 
   899.769292        8.8200       71.9000        1.3213        1.2991        0.6304        2.0590       69.4000        2.4044 
   899.921616        8.8400       70.7000        1.2942        1.2712        0.6262        2.0640       70.1000        2.4210 
