~Version
VERS.           2.0   :CWLS Log ASCII Standard - VERSION 2.0
WRAP.           NO   :One line per index step
~Well
#  MNEM.UNIT                             DATA:  DESCRIPTION      
#-----------             ---------------------  -----------------
STRT  .M        131.9780                     : START INDEX
STOP  .M       1012.2404                     : STOP INDEX
STEP  .M          0.1524                     : STEP
NULL  .       -999.25                        : NULL VALUE
COMP  .                                      : COMPANY
WELL  .       AB-1                           : WELL
FLD   .       AB                       : FIELD
LOC   .                                      : LOCATION
PROV  .                                      : PROVINCE
CNTY  .                                      : COUNTY
STAT  .                                      : STATE
CTRY  .                                      : COUNTRY
SRVC  .                                      : SERVICE COMPANY
API   .                                      : API NUMBER
UWI   .       AB-1		                     : UNIQUE WELL ID
LATI  .DEG                                   : LATITUDE
LONG  .DEG                                   : LONGITUDE
~Curve
#  MNEM.UNIT                        LOG CODES:  CURVE DESCRIPTION
#-----------             ---------------------  -----------------
DEPT  .M                                     : Depth Index
CALI  .IN                                    : 
GR    .GAPI                                  : 
ILD   .ohmm                                  : 
ILM   .ohmm                                  : 
NPHI  .M3M3                                  : 
RHOB  .G/C3                                  : 
SP    .MV                                    : 
LL3   .ohmm                                  : 
#
#----------------------------------------------------------------------------------------------------------------------------
# DEPT          CALI          GR            ILD           ILM           NPHI          RHOB          SP            LL3           
# 
~Ascii
# ...
   535.228484     -999.2500       96.1000        1.7207        1.6829        0.5709     -999.2500       93.6000        3.0479 
   535.380808     -999.2500       97.2000        1.7168        1.7061        0.5695     -999.2500       93.7000        2.9717 
   535.533232     -999.2500       97.6000        1.7047        1.7064        0.5657     -999.2500       93.8000        2.8973 
   535.685656     -999.2500       97.0000        1.6879        1.6823        0.5460     -999.2500       94.0000        2.8445 
   535.838080     -999.2500       96.4000        1.6680        1.6401        0.5115     -999.2500       94.3000        2.7861 
   535.990404     -999.2500       96.0000        1.6433        1.5942        0.4849     -999.2500       94.4000        2.7733 
   536.142828     -999.2500       96.5000        1.6125        1.5558        0.4869     -999.2500       94.5000        2.8054 
   536.295252     -999.2500       98.0000        1.5769        1.5278        0.5076     -999.2500       94.6000        2.8445 
   536.447676     -999.2500       98.5000        1.5422        1.5040        0.5227     -999.2500       94.4000        2.8249 
   536.600000     -999.2500       96.9000        1.5169        1.4815        0.5271     -999.2500       94.3000        2.8249 
   536.752424     -999.2500       94.8000        1.4993        1.4608        0.5271     -999.2500       94.3000        2.8054 
   536.904848     -999.2500       93.8000        1.4964        1.4468        0.5242     -999.2500       94.3000        2.8054 
   537.057272     -999.2500       94.1000        1.4997        1.4393        0.5183     -999.2500       94.3000        2.8054 
   537.209696     -999.2500       93.2000        1.5128        1.4393        0.5139     -999.2500       94.0000        2.8249 
   537.362020     -999.2500       90.6000        1.5290        1.4493        0.5164     -999.2500       93.7000        2.8774 
   537.514444     -999.2500       88.5000        1.5486        1.4702        0.5227     -999.2500       93.7000        2.9512 
   537.666868     -999.2500       87.4000        1.5689        1.4989        0.5295     -999.2500       93.6000        2.9717 
   537.819292     -999.2500       85.4000        1.5869        1.5296        0.5412     -999.2500       93.2000        2.9512 
   537.971616     -999.2500       82.0000        1.6018        1.5569        0.5595     -999.2500       92.9000        2.9512 
   538.124040     -999.2500       80.0000        1.6135        1.5739        0.5719     -999.2500       93.0000        2.9174 
   538.276464     -999.2500       80.6000        1.6220        1.5779        0.5662     -999.2500       93.5000        2.8445 
   538.428888     -999.2500       82.1000        1.6238        1.5722        0.5484     -999.2500       94.0000        2.8445 
   538.581212     -999.2500       82.7000        1.6172        1.5592        0.5383     -999.2500       94.0000        2.8445 
   538.733636     -999.2500       84.3000        1.6041        1.5414        0.5397     -999.2500       94.1000        2.8445 
   538.886060     -999.2500       87.4000        1.5826        1.5235        0.5465     -999.2500       94.3000        2.8249 
   539.038484     -999.2500       89.7000        1.5512        1.5088        0.5590     -999.2500       94.5000        2.8249 
   539.190808     -999.2500       89.3000        1.5167        1.4921        0.5781     -999.2500       94.5000        2.7733 
   539.343232     -999.2500       87.0000        1.4777        1.4719        0.5957     -999.2500       94.5000        2.7164 
   539.495656     -999.2500       85.4000        1.4404        1.4394        0.6013     -999.2500       94.1000        2.6607 
   539.648080     -999.2500       84.6000        1.4125        1.3987        0.5919     -999.2500       93.8000        2.6242 
   539.800404     -999.2500       83.6000        1.3895        1.3572        0.5709     -999.2500       93.9000        2.6424 
   539.952828     -999.2500       83.0000        1.3804        1.3274        0.5470     -999.2500       93.6000        2.6977 
   540.105252     -999.2500       83.4000        1.3828        1.3178        0.5300     -999.2500       93.4000        2.7733 
   540.257676     -999.2500       83.3000        1.4008        1.3354        0.5154     -999.2500       93.4000        2.8249 
   540.410000     -999.2500       81.4000        1.4280        1.3788        0.4854     -999.2500       93.7000        2.8642 
   540.562424     -999.2500       79.8000        1.4716        1.4335        0.4459     -999.2500       94.0000        2.8445 
   540.714848     -999.2500       79.2000        1.5384        1.4982        0.4249     -999.2500       94.1000        2.9377 
   540.867272     -999.2500       77.5000        1.6401        1.5790        0.4249     -999.2500       93.9000        3.3497 
   541.019696     -999.2500       74.1000        1.7890        1.6923        0.4254     -999.2500       93.5000        4.0365 
   541.172020     -999.2500       72.2000        1.9824        1.8604        0.4164     -999.2500       93.3000        4.4978 
   541.324444     -999.2500       74.7000        2.1962        2.1028        0.4103     -999.2500       93.0000        4.8306 
   541.476868     -999.2500       81.1000        2.4044        2.4207        0.4234     -999.2500       92.5000        4.8978 
   541.629292     -999.2500       87.6000        2.5850        2.7562        0.4512     -999.2500       92.7000        4.6026 
   541.781616     -999.2500       90.8000        2.7238        2.9923        0.4780     -999.2500       93.0000        4.0179 
   541.934040     -999.2500       90.1000        2.8128        3.0394        0.4911     -999.2500       93.3000        3.5481 
   542.086464     -999.2500       89.6000        2.8263        2.9320        0.4966     -999.2500       93.3000        3.2211 
   542.238888     -999.2500       91.8000        2.7447        2.7223        0.5079     -999.2500       93.4000        3.0061 
   542.391212     -999.2500       93.9000        2.5833        2.4692        0.5176     -999.2500       93.5000        2.8973 
   542.543636     -999.2500       93.0000        2.4045        2.2324        0.5108     -999.2500       93.5000        2.8249 
   542.696060     -999.2500       91.2000        2.2514        2.0510        0.4867     -999.2500       93.6000        2.8642 
   542.848484     -999.2500       91.4000        2.1563        1.9367        0.4619     -999.2500       93.5000        3.0479 
   543.000808     -999.2500       92.7000        2.1139        1.8934        0.4452     -999.2500       93.3000        3.2885 
   543.153232     -999.2500       93.2000        2.1235        1.9185        0.4399     -999.2500       93.1000        3.5156 
   543.305656     -999.2500       94.4000        2.1677        2.0051        0.4481     -999.2500       92.8000        3.6224 
   543.458080     -999.2500       97.1000        2.2261        2.1330        0.4669     -999.2500       92.8000        3.6983 
   543.610404     -999.2500       99.1000        2.2831        2.2635        0.4857     -999.2500       92.8000        3.5892 
   543.762828     -999.2500       98.3000        2.3262        2.3547        0.4956     -999.2500       93.0000        3.3651 
   543.915252     -999.2500       95.5000        2.3422        2.3803        0.4951     -999.2500       93.4000        3.1623 
   544.067676     -999.2500       93.9000        2.3206        2.3399        0.4902     -999.2500       93.7000        3.0479 
   544.220000     -999.2500       94.1000        2.2615        2.2491        0.4867     -999.2500       94.0000        2.9512 
   544.372424     -999.2500       94.0000        2.1734        2.1222        0.4911     -999.2500       93.9000        2.8642 
   544.524848     -999.2500       92.4000        2.0732        1.9990        0.5064     -999.2500       94.0000        2.8445 
   544.677272     -999.2500       90.4000        1.9809        1.8922        0.5269     -999.2500       94.2000        2.8054 
