~Version
VERS.           2.0   :CWLS Log ASCII Standard - VERSION 2.0
WRAP.           NO   :One line per index step
~Well
#  MNEM.UNIT                             DATA:  DESCRIPTION      
#-----------             ---------------------  -----------------
STRT  .M        131.9780                     : START INDEX
STOP  .M       1012.2404                     : STOP INDEX
STEP  .M          0.1524                     : STEP
NULL  .       -999.25                        : NULL VALUE
COMP  .                                      : COMPANY
WELL  .       AB-1                           : WELL
FLD   .       AB                       : FIELD
LOC   .                                      : LOCATION
PROV  .                                      : PROVINCE
CNTY  .                                      : COUNTY
STAT  .                                      : STATE
CTRY  .                                      : COUNTRY
SRVC  .                                      : SERVICE COMPANY
API   .                                      : API NUMBER
UWI   .       AB-1		                     : UNIQUE WELL ID
LATI  .DEG                                   : LATITUDE
LONG  .DEG                                   : LONGITUDE
~Curve
#  MNEM.UNIT                        LOG CODES:  CURVE DESCRIPTION
#-----------             ---------------------  -----------------
DEPT  .M                                     : Depth Index
CALI  .IN                                    : 
GR    .GAPI                                  : 
ILD   .ohmm                                  : 
ILM   .ohmm                                  : 
NPHI  .M3M3                                  : 
RHOB  .G/C3                                  : 
SP    .MV                                    : 
LL3   .ohmm                                  : 
#
#----------------------------------------------------------------------------------------------------------------------------
# DEPT          CALI          GR            ILD           ILM           NPHI          RHOB          SP            LL3           
# 
~Ascii
# ...
   602.436868     -999.2500      110.9000        2.8338        2.8054        0.4979     -999.2500       91.4000        3.1478 
   602.589292     -999.2500      107.8000        2.7428        2.7104        0.5131     -999.2500       91.4150        3.0269 
   602.741616     -999.2500      103.5000        2.6363        2.6074        0.5267     -999.2500       91.5173        2.9377 
   602.894040     -999.2500       98.8000        2.5219        2.4862        0.5398     -999.2500       91.6391        2.8642 
   603.046464     -999.2500       94.7000        2.4126        2.3496        0.5505     -999.2500       91.8653        2.7861 
   603.198888     -999.2500       90.3000        2.3078        2.2151        0.5562     -999.2500       92.0759        2.7353 
   603.351212     -999.2500       85.0000        2.2080        2.0985        0.5558     -999.2500       92.0263        2.7164 
   603.503636     -999.2500       81.9000        2.1165        1.9999        0.5505     -999.2500       92.1571        2.6977 
   603.656060     -999.2500       83.5000        2.0207        1.9081        0.5403     -999.2500       92.3000        2.6607 
   603.808484     -999.2500       86.7000        1.9384        1.8248        0.5263     -999.2500       92.2669        2.6062 
   603.960808     -999.2500       88.9000        1.8687        1.7403        0.5160     -999.2500       92.2706        2.5527 
   604.113232     -999.2500       91.8000        1.8150        1.6830        0.5163     -999.2500       92.4000        2.5293 
   604.265656     -999.2500       96.0000        1.7778        1.6561        0.5182     -999.2500       92.3601        2.5527 
   604.418080     -999.2500       98.2000        1.7461        1.6486        0.5085     -999.2500       92.2579        2.5882 
   604.570404     -999.2500       96.9000        1.7218        1.6482        0.4893     -999.2500       92.1556        2.6424 
   604.722828     -999.2500       96.2000        1.6965        1.6381        0.4759     -999.2500       92.0068        2.6792 
   604.875252     -999.2500       99.5000        1.6643        1.6083        0.4814     -999.2500       91.9489        2.6792 
   605.027676     -999.2500      104.0000        1.6282        1.5723        0.5055     -999.2500       91.8467        2.6424 
   605.180000     -999.2500      105.1000        1.5869        1.5309        0.5387     -999.2500       91.8068        2.5704 
   605.332424     -999.2500      103.1000        1.5466        1.4885        0.5671     -999.2500       91.9556        2.4774 
   605.484848     -999.2500      100.9000        1.5083        1.4490        0.5757     -999.2500       91.9421        2.4210 
   605.637272     -999.2500      100.0000        1.4717        1.4153        0.5623     -999.2500       91.9601        2.4044 
   605.789696     -999.2500       99.2000        1.4310        1.3892        0.5416     -999.2500       92.0000        2.4044 
   605.942020     -999.2500       97.1000        1.3915        1.3685        0.5324     -999.2500       91.9353        2.4210 
   606.094444     -999.2500       94.9000        1.3540        1.3466        0.5362     -999.2500       91.7662        2.4604 
   606.246868     -999.2500       93.1000        1.3226        1.3274        0.5377     -999.2500       91.7692        2.4044 
   606.399292     -999.2500       92.4000        1.3041        1.2972        0.5251     -999.2500       91.7286        2.3442 
   606.551616     -999.2500       92.5000        1.3033        1.2706        0.5094     -999.2500       91.5526        2.3067 
   606.704040     -999.2500       92.6000        1.3204        1.2531        0.5026     -999.2500       91.5000        2.2856 
   606.856464     -999.2500       92.8000        1.3576        1.2618        0.4977     -999.2500       91.2653        2.3227 
   607.008888     -999.2500       93.5000        1.4139        1.2972        0.4779     -999.2500       91.0391        2.4604 
   607.161212     -999.2500       95.5000        1.4936        1.3677        0.4439     -999.2500       90.8345        2.6242 
   607.313636     -999.2500       97.3000        1.5989        1.4931        0.4154     -999.2500       90.4603        2.8973 
   607.466060     -999.2500       98.6000        1.7302        1.6709        0.4042     -999.2500       90.4872        3.1989 
   607.618484     -999.2500       98.8000        1.8881        1.8933        0.4083     -999.2500       90.5894        3.3651 
   607.770808     -999.2500       96.9000        2.0681        2.1277        0.4189     -999.2500       90.5083        3.4356 
   607.923232     -999.2500       94.1000        2.2627        2.3339        0.4264     -999.2500       90.4060        3.4356 
   608.075656     -999.2500       92.1000        2.4639        2.4934        0.4234     -999.2500       90.2075        3.3497 
   608.228080     -999.2500       93.0000        2.6479        2.6303        0.4144     -999.2500       90.2000        3.3497 
   608.380404     -999.2500       94.6000        2.7824        2.7416        0.4108     -999.2500       90.8037        3.4356 
   608.532828     -999.2500       96.7000        2.8419        2.8184        0.4164     -999.2500       91.3151        3.5481 
   608.685252     -999.2500      100.0000        2.8295        2.8314        0.4219     -999.2500       91.8052        3.5892 
   608.837676     -999.2500      102.3000        2.7723        2.7669        0.4199     -999.2500       91.9150        3.5481 
   608.990000     -999.2500      101.3000        2.6878        2.6485        0.4144     -999.2500       92.1195        3.3807 
   609.142424     -999.2500       96.8000        2.5849        2.5061        0.4164     -999.2500       92.3120        3.1989 
   609.294848     -999.2500       92.5000        2.4615        2.3605        0.4303     -999.2500       92.4000        3.0269 
   609.447272     -999.2500       89.6000        2.3166        2.2080        0.4540     -999.2500       92.3670        2.9174 
   609.599696     -999.2500       88.6000        2.1638        2.0559        0.4829     -999.2500       92.1437        2.8445 
   609.752020     -999.2500       89.7000        2.0174        1.9143        0.5041     -999.2500       91.8580        2.7353 
   609.904444     -999.2500       90.8000        1.8893        1.7947        0.5124     -999.2500       91.7000        2.6242 
   610.056868     -999.2500       90.7000        1.7793        1.6904        0.5163     -999.2500       91.7255        2.5704 
   610.209292     -999.2500       90.1000        1.6863        1.6106        0.5260     -999.2500       91.8000        2.5293 
   610.361616     -999.2500       88.7000        1.6070        1.5417        0.5348     -999.2500       91.8601        2.4946 
   610.514040     -999.2500       86.3000        1.5412        1.4894        0.5260     -999.2500       91.9676        2.4946 
   610.666464     -999.2500       84.7000        1.4911        1.4421        0.5060     -999.2500       91.9000        2.4774 
   610.818888     -999.2500       85.9000        1.4540        1.4060        0.4972     -999.2500       91.8631        2.4378 
   610.971212     -999.2500       87.1000        1.4279        1.3804        0.5099     -999.2500       91.7218        2.4210 
   611.123636     -999.2500       85.7000        1.4097        1.3677        0.5309     -999.2500       91.6000        2.4210 
   611.276060     -999.2500       84.0000        1.3959        1.3621        0.5450     -999.2500       91.7307        2.4210 
   611.428484     -999.2500       84.1000        1.3880        1.3614        0.5531     -999.2500       91.9458        2.4604 
   611.580808     -999.2500       85.5000        1.3842        1.3656        0.5618     -999.2500       92.1442        2.4774 
   611.733232     -999.2500       85.2000        1.3836        1.3695        0.5632     -999.2500       92.5516        2.4774 
   611.885656     -999.2500       84.1000        1.3863        1.3725        0.5445     -999.2500       92.8000        2.4774 
