~Version
VERS.           2.0   :CWLS Log ASCII Standard - VERSION 2.0
WRAP.           NO   :One line per index step
~Well
#  MNEM.UNIT                             DATA:  DESCRIPTION      
#-----------             ---------------------  -----------------
STRT  .M        148.2850                     : START INDEX
STOP  .M        995.9338                     : STOP INDEX
STEP  .M          0.1524                     : STEP
NULL  .       -999.25                        : NULL VALUE
COMP  .                                      : COMPANY
WELL  .       AD-3                           : WELL
FLD   .       AD                             : FIELD
LOC   .                                      : LOCATION
PROV  .                                      : PROVINCE
CNTY  .                                      : COUNTY
STAT  .                                      : STATE
CTRY  .                                      : COUNTRY
SRVC  .                                      : SERVICE COMPANY
API   .                                      : API NUMBER
UWI   .       AD-3		                     : UNIQUE WELL ID
LATI  .DEG                                   : LATITUDE
LONG  .DEG                                   : LONGITUDE
~Curve
#  MNEM.UNIT                        LOG CODES:  CURVE DESCRIPTION
#-----------             ---------------------  -----------------
DEPT  .M                                     : Depth Index
CALI  .IN                                    : 
GR    .GAPI                                  : 
ILD   .ohmm                                  : 
ILM   .ohmm                                  : 
LL3   .ohmm                                  : 
NPHI  .M3M3                                  : 
RHOB  .G/C3                                  : 
SP    .MV                                    : 
#
#----------------------------------------------------------------------------------------------------------
# DEPT        CALI        GR          ILD         ILM         LL3         NPHI        RHOB        SP          
# 
~Ascii
# ...
   870.0514     10.7217     69.7255      1.3514      1.2455      1.7134      0.5296      2.1332    104.9627 
   870.2038     10.7549     70.0393      1.2979      1.2080      1.7247      0.5406      2.1327    105.1335 
   870.3562     10.7338     70.5815      1.2532      1.1830      1.7307      0.5618      2.1291    105.2311 
   870.5086     10.7398     70.6690      1.2174      1.1694      1.7493      0.5878      2.1242    105.3287 
   870.6610     10.6916     70.6685      1.1890      1.1702      1.7598      0.6077      2.1213    105.7435 
   870.8134     10.6736     71.7852      1.1929      1.1798      1.7609      0.6229      2.1205    106.1339 
   870.9658     10.6901     71.1847      1.2140      1.1959      1.7641      0.6365      2.1212    106.5243 
   871.1182     10.6931     69.6757      1.2381      1.2158      1.7636      0.6516      2.1210    107.0123 
   871.2706     10.6329     67.3889      1.2579      1.2364      1.7530      0.6650      2.1199    107.5003 
   871.4230     10.5908     65.9118      1.2721      1.2696      1.7348      0.6757      2.1183    107.6955 
   871.5754     10.4458     65.6646      1.2772      1.2688      1.7187      0.6783      2.1163    107.6946 
   871.7278     10.2577     67.6360      1.2789      1.2477      1.7057      0.6716      2.1142    107.7190 
   871.8802     10.0590     69.2143      1.2773      1.2281      1.7073      0.6619      2.1113    107.8767 
   872.0326      9.8353     70.0250      1.2731      1.2221      1.7091      0.6540      2.1067    107.9883 
   872.1850      9.6728     70.4022      1.2672      1.2167      1.7067      0.6477      2.0995    107.9883 
   872.3374      9.6853     70.4736      1.2603      1.2125      1.7113      0.6411      2.0903    108.1346 
   872.4898      9.7580     71.4936      1.2533      1.2086      1.7066      0.6201      2.0810    108.0859 
   872.6422      9.8694     72.1682      1.2465      1.2055      1.7009      0.5967      2.0775    108.0859 
   872.7946     10.0149     72.6689      1.2405      1.2032      1.6953      0.6174      2.0830    108.2811 
   872.9470     10.0962     70.8612      1.2350      1.2018      1.6816      0.6569      2.0953    108.2567 
   873.0994     10.0711     69.3476      1.2309      1.2007      1.6653      0.6589      2.1076    107.9883 
   873.2518     10.0194     66.5951      1.2276      1.2001      1.6658      0.6561      2.1135    107.6833 
   873.4042     10.0495     64.4630      1.2245      1.2000      1.6628      0.6532      2.1109    107.3905 
   873.5566     10.1373     62.6155      1.2220      1.2007      1.6784      0.6458      2.1028    107.3051 
   873.7090     10.2487     63.5027      1.2201      1.2025      1.6973      0.6344      2.0954    107.0977 
   873.8614     10.3941     65.4743      1.2198      1.2049      1.7313      0.6250      2.0921    107.1953 
   874.0138     10.5447     68.9336      1.2209      1.2069      1.7354      0.6179      2.0927    107.1269 
   874.1662     10.5763     68.6449      1.2226      1.2083      1.7332      0.6160      2.0935    106.9046 
   874.3186     10.5246     65.1068      1.2246      1.2096      1.7229      0.6258      2.0912    106.6356 
   874.4710     10.4102     61.3770      1.2268      1.2119      1.7205      0.6533      2.0857    106.3699 
   874.6234     10.2597     60.3944      1.2292      1.2153      1.7010      0.6895      2.0790    106.1096 
   874.7758      9.9768     61.2032      1.2320      1.2187      1.7053      0.7120      2.0739    105.8926 
   874.9282      9.7375     62.9236      1.2349      1.2205      1.7091      0.7032      2.0723    105.8383 
   875.0806      9.5484     62.7242      1.2375      1.2202      1.6996      0.6677      2.0751    106.0119 
   875.2330      9.4219     61.4624      1.2393      1.2183      1.6981      0.6368      2.0808    106.1339 
   875.3854      9.3828     60.3702      1.2403      1.2160      1.7084      0.6236      2.0913    106.2193 
   875.5378      9.6356     61.0507      1.2408      1.2140      1.7083      0.6260      2.1055    106.4267 
   875.6902      9.9201     61.0255      1.2411      1.2114      1.7187      0.6403      2.1212    106.5243 
   875.8426     10.1333     58.7319      1.2409      1.2083      1.7369      0.6573      2.1322    106.4023 
   875.9950     10.2025     56.6489      1.2394      1.2046      1.7340      0.6728      2.1336    106.4023 
   876.1474     10.1393     55.9141      1.2363      1.2011      1.7171      0.6886      2.1243    106.6219 
   876.2998      9.9527     57.2583      1.2318      1.1982      1.7199      0.7014      2.1101    106.6219 
   876.4522      9.8157     62.8926      1.2273      1.1966      1.6875      0.7064      2.0987    106.4999 
   876.6046      9.7555     67.9137      1.2241      1.1965      1.6777      0.7002      2.0953    106.4267 
   876.7570      9.8880     69.7828      1.2230      1.1979      1.6759      0.6851      2.0994    106.2071 
   876.9094     10.0430     69.2489      1.2237      1.2005      1.6958      0.6665      2.1077    105.9143 
   877.0618     10.2206     67.7474      1.2256      1.2037      1.6972      0.6498      2.1174    105.8411 
   877.2142     10.2868     66.4262      1.2277      1.2067      1.7208      0.6450      2.1272    105.9143 
   877.3666     10.2898     66.6573      1.2301      1.2087      1.7207      0.6537      2.1366    105.8350 
   877.5190     10.1779     65.3267      1.2333      1.2102      1.7267      0.6683      2.1432    105.6459 
   877.6714     10.0681     62.8212      1.2387      1.2124      1.7120      0.6757      2.1428    105.7504 
   877.8238      9.8002     60.1698      1.2497      1.2176      1.7138      0.6676      2.1320    106.0117 
   877.9762      9.5534     59.4821      1.2667      1.2284      1.7235      0.6477      2.1148    106.3359 
   878.1286      9.3723     61.2632      1.2888      1.2470      1.7598      0.6242      2.1017    106.7473 
   878.2810      9.4420     62.8975      1.3123      1.2734      1.8068      0.6076      2.1022    106.8276 
   878.4334      9.6045     63.1615      1.3305      1.3033      1.8279      0.5992      2.1168    106.4582 
   878.5858      9.9176     63.4826      1.3403      1.3254      1.8356      0.5942      2.1351    106.1095 
   878.7382     10.1799     63.6198      1.3425      1.3261      1.8131      0.5940      2.1409    105.9039 
   878.8906     10.2858     63.7491      1.3395      1.3088      1.7798      0.5999      2.1315    105.9176 
   879.0430     10.1860     65.0118      1.3306      1.2863      1.7302      0.6090      2.1143    106.3239 
   879.1954     10.0204     64.6327      1.3138      1.2688      1.7220      0.6193      2.1001    106.5470 
   879.3478      9.7977     64.9907      1.2909      1.2569      1.7156      0.6294      2.0940    106.1646 
   879.5002      9.6918     66.2854      1.2665      1.2479      1.7424      0.6368      2.0959    105.7846 
   879.6526      9.7390     67.9005      1.2439      1.2401      1.7396      0.6426      2.1011    105.7191 
   879.8050      9.7515     68.6361      1.2308      1.2329      1.7647      0.6478      2.1113    105.6598 
   879.9574      9.7490     68.3448      1.2186      1.2216      1.7668      0.6554      2.1256    105.7435 
   880.1098      9.7731     65.6993      1.2074      1.2063      1.7498      0.6612      2.1392    105.6077 
   880.2622      9.9065     64.0782      1.1975      1.1894      1.7284      0.6654      2.1472    105.2730 
   880.4146     10.0460     63.4663      1.1893      1.1743      1.7256      0.6671      2.1469    105.0142 
   880.5670     10.0987     63.8985      1.1847      1.1645      1.7131      0.6659      2.1391    104.8677 
   880.7194      9.9833     63.6734      1.1823      1.1617      1.7024      0.6616      2.1276    104.7675 
   880.8718      9.8388     62.2368      1.1820      1.1657      1.7224      0.6543      2.1181    104.8651 
   881.0242      9.5579     61.8395      1.1837      1.1738      1.7486      0.6466      2.1141    104.9627 
   881.1766      9.3321     62.3157      1.1875      1.1843      1.7600      0.6409      2.1137    104.8407 
