~Version
VERS.           2.0   :CWLS Log ASCII Standard - VERSION 2.0
WRAP.           NO   :One line per index step
~Well
#  MNEM.UNIT                             DATA:  DESCRIPTION      
#-----------             ---------------------  -----------------
STRT  .M        149.0470                     : START INDEX
STOP  .M       1003.7062                     : STOP INDEX
STEP  .M          0.1524                     : STEP
NULL  .       -999.25                        : NULL VALUE
COMP  .                                      : COMPANY
WELL  .       AC-2                           : WELL
FLD   .       AC                             : FIELD
LOC   .                                      : LOCATION
PROV  .                                      : PROVINCE
CNTY  .                                      : COUNTY
STAT  .                                      : STATE
CTRY  .                                      : COUNTRY
SRVC  .                                      : SERVICE COMPANY
API   .                                      : API NUMBER
UWI   .       AC-2		                     : UNIQUE WELL ID
LATI  .DEG                                   : LATITUDE
LONG  .DEG                                   : LONGITUDE
~Curve
#  MNEM.UNIT                        LOG CODES:  CURVE DESCRIPTION
#-----------             ---------------------  -----------------
DEPT  .M                                     : Depth Index
CALI  .IN                                    : 
GR    .GAPI                                  : 
ILD   .ohmm                                  : 
ILM   .ohmm                                  : 
LLG3  .ohmm                                  : 
NPHI  .M3M3                                  : 
RHOB  .G/C3                                  : 
SP    .MV                                    : 
#
#----------------------------------------------------------------------------------------------------------------------------
# DEPT          CALI          GR            ILD           ILM           LLG3          NPHI          RHOB          SP            
# 
~Ascii
# ...
   773.125050     -999.2500       69.4000        2.0299        1.9602        2.8054     -999.2500     -999.2500      108.1000 
   773.277474     -999.2500       67.0000        2.4433        2.4162        3.0903     -999.2500     -999.2500      107.9000 
   773.429898     -999.2500       64.6000        2.8967        2.8202        3.5156     -999.2500     -999.2500      107.6000 
   773.582222     -999.2500       64.3000        3.3475        3.2504        3.8905     -999.2500     -999.2500      107.4000 
   773.734646     -999.2500       64.8000        3.7728        3.7260        4.4978     -999.2500     -999.2500      107.5000 
   773.887070     -999.2500       64.4000        4.1681        4.2452        5.1168     -999.2500     -999.2500      107.3000 
   774.039494     -999.2500       63.8000        4.5444        4.8058        5.1286     -999.2500     -999.2500      107.0000 
   774.191818     -999.2500       63.1000        4.8795        5.3683        4.6881     -999.2500     -999.2500      106.9000 
   774.344242     -999.2500       63.2000        5.1165        5.7752        4.3053     -999.2500     -999.2500      106.7000 
   774.496666     -999.2500       64.1000        5.2026        5.9785        3.8548     -999.2500     -999.2500      106.1000 
   774.649090     -999.2500       64.8000        5.0946        5.8148        3.2285     -999.2500     -999.2500      105.7000 
   774.801414     -999.2500       65.2000        4.8144        5.4072        2.6424     -999.2500     -999.2500      105.6000 
   774.953838     -999.2500       65.3000        4.4464        4.8482        2.3823     -999.2500     -999.2500      105.6000 
   775.106262     -999.2500       66.7000        4.0723        4.2722        2.2336     -999.2500     -999.2500      106.0000 
   775.258686     -999.2500       69.3000        3.7744        3.7758        2.1086     -999.2500     -999.2500      106.4000 
   775.411010     -999.2500       72.0000        3.5724        3.4097        2.4491     -999.2500     -999.2500      106.8000 
   775.563434     -999.2500       74.0000        3.4619        3.1895        3.5563     -999.2500     -999.2500      107.1000 
   775.715858     -999.2500       74.9000        3.4239        3.1126        4.0644     -999.2500     -999.2500      107.2000 
   775.868282     -999.2500       75.1000        3.4390        3.1769        4.1495     -999.2500     -999.2500      107.2000 
   776.020606     -999.2500       73.7000        3.4992        3.4303        3.9084     -999.2500     -999.2500      107.2000 
   776.173030     -999.2500       71.5000        3.6071        3.7722        3.6728     -999.2500     -999.2500      107.1000 
   776.325454     -999.2500       71.6000        3.7621        4.1306        3.4914     -999.2500     -999.2500      106.8000 
   776.477878     -999.2500       73.3000        3.9074        4.4331        3.2584     -999.2500     -999.2500      106.8000 
   776.630202     -999.2500       72.9000        3.9530        4.5816        2.8379     -999.2500     -999.2500      106.7000 
   776.782626     -999.2500       70.9000        3.8333        4.4164        2.4322     -999.2500     -999.2500      107.4000 
   776.935050     -999.2500       70.9000        3.5488        3.9174        2.0797     -999.2500     -999.2500      108.0000 
   777.087474     -999.2500       72.9000        3.1786        3.3924        1.6558     -999.2500     -999.2500      108.3000 
   777.239898     -999.2500       73.8000        2.8234        2.8962        1.5311     -999.2500     -999.2500      108.6000 
   777.392222     -999.2500       72.5000        2.5297        2.4947        1.4757     -999.2500     -999.2500      108.5000 
   777.544646     -999.2500       71.4000        2.3055        2.2022        1.6255     -999.2500     -999.2500      108.6000 
   777.697070     -999.2500       71.7000        2.1406        2.0121        1.7179     -999.2500     -999.2500      108.2000 
   777.849494     -999.2500       70.9000        2.0177        1.9043        1.7458     -999.2500     -999.2500      107.7000 
   778.001818     -999.2500       68.1000        1.9346        1.8588        1.7498     -999.2500     -999.2500      107.5000 
   778.154242     -999.2500       63.7000        1.8930        1.8406        1.7498     -999.2500     -999.2500      107.4000 
   778.306666     -999.2500       60.1000        1.8950        1.8395        1.8072     -999.2500     -999.2500      107.2000 
   778.459090     -999.2500       58.3000        1.9394        1.8682        1.9409     -999.2500     -999.2500      107.3000 
   778.611414     -999.2500       57.7000        2.0083        1.9307        2.0701     -999.2500     -999.2500      107.6000 
   778.763838     -999.2500       57.5000        2.0812        2.0201        2.0512     -999.2500     -999.2500      107.6000 
   778.916262     -999.2500       57.0000        2.1413        2.1194        1.8967     -999.2500     -999.2500      107.7000 
   779.068686     -999.2500       56.5000        2.1932        2.2001        1.8197     -999.2500     -999.2500      107.8000 
   779.221010     -999.2500       57.0000        2.2448        2.2435        1.8197     -999.2500     -999.2500      107.6000 
   779.373434     -999.2500       58.5000        2.3015        2.2554        1.8967     -999.2500     -999.2500      107.5000 
   779.525858     -999.2500       59.8000        2.3612        2.2616        2.0941     -999.2500     -999.2500      107.2000 
   779.678282     -999.2500       60.5000        2.4140        2.2804        2.2909     -999.2500     -999.2500      106.8000 
   779.830606     -999.2500       63.2000        2.4436        2.3356        2.2439     -999.2500     -999.2500      107.0000 
   779.983030     -999.2500       69.8000        2.4534        2.4081        2.1677     -999.2500     -999.2500      107.4000 
   780.135454     -999.2500       77.6000        2.4416        2.4742        2.0464     -999.2500     -999.2500      107.4000 
   780.287878     -999.2500       82.0000        2.4114        2.5139        1.8707     -999.2500     -999.2500      107.1000 
   780.440202     -999.2500       81.4000        2.3649        2.5098        1.6982     -999.2500     -999.2500      107.0000 
   780.592626     -999.2500       78.3000        2.2988        2.4138        1.5382     -999.2500     -999.2500      107.1000 
   780.745050     -999.2500       75.4000        2.2178        2.2352        1.5241     -999.2500     -999.2500      107.0000 
   780.897474     -999.2500       72.2000        2.1326        2.0742        1.5740     -999.2500     -999.2500      106.9000 
   781.049898     -999.2500       68.9000        2.0499        1.9774        1.6032     -999.2500     -999.2500      106.7000 
   781.202222     -999.2500       68.0000        1.9742        1.9193        1.6069     -999.2500     -999.2500      106.6000 
   781.354646     -999.2500       70.3000        1.9059        1.8890        1.5996     -999.2500     -999.2500      106.8000 
   781.507070     -999.2500       72.7000        1.8516        1.8736        1.5812     -999.2500     -999.2500      107.5000 
   781.659494     -999.2500       73.5000        1.8079        1.8564        1.5668     -999.2500     -999.2500      107.9000 
   781.811818     -999.2500       73.1000        1.7772        1.8296        1.5241     -999.2500     -999.2500      108.2000 
   781.964242     -999.2500       71.7000        1.7558        1.7954        1.4859     -999.2500     -999.2500      108.0000 
   782.116666     -999.2500       69.3000        1.7465        1.7542        1.4757     -999.2500     -999.2500      107.9000 
   782.269090     -999.2500       67.5000        1.7458        1.7374        1.5560     -999.2500     -999.2500      107.9000 
   782.421414     -999.2500       67.1000        1.7572        1.7581        1.6482     -999.2500     -999.2500      107.5000 
   782.573838     -999.2500       67.5000        1.7772        1.8185        1.6827     -999.2500     -999.2500      107.3000 
