~Version
VERS.           2.0   :CWLS Log ASCII Standard - VERSION 2.0
WRAP.           NO   :One line per index step
~Well
#  MNEM.UNIT                             DATA:  DESCRIPTION      
#-----------             ---------------------  -----------------
STRT  .M        131.9780                     : START INDEX
STOP  .M       1012.2404                     : STOP INDEX
STEP  .M          0.1524                     : STEP
NULL  .       -999.25                        : NULL VALUE
COMP  .                                      : COMPANY
WELL  .       AB-1                           : WELL
FLD   .       AB                       : FIELD
LOC   .                                      : LOCATION
PROV  .                                      : PROVINCE
CNTY  .                                      : COUNTY
STAT  .                                      : STATE
CTRY  .                                      : COUNTRY
SRVC  .                                      : SERVICE COMPANY
API   .                                      : API NUMBER
UWI   .       AB-1		                     : UNIQUE WELL ID
LATI  .DEG                                   : LATITUDE
LONG  .DEG                                   : LONGITUDE
~Curve
#  MNEM.UNIT                        LOG CODES:  CURVE DESCRIPTION
#-----------             ---------------------  -----------------
DEPT  .M                                     : Depth Index
CALI  .IN                                    : 
GR    .GAPI                                  : 
ILD   .ohmm                                  : 
ILM   .ohmm                                  : 
NPHI  .M3M3                                  : 
RHOB  .G/C3                                  : 
SP    .MV                                    : 
LL3   .ohmm                                  : 
#
#----------------------------------------------------------------------------------------------------------------------------
# DEPT          CALI          GR            ILD           ILM           NPHI          RHOB          SP            LL3           
# 
~Ascii
# ...
   420.014040     -999.2500       39.1000        6.7411        6.1742        0.3800     -999.2500       88.6551        6.0814 
   420.166464     -999.2500       39.7000        6.7825        6.2441        0.3904     -999.2500       89.0367        6.0534 
   420.318888     -999.2500       40.7000        6.7820        6.2774        0.3996     -999.2500       89.8963        6.0256 
   420.471212     -999.2500       41.6000        6.7396        6.2582        0.4037     -999.2500       90.0896        5.9841 
   420.623636     -999.2500       41.1000        6.6561        6.1851        0.4072     -999.2500       89.8276        5.9841 
   420.776060     -999.2500       39.2000        6.5403        6.0740        0.4103     -999.2500       89.8000        5.9979 
   420.928484     -999.2500       37.3000        6.4065        5.9270        0.4103     -999.2500       89.8931        6.0256 
   421.080808     -999.2500       38.2000        6.2736        5.7509        0.4128     -999.2500       90.0885        5.9979 
   421.233232     -999.2500       41.4000        6.1514        5.5681        0.4263     -999.2500       90.2908        5.9293 
   421.385656     -999.2500       44.3000        6.0355        5.4063        0.4449     -999.2500       90.5897        5.7280 
   421.538080     -999.2500       46.0000        5.9340        5.2966        0.4516     -999.2500       90.7954        5.5081 
   421.690404     -999.2500       47.8000        5.8439        5.2360        0.4415     -999.2500       90.7011        5.3703 
   421.842828     -999.2500       50.1000        5.7605        5.2120        0.4322     -999.2500       90.7000        5.2966 
   421.995252     -999.2500       50.7000        5.7126        5.2000        0.4391     -999.2500       90.8000        5.2845 
   422.147676     -999.2500       48.6000        5.6890        5.2000        0.4463     -999.2500       90.9000        5.3580 
   422.300000     -999.2500       45.9000        5.7014        5.2240        0.4400     -999.2500       91.0000        5.4702 
   422.452424     -999.2500       44.7000        5.7508        5.2723        0.4297     -999.2500       91.1000        5.4702 
   422.604848     -999.2500       44.9000        5.7896        5.3211        0.4273     -999.2500       90.8000        5.5081 
   422.757272     -999.2500       44.4000        5.8277        5.3580        0.4248     -999.2500       90.4000        5.5208 
   422.909696     -999.2500       42.0000        5.8450        5.3827        0.4118     -999.2500       90.2000        5.5208 
   423.062020     -999.2500       38.5000        5.8479        5.3703        0.4006     -999.2500       90.0000        5.5463 
   423.214444     -999.2500       37.4000        5.8388        5.3334        0.4062     -999.2500       90.0000        5.6105 
   423.366868     -999.2500       39.2000        5.8260        5.2723        0.4173     -999.2500       90.1000        5.5847 
   423.519292     -999.2500       41.7000        5.8288        5.2240        0.4173     -999.2500       90.2000        5.5081 
   423.671616     -999.2500       43.7000        5.8486        5.1880        0.4093     -999.2500       90.5000        5.4702 
   423.824040     -999.2500       45.8000        5.8871        5.2000        0.4113     -999.2500       90.4000        5.4325 
   423.976464     -999.2500       48.3000        5.9505        5.2481        0.4258     -999.2500       90.2000        5.3703 
   424.128888     -999.2500       48.9000        6.0395        5.3457        0.4356     -999.2500       90.0000        5.4702 
   424.281212     -999.2500       47.3000        6.1552        5.4702        0.4273     -999.2500       90.1000        5.6494 
   424.433636     -999.2500       45.4000        6.2952        5.6755        0.4103     -999.2500       90.1000        5.6755 
   424.586060     -999.2500       45.7000        6.4351        5.9566        0.4082     -999.2500       90.4000        5.7677 
   424.738484     -999.2500       49.5000        6.5240        6.2087        0.4337     -999.2500       91.0000        6.6069 
   424.890808     -999.2500       54.1000        6.5597        6.2230        0.4716     -999.2500       91.3000        6.7453 
   425.043232     -999.2500       56.0000        6.5443        6.0534        0.4934     -999.2500       91.3000        6.5766 
   425.195656     -999.2500       54.4000        6.5155        5.8614        0.4815     -999.2500       91.2000        6.6069 
   425.348080     -999.2500       51.9000        6.4730        5.7853        0.4526     -999.2500       90.8000        6.6069 
   425.500404     -999.2500       52.3000        6.4307        5.7284        0.4278     -999.2500       90.8000        5.8614 
   425.652828     -999.2500       54.7000        6.3759        5.6765        0.4128     -999.2500       90.8000        5.6755 
   425.805252     -999.2500       56.1000        6.3087        5.6256        0.4057     -999.2500       90.7000        5.7017 
   425.957676     -999.2500       55.0000        6.2292        5.5819        0.4098     -999.2500       90.9000        5.7280 
   426.110000     -999.2500       53.6000        6.1783        5.5500        0.4253     -999.2500       91.1000        5.7017 
   426.262424     -999.2500       54.1000        6.1472        5.5242        0.4468     -999.2500       90.9000        5.6755 
   426.414848     -999.2500       55.2000        6.1118        5.5022        0.4671     -999.2500       90.6000        5.6364 
   426.567272     -999.2500       55.8000        6.0797        5.4803        0.4904     -999.2500       90.5000        5.6364 
   426.719696     -999.2500       56.2000        6.0532        5.4534        0.5222     -999.2500       90.4000        5.5208 
   426.872020     -999.2500       57.6000        6.0331        5.4172        0.5503     -999.2500       90.4000        5.5081 
   427.024444     -999.2500       59.2000        6.0143        5.3966        0.5508     -999.2500       90.3000        5.5081 
   427.176868     -999.2500       59.0000        5.9930        5.3877        0.5218     -999.2500       90.8000        5.5463 
   427.329292     -999.2500       57.6000        5.9799        5.3964        0.4894     -999.2500       91.8000        5.5847 
   427.481616     -999.2500       55.4000        5.9704        5.4172        0.4706     -999.2500       92.6000        5.6494 
   427.634040     -999.2500       53.6000        5.9676        5.4299        0.4546     -999.2500       91.9000        5.6494 
   427.786464     -999.2500       52.5000        5.9545        5.4297        0.4312     -999.2500       91.7000        5.6494 
   427.938888     -999.2500       51.7000        5.9374        5.4188        0.4062     -999.2500       91.6000        5.6105 
   428.091212     -999.2500       52.0000        5.8843        5.3821        0.3929     -999.2500       91.7000        5.5463 
   428.243636     -999.2500       52.7000        5.8077        5.2377        0.3940     -999.2500       91.6000        5.4450 
   428.396060     -999.2500       53.7000        5.6392        5.0268        0.4072     -999.2500       91.4000        5.3334 
   428.548484     -999.2500       55.8000        5.4628        4.8284        0.4297     -999.2500       91.2000        5.2845 
   428.700808     -999.2500       58.5000        5.3334        4.6962        0.4581     -999.2500       91.9000        5.2481 
   428.853232     -999.2500       61.3000        5.3507        4.6952        0.4845     -999.2500       91.3000        5.1761 
   429.005656     -999.2500       62.6000        5.5208        4.8204        0.4914     -999.2500       89.2000        5.1404 
   429.158080     -999.2500       62.4000        5.6755        5.0144        0.4691     -999.2500       89.2000        5.0933 
   429.310404     -999.2500       62.1000        5.8614        5.2542        0.4292     -999.2500       89.9000        5.0583 
   429.462828     -999.2500       60.8000        6.0954        5.4954        0.3940     -999.2500       91.4000        5.2120 
