~Version
VERS.           2.0   :CWLS Log ASCII Standard - VERSION 2.0
WRAP.           NO   :One line per index step
~Well
#  MNEM.UNIT                             DATA:  DESCRIPTION      
#-----------             ---------------------  -----------------
STRT  .M        149.0470                     : START INDEX
STOP  .M       1003.7062                     : STOP INDEX
STEP  .M          0.1524                     : STEP
NULL  .       -999.25                        : NULL VALUE
COMP  .                                      : COMPANY
WELL  .       AC-2                           : WELL
FLD   .       AC                             : FIELD
LOC   .                                      : LOCATION
PROV  .                                      : PROVINCE
CNTY  .                                      : COUNTY
STAT  .                                      : STATE
CTRY  .                                      : COUNTRY
SRVC  .                                      : SERVICE COMPANY
API   .                                      : API NUMBER
UWI   .       AC-2		                     : UNIQUE WELL ID
LATI  .DEG                                   : LATITUDE
LONG  .DEG                                   : LONGITUDE
~Curve
#  MNEM.UNIT                        LOG CODES:  CURVE DESCRIPTION
#-----------             ---------------------  -----------------
DEPT  .M                                     : Depth Index
CALI  .IN                                    : 
GR    .GAPI                                  : 
ILD   .ohmm                                  : 
ILM   .ohmm                                  : 
LLG3  .ohmm                                  : 
NPHI  .M3M3                                  : 
RHOB  .G/C3                                  : 
SP    .MV                                    : 
#
#----------------------------------------------------------------------------------------------------------------------------
# DEPT          CALI          GR            ILD           ILM           LLG3          NPHI          RHOB          SP            
# 
~Ascii
# ...
   715.517878     -999.2500       80.9000        0.9382        0.9619        1.0257     -999.2500     -999.2500      115.8957 
   715.670202     -999.2500       87.9000        0.9025        0.8844        1.0233     -999.2500     -999.2500      115.9343 
   715.822626     -999.2500      100.9000        0.8706        0.8145        1.0069     -999.2500     -999.2500      115.7676 
   715.975050     -999.2500      115.6000        0.8471        0.8003        1.0023     -999.2500     -999.2500      115.6333 
   716.127474     -999.2500      122.1000        0.8327        0.8059        0.9795     -999.2500     -999.2500      115.6000 
   716.279898     -999.2500      113.7000        0.8267        0.8200        0.9528     -999.2500     -999.2500      115.8029 
   716.432222     -999.2500       97.7000        0.8259        0.8385        0.9120     -999.2500     -999.2500      115.9000 
   716.584646     -999.2500       85.3000        0.8339        0.8617        0.9247     -999.2500     -999.2500      116.0372 
   716.737070     -999.2500       79.9000        0.8516        0.8880        0.9247     -999.2500     -999.2500      116.2382 
   716.889494     -999.2500       78.3000        0.8813        0.9099        0.9419     -999.2500     -999.2500      116.0911 
   717.041818     -999.2500       78.5000        0.9237        0.9327        0.9840     -999.2500     -999.2500      115.9299 
   717.194242     -999.2500       80.6000        0.9690        0.9563        1.0162     -999.2500     -999.2500      115.7588 
   717.346666     -999.2500       83.1000        1.0093        0.9867        1.0495     -999.2500     -999.2500      115.6290 
   717.499090     -999.2500       84.3000        1.0357        1.0200        0.9931     -999.2500     -999.2500      115.6000 
   717.651414     -999.2500       84.1000        1.0471        1.0496        1.0544     -999.2500     -999.2500      115.6720 
   717.803838     -999.2500       84.4000        1.0471        1.0715        1.0715     -999.2500     -999.2500      115.7000 
   717.956262     -999.2500       84.7000        1.0426        1.0798        1.1015     -999.2500     -999.2500      115.5540 
   718.108686     -999.2500       83.2000        1.0402        1.0691        1.0864     -999.2500     -999.2500      115.4265 
   718.261010     -999.2500       81.6000        1.0379        1.0420        1.0617     -999.2500     -999.2500      115.5478 
   718.413434     -999.2500       83.9000        1.0296        1.0155        0.9886     -999.2500     -999.2500      115.5256 
   718.565858     -999.2500       90.3000        1.0168        1.0005        0.9572     -999.2500     -999.2500      115.3501 
   718.718282     -999.2500       94.7000        1.0069        0.9966        0.9908     -999.2500     -999.2500      115.1492 
   718.870606     -999.2500       92.2000        1.0080        0.9962        1.0495     -999.2500     -999.2500      115.1759 
   719.023030     -999.2500       86.0000        1.0270        0.9927        1.0641     -999.2500     -999.2500      115.1236 
   719.175454     -999.2500       81.9000        1.0685        1.0005        1.0423     -999.2500     -999.2500      115.0231 
   719.327878     -999.2500       82.1000        1.1260        1.0436        1.0375     -999.2500     -999.2500      115.0773 
   719.480202     -999.2500       85.5000        1.1918        1.1396        1.0423     -999.2500     -999.2500      115.0222 
   719.632626     -999.2500       90.7000        1.2594        1.2470        1.0593     -999.2500     -999.2500      114.7652 
   719.785050     -999.2500       96.8000        1.3236        1.3568        1.2359     -999.2500     -999.2500      115.1725 
   719.937474     -999.2500      103.4000        1.3821        1.4467        1.4289     -999.2500     -999.2500      115.2207 
   720.089898     -999.2500      108.5000        1.4326        1.5027        1.4421     -999.2500     -999.2500      115.2797 
   720.242222     -999.2500      109.8000        1.4669        1.5146        1.4028     -999.2500     -999.2500      115.4604 
   720.394646     -999.2500      107.8000        1.4730        1.4855        1.4093     -999.2500     -999.2500      115.5000 
   720.547070     -999.2500      103.6000        1.4471        1.4290        1.3397     -999.2500     -999.2500      115.4188 
   720.699494     -999.2500       98.0000        1.3965        1.3578        1.2417     -999.2500     -999.2500      115.4816 
   720.851818     -999.2500       91.6000        1.3314        1.2892        1.1695     -999.2500     -999.2500      115.1713 
   721.004242     -999.2500       85.9000        1.2639        1.2304        1.1143     -999.2500     -999.2500      114.8521 
   721.156666     -999.2500       84.0000        1.1961        1.1822        1.0889     -999.2500     -999.2500      114.7169 
   721.309090     -999.2500       84.9000        1.1347        1.1388        1.1041     -999.2500     -999.2500      114.7000 
   721.461414     -999.2500       87.1000        1.0819        1.0984        1.1015     -999.2500     -999.2500      114.7840 
   721.613838     -999.2500       93.4000        1.0427        1.0609        1.1143     -999.2500     -999.2500      114.7154 
   721.766262     -999.2500      103.3000        1.0155        1.0279        1.0740     -999.2500     -999.2500      114.6149 
   721.918686     -999.2500      110.4000        0.9954        1.0022        1.0471     -999.2500     -999.2500      114.6855 
   722.071010     -999.2500      108.2000        0.9795        0.9853        1.0375     -999.2500     -999.2500      114.6140 
   722.223434     -999.2500       99.1000        0.9683        0.9760        1.0495     -999.2500     -999.2500      114.6000 
   722.375858     -999.2500       89.9000        0.9594        0.9701        1.0715     -999.2500     -999.2500      114.7738 
   722.528282     -999.2500       83.6000        0.9594        0.9694        1.0889     -999.2500     -999.2500      115.0624 
   722.680606     -999.2500       80.7000        0.9683        0.9769        1.0740     -999.2500     -999.2500      115.0120 
   722.833030     -999.2500       80.5000        0.9840        0.9945        1.0568     -999.2500     -999.2500      115.0000 
   722.985454     -999.2500       81.3000        1.0000        1.0190        1.0740     -999.2500     -999.2500      114.9111 
   723.137878     -999.2500       80.5000        1.0116        1.0372        1.1015     -999.2500     -999.2500      114.7212 
   723.290202     -999.2500       79.8000        1.0163        1.0406        1.1324     -999.2500     -999.2500      114.7000 
   723.442626     -999.2500       81.6000        1.0139        1.0279        1.1830     -999.2500     -999.2500      114.8807 
   723.595050     -999.2500       85.3000        1.0139        1.0094        1.1561     -999.2500     -999.2500      114.9908 
   723.747474     -999.2500       86.4000        1.0139        0.9958        1.1092     -999.2500     -999.2500      115.0000 
   723.899898     -999.2500       82.7000        1.0163        0.9931        1.0471     -999.2500     -999.2500      114.8164 
   724.052222     -999.2500       78.9000        1.0233        0.9998        1.0593     -999.2500     -999.2500      114.7077 
   724.204646     -999.2500       78.8000        1.0304        1.0141        1.0789     -999.2500     -999.2500      114.4217 
   724.357070     -999.2500       81.2000        1.0375        1.0364        1.0641     -999.2500     -999.2500      114.2135 
   724.509494     -999.2500       81.2000        1.0451        1.0610        1.0889     -999.2500     -999.2500      114.1062 
   724.661818     -999.2500       76.9000        1.0464        1.0808        1.1803     -999.2500     -999.2500      114.1000 
   724.814242     -999.2500       71.5000        1.0416        1.0874        1.1722     -999.2500     -999.2500      114.1000 
   724.966666     -999.2500       69.2000        1.0307        1.0752        1.2589     -999.2500     -999.2500      114.0048 
