~VERSION INFORMATION
VERS.         2.0        : CWLS LOG ASCII STANDARD VERSION 2.0
WRAP.         NO         : ONE LINE PER DEPTH STEP
~WELL INFORMATION
STRT.M     181.20400                                                            :START DEPTH
STOP.M    1243.43200                                                            :STOP DEPTH
STEP.M       0.15240                                                            :STEP
NULL.          -999.25                                                          : NULL VALUE
WELL.          B-1                                                            : WELL NAME
~CURVE INFORMATION
DEPT.m          00 000 00 00                                                     : Depth Index
CALI.in         00 000 00 00                                                     :
DT.us/ft        00 000 00 00                                                     :
GR.gAPI         00 000 00 00                                                     :
LLD.ohmm        00 000 00 00                                                     :
NPHI.m3/m3      00 000 00 00                                                     :
RHOB.g/cm3      00 000 00 00                                                     :
~Ascii Log Data
# ...
    738.07360      9.24000     91.11530     35.00000      3.84610      0.22040      2.46740
    738.22600      9.29820     88.74350     34.30000      3.91110      0.21410      2.47570
    738.37840      9.51560     89.90000     36.50000      3.85740      0.22080      2.47300
    738.53080      9.74270     96.20000     42.80000      3.58100      0.24060      2.44800
    738.68320      9.71360    107.00000     51.90000      3.06900      0.27460      2.39700
    738.83560      9.92660    118.00000     61.30000      2.54100      0.33200      2.33000
    738.98800     10.10830    125.40000     68.40000      2.00910      0.39340      2.27500
    739.14040     10.19540    127.90000     72.10000      1.72190      0.42330      2.25400
    739.29280     10.07900    126.40000     73.30000      1.61440      0.41600      2.26000
    739.44520     10.02820    124.60000     74.20000      1.60330      0.40480      2.26900
    739.59760     10.02090    125.80000     76.10000      1.61060      0.40330      2.26200
    739.75000     10.05000    129.30000     78.70000      1.59960      0.41270      2.24200
    739.90240     10.03400    132.60000     80.20000      1.50440      0.42720      2.21600
    740.05480      9.90390    135.40000     80.20000      1.39630      0.43980      2.19300
    740.20720      9.83200    137.10000     81.00000      1.28240      0.44610      2.17800
    740.35960      9.84000    137.40000     83.70000      1.21000      0.44670      2.17000
    740.51200      9.80000    138.00000     86.80000      1.17680      0.44580      2.16500
    740.66440      9.80000    139.30000     88.70000      1.14930      0.44720      2.16400
    740.81680      9.94420    140.20000     89.90000      1.15350      0.44650      2.16400
    740.96920     10.07200    140.70000     92.20000      1.15820      0.44710      2.16360
    741.12160     10.09000    140.90000     94.40000      1.15460      0.45830      2.15870
    741.27400      9.97000    141.00000     94.10000      1.15520      0.47220      2.15000
    741.42640     10.03000    141.30000     92.50000      1.15320      0.48890      2.14430
    741.57880     10.07050    142.50000     91.30000      1.15790      0.49160      2.14300
    741.73120     10.13950    144.00000     90.20000      1.16410      0.48490      2.14390
    741.88360     10.08760    144.80000     88.00000      1.16180      0.47560      2.14500
    742.03600      9.91970    144.90000     85.60000      1.17190      0.46580      2.15030
    742.18840      9.90940    144.70000     85.80000      1.16950      0.45700      2.15570
    742.34080     10.35190    144.60000     87.60000      1.16680      0.45010      2.15770
    742.49320     10.41610    145.50000     88.60000      1.15080      0.44400      2.16130
    742.64560      9.91910    144.40000     87.30000      1.20230      0.43580      2.17600
    742.79800      9.88900    138.60000     82.90000      1.30020      0.42210      2.20660
    742.95040      9.85770    130.30000     75.90000      1.47230      0.40060      2.24820
    743.10280      9.81480    122.30000     68.50000      1.71790      0.37250      2.28680
    743.25520     10.18810    116.20000     63.50000      1.96340      0.34830      2.30900
    743.40760     10.78190    114.86720     61.20000      2.11840      0.33780      2.31200
    743.56000     10.59740    116.02230     60.60000      2.21890      0.34080      2.31000
    743.71240     10.18110    117.26630     61.20000      2.20030      0.34210      2.30800
    743.86480     10.20700    118.47800     62.20000      2.10560      0.33880      2.30600
    744.01720     10.32120    119.81060     63.00000      2.01860      0.33640      2.30000
    744.16960     10.34260    120.99950     63.30000      1.93920      0.34130      2.29100
    744.32200     10.39020    121.82180     63.50000      1.88860      0.35730      2.28000
    744.47440     10.51640    122.79930     64.60000      1.87930      0.38030      2.27100
    744.62680     10.36240    124.40000     66.30000      1.88800      0.39610      2.26390
    744.77920     10.60470    125.92880     67.40000      1.93200      0.39090      2.26640
    744.93160     10.17610    124.75860     66.90000      2.02770      0.37160      2.28570
    745.08400     10.03700    121.14660     65.30000      2.13800      0.35800      2.31770
    745.23640     10.24120    116.28570     63.70000      2.25420      0.35630      2.34810
    745.38880     10.49860    113.11490     62.60000      2.39330      0.35770      2.36270
    745.54120     10.86760    112.25710     62.00000      2.41550      0.36390      2.35500
    745.69360     10.74700    112.70000     62.60000      2.32270      0.38200      2.33190
    745.84600     10.77820    117.60000     65.90000      2.14290      0.41080      2.29330
    745.99840     11.28680    126.40000     72.90000      1.86640      0.43960      2.24500
    746.15080     11.18380    136.50000     81.40000      1.52760      0.46010      2.19830
    746.30320     10.46730    146.90000     88.10000      1.35210      0.47370      2.16180
    746.45560      9.71380    153.40000     90.40000      1.23590      0.48610      2.13930
    746.60800      9.59000    154.60000     89.40000      1.19120      0.50100      2.12890
    746.76040      9.58880    154.10000     89.00000      1.23590      0.51410      2.12490
    746.91280      9.57370    153.70000     89.60000      1.28230      0.51920      2.12400
    747.06520      9.55980    152.80000     89.90000      1.27850      0.51600      2.12760
    747.21760      9.83030    151.80000     88.60000      1.27180      0.50850      2.13270
    747.37000     10.33080    150.50000     87.70000      1.26640      0.50060      2.14070
    747.52240     10.57610    148.10000     89.20000      1.27140      0.49420      2.15070
    747.67480     10.48430    146.10000     92.00000      1.28700      0.49010      2.16000
    747.82720     10.42950    145.60000     94.60000      1.26350      0.48770      2.16670
    747.97960     10.26830    146.90000     96.60000      1.24160      0.48500      2.17040
    748.13200     10.03000    149.80000     96.80000      1.22150      0.47990      2.17190
    748.28440     10.01290    153.62700     96.50000      1.18890      0.46290      2.17100
    748.43680      9.89450    156.79870     97.50000      1.15360      0.45840      2.15870
    748.58920      9.80070    158.77070     99.00000      1.14020      0.46540      2.14000
    748.74160      9.97160    159.68550    100.50000      1.14020      0.47500      2.12200
    748.89400      9.74770    159.82860     99.80000      1.12730      0.48330      2.11230
    749.04640      9.61940    158.85760     97.70000      1.10780      0.48720      2.11900
    749.19880      9.75290    156.80000     96.60000      1.13420      0.48580      2.14200
    749.35120      9.66600    154.13440     97.30000      1.16950      0.47630      2.15710
    749.50360      9.49710    150.53300     97.70000      1.25310      0.45950      2.16990
    749.65600      9.92970    146.60100     94.00000      1.33350      0.44000      2.18230
    749.80840     10.33900    142.54370     87.20000      1.52060      0.41920      2.19590
    749.96080     10.45480    138.50140     82.70000      1.64060      0.40060      2.21010
    750.11320     10.61970    134.83500     82.50000      1.70220      0.38760      2.22360
    750.26560     10.67000    132.07860     83.90000      1.73380      0.38050      2.23660
    750.41800     10.53170    130.56680     83.10000      1.70220      0.38010      2.25080
    750.57040     10.46000    130.30000     80.60000      1.63680      0.40440      2.26500
    750.72280     10.39250    131.00000     80.30000      1.61060      0.43200      2.27300
    750.87520     10.11860    131.30000     81.60000      1.64820      0.42590      2.27600
    751.02760     10.02260    129.80000     81.30000      1.73380      0.39880      2.28100
    751.18000      9.96880    127.10000     78.80000      1.83650      0.39070      2.29300
