~VERSION INFORMATION
VERS.         2.0        : CWLS LOG ASCII STANDARD VERSION 2.0
WRAP.         NO         : ONE LINE PER DEPTH STEP
~WELL INFORMATION
STRT.M     181.20400                                                            :START DEPTH
STOP.M    1243.43200                                                            :STOP DEPTH
STEP.M       0.15240                                                            :STEP
NULL.          -999.25                                                          : NULL VALUE
WELL.          B-1                                                            : WELL NAME
~CURVE INFORMATION
DEPT.m          00 000 00 00                                                     : Depth Index
CALI.in         00 000 00 00                                                     :
DT.us/ft        00 000 00 00                                                     :
GR.gAPI         00 000 00 00                                                     :
LLD.ohmm        00 000 00 00                                                     :
NPHI.m3/m3      00 000 00 00                                                     :
RHOB.g/cm3      00 000 00 00                                                     :
~Ascii Log Data
# ...
   1162.35520     10.12710     97.05850    114.10000      4.08400      0.40090      2.52900
   1162.50760     10.33230    100.56910    119.00000      3.93950      0.41770      2.46200
   1162.66000     10.47180    102.68990    121.00000      3.90840      0.43400      2.42800
   1162.81240     10.54680    103.14090    120.40000      4.00400      0.44600      2.44100
   1162.96480     10.57920    102.86160    119.00000      4.11810      0.45130      2.46300
   1163.11720     10.38230    100.76110    117.50000      4.18900      0.44270      2.46170
   1163.26960      9.76000     98.47720    116.80000      4.16030      0.42310      2.45350
   1163.42200      9.74020     97.30780    117.60000      4.11960      0.40340      2.46360
   1163.57440      9.75040     97.63330    119.50000      4.06350      0.39370      2.49160
   1163.72680      9.76000     99.48820    121.80000      4.05270      0.39610      2.51860
   1163.87920      9.75700    101.28450    124.10000      4.17850      0.40440      2.53350
   1164.03160      9.71630    101.69500    127.10000      4.34790      0.41180      2.54020
   1164.18400      9.67560    100.61520    130.40000      4.60870      0.41640      2.54020
   1164.33640      9.63870     98.58590    131.80000      4.68410      0.41910      2.53800
   1164.48880      9.63000     96.62170    131.30000      4.63500      0.41800      2.54090
   1164.64120      9.63000     95.33850    130.20000      4.35560      0.41020      2.55160
   1164.79360      9.62100     95.06140    127.90000      4.08270      0.40050      2.56270
   1164.94600      9.57610     95.87680    123.50000      3.68320      0.39340      2.56780
   1165.09840      9.56860     97.28370    119.80000      3.42920      0.38960      2.57260
   1165.25080      9.64860     98.26920    120.30000      3.27210      0.38900      2.58420
   1165.40320      9.82000     98.62820    125.10000      3.18330      0.39220      2.59350
   1165.55560      9.85530     98.83330    127.90000      3.02330      0.40010      2.58620
   1165.70800      9.87280     99.38430    124.70000      2.94770      0.41140      2.56740
   1165.86040      9.88000    101.03630    118.00000      2.95760      0.42230      2.55290
   1166.01280      9.88000    102.93850    112.90000      2.94460      0.42870      2.54510
   1166.16520      9.87660    103.40000    113.00000      3.09030      0.43000      2.53960
   1166.31760      9.85590    102.44650    116.80000      3.14790      0.43020      2.53590
   1166.47000      9.83000    101.21590    120.30000      3.13250      0.43270      2.53500
   1166.62240      9.83390    100.32290    120.60000      3.38600      0.43590      2.53500
   1166.77480      9.75080     99.85120    116.20000      3.69950      0.44340      2.53660
   1166.92720      9.61160     97.55650    108.50000      4.02850      0.45420      2.53870
   1167.07960      9.63080     92.68620    100.40000      4.51270      0.41540      2.54160
   1167.23200      9.62890     88.69360     96.00000      5.18050      0.33350      2.55100
   1167.38440      9.63210     87.33060     97.50000      5.71770      0.30280      2.56790
   1167.53680      9.70970     88.30000    103.20000      5.63640      0.30910      2.57770
   1167.68920      9.62820     91.40590    108.30000      5.54490      0.32820      2.57400
   1167.84160      9.47200     94.60030    110.10000      5.27400      0.35120      2.56200
   1167.99400      9.50160     96.64700    109.60000      4.74570      0.37800      2.54900
   1168.14640      9.57560     98.98870    110.10000      4.18940      0.40720      2.53400
   1168.29880      9.70720    102.07060    114.80000      3.83260      0.42780      2.50900
   1168.45120      9.86560    104.13530    123.30000      3.75600      0.44020      2.47700
   1168.60360      9.75670    103.81720    132.30000      3.91100      0.44060      2.45200
   1168.75600      9.62850    101.02940    137.10000      4.24770      0.43210      2.45300
   1168.90840      9.61000     96.65270    134.50000      4.87530      0.41550      2.49000
   1169.06080      9.63000     91.96820    126.70000      5.64940      0.38520      2.55100
   1169.21320      9.66050     88.42410    119.00000      6.39740      0.36360      2.60000
   1169.36560      9.67000     87.23470    116.50000      6.82340      0.35230      2.61800
   1169.51800      9.68440     88.31730    119.20000      6.88650      0.35320      2.61000
   1169.67040      9.69730     90.43930    124.00000      6.60690      0.36530      2.59200
   1169.82280      9.73010     92.72330    127.50000      6.28060      0.38280      2.57600
   1169.97520      9.64770     94.43480    127.70000      5.58470      0.39520      2.57000
   1170.12760      9.58060     95.00000    127.00000      5.34570      0.39680      2.57400
   1170.28000      9.55390     94.60000    127.50000      5.40070      0.38960      2.57900
   1170.43240      9.53360     93.80000    128.90000      5.62630      0.38030      2.57900
   1170.58480      9.54680     92.50000    129.20000      5.81290      0.37390      2.57900
   1170.73720      9.53290     92.00000    126.90000      6.14100      0.37240      2.58400
   1170.88960      9.53000     92.20000    124.10000      6.37290      0.37780      2.59100
   1171.04200      9.37840     92.50000    124.10000      6.32490      0.39220      2.59000
   1171.19440      9.24190     94.40000    127.90000      6.10630      0.41320      2.57700
   1171.34680      8.90620     95.80000    132.30000      5.83450      0.43070      2.56000
   1171.49920      8.87060     94.64440    132.20000      5.72800      0.42870      2.55600
   1171.65160      8.87000     92.01290    126.40000      6.22330      0.39880      2.57200
   1171.80400      8.85040     88.10000    118.80000      7.10770      0.35850      2.60800
   1171.95640      8.88000     84.50280    113.90000      7.72780      0.33270      2.64500
   1172.10880      8.86000     83.43250    113.80000      7.64800      0.33320      2.65200
   1172.26120      8.86000     85.76310    116.80000      6.72730      0.35210      2.61800
   1172.41360      8.86000     90.49450    121.00000      5.23240      0.37530      2.56500
   1172.56600      8.85940     96.05130    124.30000      3.90840      0.38880      2.52400
   1172.71840      8.85000    101.30000    126.00000      3.32660      0.40020      2.51000
   1172.87080      8.84700    103.30000    125.40000      3.34970      0.40690      2.51400
   1173.02320      8.81880    102.40000    123.30000      3.81940      0.40660      2.52500
   1173.17560      8.81000    100.30000    125.10000      4.24620      0.39770      2.53800
   1173.32800      8.80700     96.60000    133.30000      4.31520      0.38340      2.55200
   1173.48040      8.79340     94.30000    142.10000      4.61320      0.37150      2.56700
   1173.63280      8.80820     93.70000    143.00000      4.68810      0.36460      2.57800
   1173.78520      8.80000     93.40000    135.30000      4.40560      0.36340      2.58600
   1173.93760      8.80000     93.50000    127.50000      4.16870      0.36750      2.59600
   1174.09000      8.79520     93.30000    124.50000      4.29540      0.37470      2.60300
   1174.24240      8.77490     93.20000    123.10000      4.09260      0.37870      2.60400
   1174.39480      8.76270     93.60000    121.30000      3.98110      0.37780      2.60200
   1174.54720      8.76710     94.10000    120.90000      3.98110      0.37270      2.60400
   1174.69960      8.76310     94.10000    121.70000      3.90840      0.36360      2.60400
   1174.85200      8.76680     94.00000    119.60000      3.66440      0.35280      2.59200
   1175.00440      8.76000     94.90000    112.50000      3.43560      0.34730      2.56600
   1175.15680      8.74560     97.30000    103.90000      3.31640      0.35270      2.52820
   1175.30920      8.70500     98.90000     96.80000      3.53530      0.36450      2.50410
   1175.46160      8.68000     97.40000     91.20000      4.79730      0.37420      2.50970
