~VERSION INFORMATION
VERS.         2.0        : CWLS LOG ASCII STANDARD VERSION 2.0
WRAP.         NO         : ONE LINE PER DEPTH STEP
~WELL INFORMATION
STRT.M     181.20400                                                            :START DEPTH
STOP.M    1243.43200                                                            :STOP DEPTH
STEP.M       0.15240                                                            :STEP
NULL.          -999.25                                                          : NULL VALUE
WELL.          B-1                                                            : WELL NAME
~CURVE INFORMATION
DEPT.m          00 000 00 00                                                     : Depth Index
CALI.in         00 000 00 00                                                     :
DT.us/ft        00 000 00 00                                                     :
GR.gAPI         00 000 00 00                                                     :
LLD.ohmm        00 000 00 00                                                     :
NPHI.m3/m3      00 000 00 00                                                     :
RHOB.g/cm3      00 000 00 00                                                     :
~Ascii Log Data
# ...
    327.05080     10.03720    121.40000     32.20000      7.88860      0.27440      2.18810
    327.20320      9.75890    116.10000     31.50000      7.56830      0.26540      2.19470
    327.35560      9.70340    118.40000     35.20000      6.18020      0.26960      2.19870
    327.50800      9.70660    129.20000     43.90000      4.26580      0.30900      2.17100
    327.66040      9.73000    143.60000     54.80000      2.69150      0.41720      2.10290
    327.81280      9.82630    159.70000     62.60000      1.90990      0.53120      2.04770
    327.96520     10.09870    170.00110     64.00000      1.94540      0.55670      2.03970
    328.11760     10.59690    164.74910     59.30000      2.71020      0.48820      2.07680
    328.27000     10.72920    149.29240     51.00000      4.36520      0.39930      2.14550
    328.42240     10.49150    130.95080     42.30000      6.20870      0.32530      2.23780
    328.57480     10.10480    114.65010     35.80000      7.43020      0.27150      2.35000
    328.72720      9.81810    102.07380     32.70000      7.60330      0.24810      2.44000
    328.87960      9.70300    101.40000     33.40000      6.99840      0.25020      2.46000
    329.03200      9.72490    120.30000     37.90000      5.49540      0.29520      2.38100
    329.18440      9.78930    139.70000     45.10000      3.82820      0.37350      2.25100
    329.33680      9.96420    147.00000     50.60000      2.93760      0.40410      2.14600
    329.48920     10.26280    143.70000     50.60000      3.69830      0.36010      2.10600
    329.64160     10.39530    130.80000     46.10000      4.93170      0.29260      2.11300
    329.79400     10.44890    124.20000     41.80000      5.43250      0.27280      2.12000
    329.94640     10.43090    134.80000     41.40000      5.57190      0.31310      2.09870
    330.09880     10.46000    148.80000     44.70000      5.04970      0.39540      2.06100
    330.25120     10.48390    157.70000     50.50000      3.54130      0.46700      2.03030
    330.40360     10.56570    163.30000     56.50000      2.37390      0.48910      2.02220
    330.55600     10.70780    164.00000     58.60000      2.22120      0.44820      2.03730
    330.70840     10.99510    156.90000     55.50000      2.89800      0.38080      2.06600
    330.86080     10.97010    142.50000     49.30000      4.38510      0.31470      2.09690
    331.01320     10.89170    125.40000     43.30000      5.61050      0.27230      2.12300
    331.16560     10.99590    113.40000     39.70000      5.82150      0.25670      2.13900
    331.31800     10.83930    115.50000     39.80000      5.60340      0.26590      2.13570
    331.47040     10.49600    127.30000     44.30000      4.90560      0.30110      2.10320
    331.62280     10.21540    140.20000     52.00000      3.72970      0.36160      2.04530
    331.77520     10.20000    154.10000     60.30000      2.53580      0.43430      1.97790
    331.92760     10.25090    166.60000     65.70000      1.74970      0.50380      1.92230
    332.08000     10.45820    173.90000     66.70000      1.39370      0.56330      1.88690
    332.23240     10.66650    176.00000     65.80000      1.23850      0.62010      1.86700
    332.38480     10.95970    176.20000     65.70000      1.25890      0.67090      1.86900
    332.53720     10.54310    174.80000     65.70000      1.54850      0.60010      1.90200
    332.68960     10.41810    163.30530     63.20000      2.51550      0.43830      1.97200
    332.84200     10.50770    142.19140     57.90000      4.20810      0.30200      2.06400
    332.99440     10.44490    122.87390     52.70000      5.21840      0.24100      2.12600
    333.14680      9.87060    117.04210     50.60000      5.34580      0.25910      2.10700
    333.29920      9.83560    131.54240     54.80000      4.77830      0.36880      2.01500
    333.45160      9.88170    156.34670     63.80000      3.06900      0.48510      1.91300
    333.60400      9.98000    176.40000     70.90000      1.79060      0.55410      1.85300
    333.75640      9.97830    181.55360     72.60000      1.33970      0.56460      1.84500
    333.90880      9.94290    181.11150     70.70000      1.30620      0.55820      1.86700
    334.06120      9.79510    179.13390     68.40000      1.38680      0.56910      1.88700
    334.21360      9.73770    177.63350     66.80000      1.46890      0.59920      1.89100
    334.36600      9.82690    177.63300     66.60000      1.54170      0.62380      1.88100
    334.51840      9.79320    178.79960     67.50000      1.56320      0.61690      1.87500
    334.67080      9.69260    179.66670     66.80000      1.53110      0.58740      1.88800
    334.82320      9.60950    179.03340     64.10000      1.50010      0.57570      1.91200
    334.97560      9.36300    177.70000     62.90000      1.42860      0.59500      1.92980
    335.12800      9.32680    176.45550     64.70000      1.35270      0.64330      1.93530
    335.28040      9.42320    175.91130     67.10000      1.36980      0.69800      1.93600
    335.43280      9.82930    175.46680     67.30000      1.63600      0.69870      1.94840
    335.58520     10.23120    170.41350     64.60000      2.35370      0.61210      1.98860
    335.73760     10.20500    157.26050     59.80000      3.66360      0.47010      2.06240
    335.89000      9.92200    138.20660     53.70000      5.30420      0.34000      2.15830
    336.04240      9.72020    119.82670     47.60000      5.84790      0.25380      2.24100
    336.19480      9.80870    108.01100     44.20000      5.87490      0.21980      2.26300
    336.34720      9.87900    108.10000     46.10000      5.30890      0.24180      2.19700
    336.49960      9.87200    126.20000     53.30000      3.97190      0.33430      2.08300
    336.65200      9.89000    148.90000     61.60000      2.11840      0.48120      1.98000
    336.80440      9.88910    164.70000     65.30000      1.69040      0.57090      1.93500
    336.95680      9.87030    165.60000     64.10000      1.75390      0.52820      1.96300
    337.10920      9.75480    152.90000     62.00000      1.93640      0.45790      2.01200
    337.26160      9.59240    143.10000     61.70000      1.94980      0.45150      2.00700
    337.41400      9.62460    144.00000     62.50000      1.84500      0.51620      1.94500
    337.56640      9.67780    154.60000     62.50000      1.69040      0.59290      1.88900
    337.71880      9.64660    168.96750     62.10000      1.48590      0.60020      1.88100
    337.87120      9.59220    175.97040     61.90000      1.34590      0.56090      1.90400
    338.02360      9.47510    178.12780     62.10000      1.34900      0.55160      1.91800
    338.17600      9.40000    178.75740     63.90000      1.44880      0.60020      1.91300
    338.32840      9.40000    170.00660     65.90000      1.76200      0.65590      1.92200
    338.48080      9.40100    149.20460     65.50000      2.14290      0.61510      1.98800
    338.63320      9.42000    133.20000     62.30000      2.43020      0.50410      2.10100
    338.78560      9.42000    133.00000     58.40000      2.53800      0.42530      2.16500
    338.93800      9.42110    146.20000     57.80000      2.45950      0.42680      2.11000
    339.09040      9.45390    169.60000     61.90000      2.22910      0.50940      1.99000
    339.24280      9.57030    181.20000     67.20000      1.99520      0.59590      1.90300
    339.39520      9.57530    167.70000     67.40000      2.00200      0.55620      1.89900
    339.54760      9.38590    143.10000     60.60000      2.67030      0.43070      1.97800
    339.70000      9.18980    120.20000     51.00000      4.30980      0.32290      2.09800
    339.85240      9.18160    109.30000     44.20000      5.35800      0.26980      2.17700
    340.00480      9.31190    122.00000     43.10000      5.72240      0.27340      2.15800
    340.15720      9.54000    148.20000     47.70000      5.40650      0.33890      2.06400
