~VERSION INFORMATION
VERS.         2.0        : CWLS LOG ASCII STANDARD VERSION 2.0
WRAP.         NO         : ONE LINE PER DEPTH STEP
~WELL INFORMATION
STRT.M     181.20400                                                            :START DEPTH
STOP.M    1243.43200                                                            :STOP DEPTH
STEP.M       0.15240                                                            :STEP
NULL.          -999.25                                                          : NULL VALUE
WELL.          B-1                                                            : WELL NAME
~CURVE INFORMATION
DEPT.m          00 000 00 00                                                     : Depth Index
CALI.in         00 000 00 00                                                     :
DT.us/ft        00 000 00 00                                                     :
GR.gAPI         00 000 00 00                                                     :
LLD.ohmm        00 000 00 00                                                     :
NPHI.m3/m3      00 000 00 00                                                     :
RHOB.g/cm3      00 000 00 00                                                     :
~Ascii Log Data
# ...
    247.49800     11.45430    182.77260     69.50000      2.75420      0.51390      1.89700
    247.65040     11.47140    183.23630     67.50000      2.76690      0.50260      1.92740
    247.80280     11.67300    183.32740     66.30000      2.77330      0.49660      1.95270
    247.95520     11.90440    183.03650     67.30000      2.77970      0.49990      1.96640
    248.10760     11.91000    182.23660     69.60000      2.80540      0.51130      1.96780
    248.26000     11.64420    181.21850     70.20000      2.82490      0.52620      1.95960
    248.41240     11.52150    180.06400     68.30000      2.83790      0.53950      1.94600
    248.56480     11.77600    178.97310     65.80000      2.89070      0.54780      1.93370
    248.71720     12.10720    178.04570     65.00000      2.92420      0.54130      1.92910
    248.86960     11.95850    177.25470     65.90000      2.93090      0.52690      1.93340
    249.02200     11.88720    176.60000     66.70000      2.99230      0.52640      1.94120
    249.17440     11.93000    176.21420     66.30000      3.06200      0.54290      1.94510
    249.32680     12.27000    176.38560     64.70000      3.10460      0.55050      1.94100
    249.47920     12.19000    176.89980     64.20000      3.17690      0.55490      1.93040
    249.63160     12.39000    177.69950     65.20000      3.23590      0.56070      1.91990
    249.78400     12.56000    178.21410     66.70000      3.20630      0.57460      1.91430
    249.93640     12.62000    178.64260     67.60000      3.15950      0.58060      1.91160
    250.08880     12.82000    179.10000     67.50000      3.10190      0.57480      1.90680
    250.24120     12.83000    179.73970     67.50000      3.04510      0.57260      1.90220
    250.39360     12.99000    180.25980     67.50000      3.00610      0.57850      1.90440
    250.54600     13.04000    180.46000     66.90000      3.00060      0.58070      1.91810
    250.69840     13.04000    180.20020     65.80000      3.04110      0.57990      1.93440
    250.85080     13.00000    179.40000     65.20000      3.08900      0.58280      1.94240
    251.00320     13.08000    178.36020     65.30000      3.13340      0.58170      1.94260
    251.15560     13.28000    177.68010     65.70000      3.19150      0.57140      1.94080
    251.30800     13.28000    177.59990     66.00000      3.21610      0.56460      1.94260
    251.46040     13.33000    178.15980     66.40000      3.17690      0.56950      1.95010
    251.61280     13.26000    179.20000     66.40000      3.14050      0.57350      1.96180
    251.76520     13.23000    180.70000     66.20000      3.13810      0.56690      1.97330
    251.91760     13.27000    181.80000     67.00000      3.11890      0.56280      1.98020
    252.07000     13.41000    182.10000     68.10000      3.09740      0.57720      1.98060
    252.22240     13.43000    182.60000     68.70000      3.13190      0.59830      1.97600
    252.37480     12.98000    183.30000     68.80000      3.16670      0.59720      1.97110
    252.52720     12.55000    183.90000     70.10000      3.24430      0.57460      1.97580
    252.67960     11.73000    184.90000     73.70000      3.36250      0.55550      1.99940
    252.83200     11.59000    185.60000     77.80000      3.47540      0.54720      2.03230
    252.98440     12.16000    185.67990     79.90000      3.57970      0.54180      2.04000
    253.13680     12.44000    185.28010     77.90000      3.63090      0.54150      1.98600
    253.28920     12.92000    184.32020     73.40000      3.63750      0.54550      1.88310
    253.44160     13.21000    182.96020     70.90000      3.58340      0.55040      1.78990
    253.59400     13.38000    181.60000     71.60000      3.42770      0.55540      1.75470
    253.74640     14.07000    181.04030     72.40000      3.22080      0.56450      1.78290
    253.89880     15.94000    182.15910     71.90000      2.99220      0.58130      1.84360
    254.05120     16.56000    184.83830     71.10000      2.80730      0.60220      1.89680
    254.20360     16.03000    188.35870     71.70000      2.69780      0.61530      1.92390
    254.35600     14.14000    191.40000     73.40000      2.66160      0.60970      1.93180
    254.50840     13.05000    192.23370     73.70000      2.64420      0.59230      1.93500
    254.66080     12.45000    190.83390     72.70000      2.61820      0.57900      1.93950
    254.81320     11.73000    190.00000     71.50000      2.65200      0.58390      1.94250
    254.96560     11.56000    190.66650     71.80000      2.64160      0.60850      1.94070
    255.11800     11.54000    191.33320     73.30000      2.65990      0.63480      1.93750
    255.27040     11.54000    191.90000     74.10000      2.69880      0.62590      1.93350
    255.42280     11.54000    192.00000     74.10000      2.72720      0.58770      1.92300
    255.57520     11.54000    190.30000     73.60000      2.69690      0.56400      1.90190
    255.72760     11.57000    186.00000     72.20000      2.65460      0.56880      1.87100
    255.88000     11.49000    184.80000     70.80000      2.67530      0.58460      1.84300
    256.03240     11.45000    188.60000     70.60000      2.76120      0.58930      1.83700
    256.18480     11.63000    191.40000     72.20000      3.04880      0.56330      1.87900
    256.33720     12.57000    192.20000     76.70000      3.68340      0.50780      1.98600
    256.48960     12.73000    192.80000     84.00000      4.85680      0.43610      2.14200
    256.64200     12.89000    191.73370     90.40000      6.76250      0.38070      2.28500
    256.79440     12.85000    185.06890     90.40000      9.00900      0.34890      2.36000
    256.94680     11.90000    170.20460     82.20000     11.08240      0.33500      2.37000
    257.09920     11.66000    150.92670     70.40000     12.53280      0.33120      2.34400
    257.25160     10.99000    132.12530     60.80000     13.29000      0.33490      2.29100
    257.40400      9.92000    115.87450     54.30000     13.22240      0.34500      2.21800
    257.55640      9.33000    102.47120     49.90000     12.20370      0.35510      2.15600
    257.70880      9.33000     94.36640     46.70000     10.73300      0.36560      2.12700
    257.86120      9.32110     94.90000     44.60000      9.27610      0.37470      2.12100
    258.01360      9.32780    101.95440     43.00000      8.27710      0.37660      2.12500
    258.16600      9.31000    108.89560     40.80000      7.64060      0.36490      2.14100
    258.31840      9.30000    120.12340     38.10000      7.32390      0.33760      2.18000
    258.47080      9.30000    131.66750     36.00000      7.36880      0.30000      2.24100
    258.62320      9.30670    135.59970     35.00000      7.85240      0.26350      2.31300
    258.77560      9.31780    133.82900     34.50000      9.83820      0.23710      2.38100
    258.92800      9.31110    128.60000     34.10000     13.89580      0.22210      2.43300
    259.08040      9.32000    122.21380     33.70000     19.36430      0.22080      2.46100
    259.23280      9.30000    124.47040     33.70000     21.59440      0.22890      2.45300
    259.38520      9.30000    126.17230     34.20000     20.60480      0.24270      2.40200
    259.53760      9.31000    127.31240     35.10000     16.18090      0.26170      2.32000
    259.69000      9.32000    129.61370     36.10000     11.43990      0.29530      2.24400
    259.84240      9.29000    123.98860     37.40000      8.42040      0.33640      2.19600
    259.99480      9.33000    121.70000     38.40000      6.94760      0.36460      2.17300
    260.14720      9.29000    127.79690     38.40000      6.45080      0.37220      2.15900
    260.29960      9.18000    134.34170     37.30000      6.41780      0.37070      2.14200
    260.45200      9.11290    134.75820     36.70000      6.67630      0.37530      2.12300
    260.60440      9.05280    124.13190     37.10000      6.96050      0.38520      2.11300
