~VERSION INFORMATION
VERS.         2.0        : CWLS LOG ASCII STANDARD VERSION 2.0
WRAP.         NO         : ONE LINE PER DEPTH STEP
~WELL INFORMATION
STRT.M     181.20400                                                            :START DEPTH
STOP.M    1243.43200                                                            :STOP DEPTH
STEP.M       0.15240                                                            :STEP
NULL.          -999.25                                                          : NULL VALUE
WELL.          B-1                                                            : WELL NAME
~CURVE INFORMATION
DEPT.m          00 000 00 00                                                     : Depth Index
CALI.in         00 000 00 00                                                     :
DT.us/ft        00 000 00 00                                                     :
GR.gAPI         00 000 00 00                                                     :
LLD.ohmm        00 000 00 00                                                     :
NPHI.m3/m3      00 000 00 00                                                     :
RHOB.g/cm3      00 000 00 00                                                     :
~Ascii Log Data
# ...
    671.77960      9.55000     92.00000     29.90000      4.49780      0.20220      2.50750
    671.93200      9.54770     92.00000     29.70000      4.49780      0.20390      2.50200
    672.08440      9.53340     91.92860     30.20000      4.41570      0.20350      2.49280
    672.23680      9.54770     92.15700     31.00000      4.39540      0.20200      2.49220
    672.38920      9.54000     92.80000     32.40000      4.36520      0.20070      2.49860
    672.54160      9.54000     93.00000     33.50000      4.26580      0.19970      2.51000
    672.69400      9.54000     92.90000     33.30000      4.28550      0.19890      2.51500
    672.84640      9.53550     92.70000     32.20000      4.26580      0.19840      2.51600
    672.99880      9.53510     92.40000     31.60000      4.23640      0.19830      2.51500
    673.15120      9.54000     92.40000     32.20000      4.24170      0.19830      2.51400
    673.30360      9.54000     92.70000     32.80000      4.27370      0.19830      2.51200
    673.45600      9.54680     92.90000     32.50000      4.28160      0.19820      2.51000
    673.60840      9.55740     92.90000     32.40000      4.33510      0.19800      2.51100
    673.76080      9.55210     92.90000     33.50000      4.36320      0.19770      2.51400
    673.91320      9.56700     92.90000     35.20000      4.34720      0.19720      2.51700
    674.06560      9.56090     92.90000     35.70000      4.29410      0.19700      2.51500
    674.21800      9.55040     93.00000     35.20000      4.22300      0.19680      2.51200
    674.37040      9.56040     93.20000     34.90000      4.13690      0.19900      2.51100
    674.52280      9.57770     93.60000     35.90000      4.07700      0.20580      2.51400
    674.67520      9.55400     93.90000     37.40000      4.07190      0.21220      2.51900
    674.82760      9.57240     94.00000     38.30000      4.01740      0.21140      2.52100
    674.98000      9.54250     94.17770     38.20000      4.00870      0.20880      2.52100
    675.13240      9.55300     94.82220     38.20000      3.99950      0.21020      2.51900
    675.28480      9.56000     95.60010     39.10000      3.91670      0.21690      2.51100
    675.43720      9.56000     96.34460     40.30000      3.80830      0.22420      2.49600
    675.58960      9.56470     96.87760     40.80000      3.75130      0.22890      2.48400
    675.74200      9.57000     97.06670     41.30000      3.72010      0.23180      2.48300
    675.89440      9.55830     97.00000     42.00000      3.68290      0.23200      2.48700
    676.04680      9.55640     97.00000     42.10000      3.66900      0.22920      2.48800
    676.19920      9.55300     97.00000     41.70000      3.66210      0.22840      2.48500
    676.35160      9.55760     97.00660     40.90000      3.63160      0.23030      2.48000
    676.50400      9.55190     97.15310     40.10000      3.59520      0.23080      2.47820
    676.65640      9.55870     97.53990     40.20000      3.58920      0.23020      2.48140
    676.80880      9.56000     97.64680     40.60000      3.54000      0.22860      2.48970
    676.96120      9.56000     97.36690     40.80000      3.54370      0.22420      2.49890
    677.11360      9.56040     97.02010     40.50000      3.59770      0.21940      2.50380
    677.26600      9.56910     96.52680     40.50000      3.71530      0.21750      2.50340
    677.41840      9.56000     95.14000     40.20000      3.91420      0.21790      2.50060
    677.57080      9.55790     93.52030     39.20000      4.14710      0.21730      2.50010
    677.72320      9.55270     92.66680     38.80000      4.27850      0.21370      2.50380
    677.87560      9.56000     92.28010     39.80000      4.32430      0.20810      2.51010
    678.02800      9.54110     92.43990     41.50000      4.32790      0.20270      2.51870
    678.18040      9.51000     92.50000     42.50000      4.27660      0.19980      2.52850
    678.33280      9.51000     91.75360     41.80000      4.25690      0.20040      2.53400
    678.48520      9.51000     91.00000     39.30000      4.28550      0.20210      2.52940
    678.63760      9.50400     91.10000     36.90000      4.34740      0.20160      2.52140
    678.79000      9.49340     91.60000     36.10000      4.38650      0.19820      2.51380
    678.94240      9.51150     91.50000     36.00000      4.43620      0.19430      2.50850
    679.09480      9.48900     90.90000     34.80000      4.50260      0.19350      2.50520
    679.24720      9.48830     90.00000     33.00000      4.58640      0.19740      2.50180
    679.39960      9.47220     89.50000     31.90000      4.64870      0.20250      2.49950
    679.55200      9.47940     89.70000     32.30000      4.64400      0.20250      2.49900
    679.70440      9.49000     90.20000     33.30000      4.59210      0.20020      2.50020
    679.85680      9.47290     90.64430     34.30000      4.50820      0.20020      2.50440
    680.00920      9.49570     91.16650     36.10000      4.44230      0.20080      2.50990
    680.16160      9.49710     91.43330     38.10000      4.35350      0.20050      2.51540
    680.31400      9.49140     91.50000     39.10000      4.30530      0.19910      2.52000
    680.46640      9.50710     91.45560     38.60000      4.31330      0.19800      2.52300
    680.61880      9.50140     91.30010     38.00000      4.34510      0.19760      2.52400
    680.77120      9.50000     91.07780     38.30000      4.36110      0.19820      2.52500
    680.92360      9.52000     91.00000     38.20000      4.32920      0.19910      2.52600
    681.07600      9.53000     91.00000     37.80000      4.30920      0.20010      2.52700
    681.22840      9.51000     91.11990     37.80000      4.30530      0.20120      2.52700
    681.38080      9.52000     91.50000     37.60000      4.26580      0.20260      2.52400
    681.53320      9.54000     91.50000     36.90000      4.15910      0.20420      2.51900
    681.68560      9.50000     91.87990     36.30000      4.13050      0.20590      2.51500
    681.83800      9.50000     92.10000     36.80000      4.16870      0.20670      2.51600
    681.99040      9.51000     92.10000     38.10000      4.12100      0.20570      2.51900
    682.14280      9.50110     92.17770     38.60000      4.05510      0.20310      2.52000
    682.29520      9.50000     92.39980     37.40000      4.05510      0.20020      2.51800
    682.44760      9.50000     92.55550     35.60000      4.01790      0.19890      2.51600
    682.60000      9.46670     92.64440     34.40000      3.92650      0.20240      2.51500
    682.75240      9.44000     92.73330     34.20000      3.87510      0.20410      2.51300
    682.90480      9.44000     92.82220     34.40000      3.88280      0.20500      2.51370
    683.05720      9.43550     92.91100     34.30000      3.87130      0.20530      2.51630
    683.20960      9.41890     93.00000     34.60000      3.90210      0.20550      2.51970
    683.36200      9.41000     93.07990     34.40000      3.88540      0.20620      2.52260
    683.51440      9.42000     93.10000     34.10000      3.83460      0.20740      2.52360
    683.66680      9.41000     93.10000     34.40000      3.89050      0.20850      2.52470
    683.81920      9.41000     93.08000     35.20000      3.86750      0.20910      2.52630
    683.97160      9.41000     93.00000     36.30000      3.85230      0.20910      2.52850
    684.12400      9.43000     93.00000     36.50000      3.90590      0.20900      2.52790
    684.27640      9.40000     93.00000     35.70000      3.89560      0.20940      2.52540
    684.42880      9.42000     93.00000     35.10000      3.86620      0.21020      2.52100
    684.58120      9.41000     93.00000     35.40000      3.93300      0.21160      2.51500
    684.73360      9.41000     93.00000     36.60000      3.91740      0.21190      2.51200
    684.88600      9.41000     93.13330     37.10000      3.92650      0.21090      2.51100
