~VERSION INFORMATION
VERS.         2.0        : CWLS LOG ASCII STANDARD VERSION 2.0
WRAP.         NO         : ONE LINE PER DEPTH STEP
~WELL INFORMATION
STRT.M     181.20400                                                            :START DEPTH
STOP.M    1243.43200                                                            :STOP DEPTH
STEP.M       0.15240                                                            :STEP
NULL.          -999.25                                                          : NULL VALUE
WELL.          B-1                                                            : WELL NAME
~CURVE INFORMATION
DEPT.m          00 000 00 00                                                     : Depth Index
CALI.in         00 000 00 00                                                     :
DT.us/ft        00 000 00 00                                                     :
GR.gAPI         00 000 00 00                                                     :
LLD.ohmm        00 000 00 00                                                     :
NPHI.m3/m3      00 000 00 00                                                     :
RHOB.g/cm3      00 000 00 00                                                     :
~Ascii Log Data
# ...
    883.92040     10.08000    102.00000     74.00000      2.17270      0.32190      2.41430
    884.07280     10.09000    101.20000     71.80000      2.28560      0.31360      2.41980
    884.22520     10.05000    100.60000     70.40000      2.34960      0.30130      2.42330
    884.37760     10.03000     98.60000     70.00000      2.45470      0.28240      2.42530
    884.53000      9.99000     96.40000     69.30000      2.59420      0.26420      2.42650
    884.68240      9.96000     94.30000     67.80000      2.61820      0.25250      2.42830
    884.83480      9.87000     93.70000     67.50000      2.55270      0.25560      2.43100
    884.98720      9.87000     97.10000     69.80000      2.39880      0.27710      2.43000
    885.13960      9.79000    102.10000     73.60000      2.28030      0.31410      2.42140
    885.29200      9.80000    104.00000     76.00000      2.18780      0.33910      2.41500
    885.44440      9.81000    100.80000     74.50000      2.20800      0.33230      2.42470
    885.59680      9.83670     96.40000     71.40000      2.26470      0.31180      2.44630
    885.74920      9.87670     94.90000     71.50000      2.32270      0.30890      2.45110
    885.90160      9.84000     97.40000     76.10000      2.25420      0.32960      2.42700
    886.05400      9.82670    102.60000     81.20000      2.14290      0.34740      2.40000
    886.20640     10.01340    106.00000     83.00000      2.03240      0.35060      2.38900
    886.35880     10.28000    106.70000     82.60000      1.99990      0.34560      2.39200
    886.51120     10.26860    105.80000     81.20000      2.03240      0.33810      2.39900
    886.66360     10.25710    102.10000     77.50000      2.18780      0.32630      2.41000
    886.81600     10.23280     97.90000     72.00000      2.38230      0.30670      2.43100
    886.96840     10.13560     94.40000     68.60000      2.53510      0.28280      2.45300
    887.12080     10.00850     92.80000     68.90000      2.61220      0.26690      2.46500
    887.27320      9.98000     94.89890     69.10000      2.69770      0.26180      2.46100
    887.42560     10.08000     96.70000     67.40000      2.69150      0.26910      2.45440
    887.57800     10.17000     96.18650     65.40000      2.69770      0.27570      2.45390
    887.73040      9.82000     94.75710     65.70000      2.65460      0.28180      2.45610
    887.88280      9.74000     93.41460     67.90000      2.63630      0.28600      2.45910
    888.03520      9.75000     91.72920     69.90000      2.65460      0.28130      2.46600
    888.18760      9.77000     90.20000     70.60000      2.75420      0.27030      2.47600
    888.34000      9.80000     89.70000     69.90000      2.80540      0.25790      2.48200
    888.49240      9.78000     89.50000     68.80000      2.97890      0.24580      2.48600
    888.64480      9.80000     89.40000     69.60000      3.12740      0.23550      2.49400
    888.79720      9.81000     88.70000     73.20000      3.15930      0.22880      2.50800
    888.94960      9.84000     87.80000     76.60000      3.11790      0.22650      2.52400
    889.10200      9.89000     88.60000     77.30000      3.00670      0.22850      2.53300
    889.25440      9.89000     89.70000     76.10000      2.78420      0.23330      2.53000
    889.40680      9.93000     91.60000     75.50000      2.53510      0.24360      2.51400
    889.55920     10.33000     95.70000     76.30000      2.36060      0.26230      2.48300
    889.71160     10.44000    100.80000     78.20000      2.10030      0.29270      2.43800
    889.86400     10.40000    106.90000     82.50000      1.93320      0.32560      2.39300
    890.01640     10.41000    112.10000     88.50000      1.83420      0.34440      2.36900
    890.16880     10.39000    112.90000     90.80000      1.76590      0.34760      2.37100
    890.32120     10.37000    110.30000     87.60000      1.76120      0.34360      2.38200
    890.47360     10.31000    107.30000     82.60000      1.85290      0.33770      2.39000
    890.62600     10.27000    103.70000     80.10000      1.96720      0.32610      2.40200
    890.77840     10.24000     99.70000     79.90000      2.07010      0.30770      2.42240
    890.93080     10.30000     97.50000     78.80000      2.18780      0.29370      2.44210
    891.08320     10.42000     97.60000     76.90000      2.20290      0.29300      2.44700
    891.23560     10.06000    100.40000     76.40000      2.09410      0.30660      2.43530
    891.38800     10.16000    104.80000     79.60000      1.98150      0.32760      2.41450
    891.54040     10.34000    108.70000     85.60000      1.84930      0.34710      2.39400
    891.69280     10.35000    111.10000     90.80000      1.69430      0.35980      2.38000
    891.84520     10.37000    112.20000     93.30000      1.67880      0.36550      2.37290
    891.99760     10.22000    111.66680     92.60000      1.72980      0.36630      2.37200
    892.15000     10.16000    109.11200     89.20000      1.80300      0.35590      2.37800
    892.30240     10.16000    106.33410     84.00000      1.85350      0.33310      2.39000
    892.45480     10.18000    105.07780     80.60000      1.87070      0.31230      2.40300
    892.60720     10.18000    106.32170     82.30000      1.81970      0.31090      2.40700
    892.75960     10.18000    109.59940     87.20000      1.73380      0.33020      2.39900
    892.91200     10.21000    112.91060     90.30000      1.70610      0.35230      2.39300
    893.06440     10.20000    113.88860     88.10000      1.72980      0.36120      2.40200
    893.21680     10.06000    113.00000     83.70000      1.78650      0.35790      2.41500
    893.36920     10.07000    111.90000     82.00000      1.81600      0.35590      2.41230
    893.52160     10.30000    111.80000     84.00000      1.80670      0.36260      2.39490
    893.67400     10.42450    114.30000     88.80000      1.74630      0.37670      2.37530
    893.82640     10.35440    117.50000     94.10000      1.65010      0.39340      2.36250
    893.97880     10.14330    119.40000     98.50000      1.53790      0.40760      2.35710
    894.13120     10.06110    120.60000    100.30000      1.43930      0.41670      2.35570
    894.28360     10.05220    121.30000     99.40000      1.39100      0.41960      2.35480
    894.43600     10.04000    121.50000     97.20000      1.41800      0.41810      2.35410
    894.58840     10.06450    118.60000     93.80000      1.51360      0.40330      2.35500
    894.74080     10.07440    111.80000     88.40000      1.71400      0.35760      2.37400
    894.89320     10.03000    104.80000     81.90000      1.96340      0.29640      2.41710
    895.04560      9.98000    101.20000     77.30000      2.18780      0.26790      2.46070
    895.19800      9.99000    102.30000     76.50000      2.25420      0.28060      2.46360
    895.35040      9.97000    107.70000     78.50000      2.16270      0.32100      2.41930
    895.50280     10.16000    113.80000     81.80000      2.00450      0.35790      2.36990
    895.65520     10.28000    116.30000     84.50000      1.81550      0.37280      2.35500
    895.80760     10.31000    113.07370     85.40000      1.73780      0.36460      2.37700
    895.96000     10.30000    108.38760     84.50000      1.82110      0.34520      2.41500
    896.11240     10.26000    105.15860     82.70000      1.98740      0.33150      2.44500
    896.26480     10.15000    103.78580     82.30000      2.10350      0.33100      2.44700
    896.41720     10.13000    105.55630     83.60000      2.13100      0.33900      2.42800
    896.56960     10.17000    109.12730     86.00000      2.04690      0.35510      2.40500
    896.72200     10.26000    113.10000     89.20000      1.88440      0.37730      2.38500
    896.87440     10.24000    117.36490     92.40000      1.70610      0.39940      2.36400
    897.02680     10.09000    121.08920     96.20000      1.58540      0.41620      2.34540
