~VERSION INFORMATION
VERS.         2.0        : CWLS LOG ASCII STANDARD VERSION 2.0
WRAP.         NO         : ONE LINE PER DEPTH STEP
~WELL INFORMATION
STRT.M     181.20400                                                            :START DEPTH
STOP.M    1243.43200                                                            :STOP DEPTH
STEP.M       0.15240                                                            :STEP
NULL.          -999.25                                                          : NULL VALUE
WELL.          B-1                                                            : WELL NAME
~CURVE INFORMATION
DEPT.m          00 000 00 00                                                     : Depth Index
CALI.in         00 000 00 00                                                     :
DT.us/ft        00 000 00 00                                                     :
GR.gAPI         00 000 00 00                                                     :
LLD.ohmm        00 000 00 00                                                     :
NPHI.m3/m3      00 000 00 00                                                     :
RHOB.g/cm3      00 000 00 00                                                     :
~Ascii Log Data
# ...
   1016.50840     10.22000    117.50000    103.90000      1.74370      0.39020      2.28790
   1016.66080     10.24000    117.26010    106.40000      1.69530      0.40390      2.29340
   1016.81320     10.31000    116.42020    107.60000      1.68580      0.41900      2.29540
   1016.96560     10.34000    115.54010    107.00000      1.71330      0.43420      2.29840
   1017.11800     10.19000    114.90000    106.00000      1.75790      0.44430      2.30430
   1017.27040      9.86000    114.50000    105.70000      1.76120      0.44490      2.30870
   1017.42280      9.78000    114.18010    107.30000      1.76690      0.43740      2.30940
   1017.57520      9.83000    114.10000    109.00000      1.76040      0.42750      2.30740
   1017.72760      9.81000    114.49980    108.60000      1.73860      0.42200      2.30470
   1017.88000      9.80000    115.37940    106.30000      1.71000      0.42140      2.29830
   1018.03240      9.83000    116.50000    105.50000      1.67660      0.41970      2.28700
   1018.18480      9.93000    117.53320    106.30000      1.62360      0.41690      2.27390
   1018.33720      9.94000    118.39970    107.80000      1.55970      0.41790      2.26520
   1018.48960      9.91000    120.60000    109.10000      1.50530      0.42290      2.26870
   1018.64200     10.11000    122.79990    109.30000      1.48110      0.42190      2.29000
   1018.79440     10.12000    121.13440    106.60000      1.52370      0.40750      2.32580
   1018.94680     10.55000    114.70000    101.10000      1.61440      0.37660      2.35860
   1019.09920     10.68000    109.50000     97.60000      1.80300      0.35090      2.36840
   1019.25160     10.66000    103.20000     97.20000      1.98610      0.35590      2.34700
   1019.40400     10.70000    100.60000     96.40000      2.05590      0.40960      2.30910
   1019.55640     10.66000    104.40000     94.80000      2.09410      0.45920      2.27120
   1019.70880     10.83000    108.80000     94.00000      1.98150      0.46780      2.24240
   1019.86120     11.05000    115.20000     96.30000      1.79470      0.47140      2.22750
   1020.01360     11.07000    122.90000    100.40000      1.60690      0.47890      2.22770
   1020.16600     11.04000    126.40000    103.40000      1.46550      0.48560      2.23550
   1020.31840     10.93000    127.25690    103.20000      1.35730      0.48560      2.24110
   1020.47080     10.63000    127.11530    100.10000      1.39760      0.47200      2.24360
   1020.62320     10.58000    124.48720     96.00000      1.48250      0.44390      2.25010
   1020.77560     10.53000    121.05780     93.30000      1.66330      0.41360      2.26590
   1020.92800     10.40000    116.90140     92.70000      1.82320      0.38730      2.28780
   1021.08040     10.36000    111.75890     92.50000      1.93640      0.36940      2.30710
   1021.23280     10.33000    109.80000     90.20000      1.90990      0.36280      2.31690
   1021.38520     10.37000    111.18550     87.20000      1.77010      0.37330      2.31470
   1021.53760     10.23000    115.32600     88.70000      1.65580      0.39450      2.30730
   1021.69000     10.20000    118.61420     94.50000      1.55960      0.41710      2.29830
   1021.84240     10.19000    118.55740     98.20000      1.50310      0.43390      2.28000
   1021.99480     10.26000    118.08580     95.90000      1.61060      0.44370      2.24190
   1022.14720     10.31000    115.51540     90.00000      1.80300      0.44690      2.19220
   1022.29960     10.29000    109.10000     85.60000      2.02770      0.44020      2.16280
   1022.45200     10.58000    100.90000     83.50000      2.27510      0.41590      2.18230
   1022.60440     10.57000     94.70000     82.30000      2.49460      0.37130      2.24290
   1022.75680     10.47000     92.70000     80.20000      2.57630      0.32440      2.29950
   1022.90920     10.52000     94.10000     77.30000      2.58820      0.29580      2.31540
   1023.06160     10.33000     97.00000     76.50000      2.62420      0.28490      2.30180
   1023.21400     10.81000     96.50000     77.70000      2.63630      0.28220      2.29430
   1023.36640     10.89000     94.90000     79.00000      2.55860      0.27880      2.31060
   1023.51880     10.77000     96.70000     80.10000      2.47170      0.27220      2.33980
   1023.67120     10.57000    100.61130     82.80000      2.38780      0.26580      2.35840
   1023.82360     10.41000    105.14150     88.10000      2.17270      0.26660      2.35680
   1023.97600     10.09000    108.49880     93.70000      1.98150      0.28120      2.34070
   1024.12840     10.23000    109.54440     96.90000      1.91870      0.32160      2.32900
   1024.28080     10.05000    108.56650     97.10000      1.96340      0.35500      2.33040
   1024.43320     10.05000    106.60170     96.40000      2.06540      0.36180      2.34330
   1024.58560     10.04000    104.46700     96.00000      2.13300      0.35470      2.35840
   1024.73800     10.18000    102.67730     95.90000      2.14290      0.35740      2.36490
   1024.89040     10.28000    103.30000     97.10000      2.06540      0.37520      2.36000
   1025.04280     10.01000    108.10000    100.80000      1.91430      0.39570      2.34240
   1025.19520     10.11000    113.30000    107.40000      1.71400      0.40650      2.31870
   1025.34760     10.09000    118.30000    113.40000      1.57400      0.41210      2.29840
   1025.50000      9.97000    122.30000    116.50000      1.52760      0.41560      2.28680
   1025.65240      9.97000    122.70000    116.60000      1.51360      0.42040      2.28010
   1025.80480     10.04000    120.90000    115.60000      1.52400      0.42840      2.27450
   1025.95720      9.87000    119.40000    115.90000      1.56680      0.43840      2.27200
   1026.10960      9.86000    117.90000    116.30000      1.60950      0.44610      2.27680
   1026.26200      9.89000    116.60000    115.50000      1.61200      0.44610      2.28750
   1026.41440      9.96000    117.00000    113.20000      1.59320      0.43640      2.29260
   1026.56680     10.04870    118.60000    111.20000      1.58260      0.42280      2.28030
   1026.71920     10.00150    120.30000    111.00000      1.56970      0.41730      2.25380
   1026.87160      9.97130    121.10000    111.40000      1.55790      0.41970      2.23160
   1027.02400      9.95120    121.00000    112.00000      1.54950      0.42530      2.22850
   1027.17640      9.95930    120.70000    112.90000      1.55470      0.42980      2.24710
   1027.32880      9.96910    120.00000    113.10000      1.57170      0.43150      2.26920
   1027.48120      9.88960    119.10000    112.00000      1.59500      0.43110      2.28500
   1027.63360      9.80090    118.40000    110.60000      1.62180      0.42950      2.29620
   1027.78600      9.80730    118.30000    110.40000      1.65320      0.42650      2.30440
   1027.93840      9.92020    118.40000    111.40000      1.65070      0.42300      2.30940
   1028.09080     10.14790    118.60000    111.50000      1.61440      0.42160      2.30890
   1028.24320     10.09200    119.00000    110.30000      1.57640      0.42160      2.30330
   1028.39560      9.95790    118.80000    110.00000      1.58130      0.42070      2.29700
   1028.54800      9.91430    118.20000    111.90000      1.57040      0.41650      2.29400
   1028.70040      9.88690    118.60000    114.60000      1.58850      0.40980      2.29480
   1028.85280      9.88760    119.10000    116.00000      1.58490      0.40390      2.29700
   1029.00520      9.85310    119.00000    115.30000      1.59220      0.40820      2.29640
   1029.15760      9.77490    119.20000    113.30000      1.56320      0.42770      2.29190
   1029.31000      9.77830    119.20000    111.90000      1.58120      0.44120      2.29010
   1029.46240      9.74840    118.90000    110.70000      1.58490      0.43950      2.29540
   1029.61480      9.79780    119.40000    109.50000      1.59590      0.43580      2.30690
