~VERSION INFORMATION
VERS.         2.0        : CWLS LOG ASCII STANDARD VERSION 2.0
WRAP.         NO         : ONE LINE PER DEPTH STEP
~WELL INFORMATION
STRT.M     181.20400                                                            :START DEPTH
STOP.M    1243.43200                                                            :STOP DEPTH
STEP.M       0.15240                                                            :STEP
NULL.          -999.25                                                          : NULL VALUE
WELL.          B-1                                                            : WELL NAME
~CURVE INFORMATION
DEPT.m          00 000 00 00                                                     : Depth Index
CALI.in         00 000 00 00                                                     :
DT.us/ft        00 000 00 00                                                     :
GR.gAPI         00 000 00 00                                                     :
LLD.ohmm        00 000 00 00                                                     :
NPHI.m3/m3      00 000 00 00                                                     :
RHOB.g/cm3      00 000 00 00                                                     :
~Ascii Log Data
    181.20400   -999.25000   -999.25000   -999.25000   -999.25000   -999.25000      2.04100
    181.35640      9.40000   -999.25000   -999.25000   -999.25000      0.57120      2.02700
    181.50880      9.38000   -999.25000   -999.25000   -999.25000      0.55990      1.99700
    181.66120      9.38000   -999.25000   -999.25000   -999.25000      0.58070      1.97100
    181.81360      9.38000   -999.25000   -999.25000   -999.25000      0.61770      1.97000
    181.96600      9.38000   -999.25000   -999.25000   -999.25000      0.64660      1.98500
    182.11840      9.40000   -999.25000   -999.25000   -999.25000      0.64220      1.98400
    182.27080      9.38000   -999.25000     67.80000   -999.25000      0.61000      1.95100
    182.42320      9.40000   -999.25000     67.60000   -999.25000      0.58030      1.90300
    182.57560      9.37000   -999.25000     66.50000      1.15610      0.57240      1.86800
    182.72800      9.40000   -999.25000     64.70000      1.17220      0.58490      1.85700
    182.88040      9.36000   -999.25000     62.30000      1.15610      0.60690      1.86900
    183.03280      9.39000   -999.25000     61.50000      1.14290      0.62600      1.89000
    183.18520      9.37000   -999.25000     62.20000      1.14550      0.63930      1.91200
    183.33760      9.37000   -999.25000     62.40000      1.13500      0.65660      1.92500
    183.49000      9.38000   -999.25000     62.20000      1.12980      0.68570      1.92400
    183.64240      9.38000     56.20000     62.20000      1.14550      0.70860      1.91200
    183.79480      9.37000     56.20000     62.90000      1.16150      0.70540      1.89900
    183.94720      9.38000     56.20000     63.40000      1.16680      0.68600      1.89000
    184.09960      9.37000     56.20000     62.70000      1.16410      0.66400      1.89000
    184.25200      9.38000     56.00000     61.20000      1.18850      0.63760      1.89400
    184.40440      9.38000     56.00000     59.10000      1.16410      0.60760      1.89600
    184.55680      9.38000     56.10000     56.60000      1.15080      0.58940      1.89200
    184.70920      9.40000     56.30000     55.40000      1.14550      0.59060      1.88400
    184.86160      9.37000     56.60000     56.30000      1.16410      0.60320      1.87500
    185.01400      9.38000     58.80000     58.20000      1.17760      0.61480      1.86800
    185.16640      9.38000     62.70000     59.40000      1.17220      0.61800      1.87300
    185.31880      9.38000     64.70000     59.40000      1.15080      0.61120      1.89400
    185.47120      9.40000     64.70000     59.20000      1.07900      0.59750      1.92200
    185.62360      9.38000     64.80000     58.50000      1.03280      0.58260      1.94500
    185.77600      9.37000     65.00000     56.60000      0.97500      0.57680      1.96300
    185.92840      9.39000     64.90000     54.60000      0.97950      0.58140      1.97900
    186.08080      9.39000     65.00000     53.80000      0.99310      0.58260      1.99100
    186.23320      9.41000     67.00000     53.60000      1.03040      0.57720      1.99700
    186.38560      9.38000     70.80000     51.70000      1.03280      0.57890      1.99500
    186.53800      9.37000     72.70000     47.40000      1.02570      0.58850      1.98700
    186.69040      9.37000     73.00000     42.20000      1.00690      0.57720      1.97200
    186.84280      9.38000     73.00000     38.90000      0.97280      0.53100      1.95100
    186.99520      9.38000     72.80000     38.60000      0.94620      0.48830      1.92600
    187.14760      9.38000     72.80000     41.20000      0.93110      0.48350      1.91400
    187.30000      9.36000     72.80000     45.90000      0.91620      0.50850      1.93300
    187.45240      9.37000     72.80000     52.40000      0.91410      0.52770      1.98000
    187.60480      9.37000     72.80000     58.60000      0.91830      0.52690      2.03500
    187.75720      9.38000     73.00000     60.60000      0.89950      0.53330      2.07500
    187.90960      9.38000     72.90000     57.00000      0.91410      0.56860      2.08500
    188.06200      9.37000     72.80000     50.70000      0.89740      0.62120      2.05100
    188.21440      9.36000     71.00000     45.50000      0.86300      0.66400      1.97700
    188.36680      9.40000     65.90000     43.10000      0.83750      0.69380      1.89200
    188.51920      9.37000     56.60000     41.90000      0.84920      0.72170      1.84600
    188.67160      9.38000     44.60000     40.40000      0.84330      0.73710      1.85400
    188.82400      9.38000     42.00000     38.60000      0.88920      0.71800      1.89000
    188.97640      9.37000     51.30000     37.40000      0.91620      0.68430      1.91500
    189.12880      9.37000     58.90000     36.90000      0.83370      0.67780      1.91500
    189.28120      9.37000     63.20000     35.50000      0.69020      0.71190      1.89500
    189.43360      9.39000     65.80000     33.90000      0.52120      0.77090      1.86000
    189.58600      9.39000     67.90000     35.10000      0.39630      0.82850      1.89000
    189.73840      9.38000     60.20000     39.60000      0.44460      0.86540      2.10200
    189.89080      9.39000     32.80000     44.20000      0.93760      0.87060      2.38200
    190.04320      9.42000     17.50000     46.40000      4.12100      0.86170      2.47900
    190.19560      9.42000     49.40000     47.30000      5.87490      0.83160      2.38800
    190.34800      9.83000    100.10000     49.40000      6.30960      0.76390      2.25200
    190.50040      9.95010    123.30000     52.80000      6.51630      0.68660      2.13200
    190.65280     10.11810    135.30000     56.10000      6.35330      0.63290      2.03100
    190.80520     10.25810    151.80000     59.40000      3.66440      0.61130      1.95700
    190.95760     10.37410    157.00000     62.50000      2.43220      0.60370      1.94000
    191.11000     10.55000    171.10000     66.10000      2.47740      0.59190      1.96900
    191.26240     11.65460    195.59990     69.70000      2.68530      0.58040      1.96700
    191.41480     12.36210    196.50000     72.40000      3.02690      0.58060      1.90380
    191.56720     13.13850    190.59990     74.90000      3.54000      0.59110      1.82030
    191.71960     14.19620    198.30000     77.60000      4.30530      0.60450      1.74420
    191.87200     15.50000    204.59990     81.30000      5.22400      0.62150      1.69660
    192.02440     15.72000    202.59990     84.90000      5.99790      0.63760      1.69100
    192.17680     15.71000    199.50000     85.80000      6.53130      0.62540      1.74450
    192.32920     15.49000    197.70000     82.20000      6.63740      0.56090      1.84730
    192.48160     12.19000    193.59990     74.80000      6.63740      0.46290      1.99610
    192.63400     11.49000    188.10000     67.40000      6.62220      0.37340      2.17490
    192.78640     11.07000    186.50000     62.80000      7.31140      0.31400      2.35500
    192.93880     10.11000    177.60000     60.90000      7.16140      0.28740      2.46900
    193.09120      9.78000    155.00000     60.20000      7.12860      0.28890      2.44200
    193.24360      9.38000    151.70000     58.80000      6.99840      0.31160      2.34200
    193.39600      9.18000    170.90000     56.20000      6.79200      0.34770      2.23900
    193.54840      9.17000    170.83530     52.80000      6.03950      0.38360      2.16100
    193.70080      9.18000    151.30940     49.50000      6.22300      0.40530      2.11100
    193.85320      9.17000    145.30000     46.70000      6.47140      0.41010      2.08600
    194.00560      9.18000    149.20210     44.90000      6.65280      0.40560      2.08200
    194.15800      9.17000    140.39910     44.10000      6.88650      0.40140      2.09100
    194.31040      9.18000    138.90000     44.10000      7.22770      0.40130      2.10600
