~VERSION INFORMATION
VERS.         2.0        : CWLS LOG ASCII STANDARD VERSION 2.0
WRAP.         NO         : ONE LINE PER DEPTH STEP
~WELL INFORMATION
STRT.M     181.20400                                                            :START DEPTH
STOP.M    1243.43200                                                            :STOP DEPTH
STEP.M       0.15240                                                            :STEP
NULL.          -999.25                                                          : NULL VALUE
WELL.          B-1                                                            : WELL NAME
~CURVE INFORMATION
DEPT.m          00 000 00 00                                                     : Depth Index
CALI.in         00 000 00 00                                                     :
DT.us/ft        00 000 00 00                                                     :
GR.gAPI         00 000 00 00                                                     :
LLD.ohmm        00 000 00 00                                                     :
NPHI.m3/m3      00 000 00 00                                                     :
RHOB.g/cm3      00 000 00 00                                                     :
~Ascii Log Data
# ...
    459.63880      8.96470     98.40000     42.50000      5.18800      0.32890      2.36800
    459.79120      8.97000     98.30640     40.40000      5.04660      0.32750      2.37600
    459.94360      8.97840     97.15330     39.70000      4.80840      0.31800      2.37900
    460.09600      8.99690     97.01730     40.30000      4.61320      0.31200      2.37100
    460.24840      8.97450     98.49930     40.20000      4.49780      0.32040      2.35300
    460.40080      8.95290    100.85210     39.30000      4.51860      0.33270      2.33600
    460.55320      8.92410    101.83570     38.90000      4.74240      0.33660      2.33000
    460.70560      8.93740    100.37720     38.80000      4.90910      0.33490      2.33600
    460.85800      8.93130     98.34190     37.10000      4.98890      0.32990      2.34600
    461.01040      8.93000     96.81210     34.80000      4.89780      0.32330      2.35500
    461.16280      8.93000     96.85860     34.90000      4.72060      0.32120      2.35900
    461.31520      8.93000     98.59980     37.70000      4.52900      0.33110      2.36000
    461.46760      8.93900    101.28210     40.30000      4.47710      0.34840      2.35700
    461.62000      8.95810    103.57610     41.00000      4.53940      0.35650      2.35100
    461.77240      8.95090    103.67090     40.50000      4.79730      0.35320      2.34300
    461.92480      8.95000    105.23990     40.00000      5.03500      0.34110      2.34000
    462.07720      8.95930    111.81460     39.90000      5.10510      0.32540      2.34600
    462.22960      8.93210    112.30000     40.10000      5.10510      0.31150      2.35900
    462.38200      8.93000    103.46650     40.40000      5.03500      0.30220      2.37400
    462.53440      8.93000    100.92290     40.60000      4.83060      0.29790      2.38200
    462.68680      8.93950    102.07030     40.50000      4.74240      0.29680      2.38100
    462.83920      8.95910    102.04720     40.00000      4.77170      0.29940      2.37700
    462.99160      8.94080    101.54720     39.20000      4.74120      0.30620      2.37300
    463.14400      8.96910    102.37590     39.20000      4.64550      0.31340      2.36680
    463.29640      8.97000    103.48250     40.60000      4.57330      0.32020      2.35670
    463.44880      9.03870    102.31830     43.10000      4.52210      0.33110      2.34530
    463.60120      9.04000    100.14250     45.30000      4.48060      0.34610      2.33600
    463.75360      9.04000     98.33020     45.80000      4.51370      0.35100      2.33070
    463.90600      9.04000     99.12880     44.60000      4.68340      0.35100      2.33030
    464.05840      9.04000    103.49270     43.10000      4.73150      0.34630      2.33430
    464.21080      9.03000    106.52180     42.20000      4.67160      0.33740      2.33940
    464.36320      9.05000    110.75630     42.70000      4.42760      0.32520      2.34300
    464.51560      9.06000    115.17520     43.80000      4.01470      0.32130      2.33730
    464.66800      9.06000    118.09310     44.70000      3.58090      0.33530      2.31210
    464.82040      9.06000    119.10000     45.30000      3.28080      0.35420      2.27970
    464.97280      9.09000    116.06090     45.90000      3.07650      0.37240      2.26000
    465.12520      9.09000    112.66120     46.20000      2.99920      0.39600      2.23370
    465.27760      9.10020    111.09990     45.70000      2.99920      0.42170      2.18210
    465.43000      9.13000    112.31970     45.10000      3.00610      0.42140      2.14760
    465.58240      9.13250    116.00000     46.50000      2.96480      0.40160      2.17510
    465.73480      9.25900    120.23790     51.00000      2.89740      0.38140      2.24660
    465.88720      9.22190    124.05840     57.60000      2.77330      0.37670      2.29460
    466.03960      9.28960    127.13890     63.70000      2.64240      0.39350      2.29260
    466.19200      9.52640    129.31940     66.60000      2.48310      0.42610      2.24660
    466.34440      9.43000    130.60000     66.80000      2.45470      0.45500      2.19300
    466.49680      9.05710    131.91380     67.30000      2.44120      0.45690      2.17200
    466.64920      9.01190    133.62810     68.50000      2.42110      0.43260      2.17290
    466.80160      9.04210    135.12840     69.20000      2.41210      0.40600      2.17370
    466.95400      9.07000    136.32820     68.90000      2.41770      0.39560      2.16630
    467.10640      9.06420    138.37070     68.20000      2.42660      0.40940      2.13920
    467.25880      8.98940    142.94190     68.40000      2.35640      0.44180      2.07950
    467.41120      8.87720    149.20000     69.20000      2.26640      0.48460      2.00000
    467.56360      8.84900    153.99820     69.90000      2.16470      0.52320      1.95110
    467.71600      8.84110    158.17650     70.00000      2.05310      0.53810      1.92400
    467.86840      8.85110    160.26610     70.20000      1.92750      0.53030      1.91470
    468.02080      8.85880    159.96720     70.70000      1.73180      0.51290      1.91630
    468.17320      8.85630    157.83440     70.50000      1.65580      0.49750      1.92390
    468.32560      8.91860    154.73420     69.80000      1.67880      0.48840      1.93430
    468.47800      9.07600    151.66690     69.20000      1.77470      0.48290      1.94680
    468.63040      9.31310    149.67800     68.60000      1.89290      0.48230      1.96230
    468.78280      9.37940    148.70000     66.90000      1.97700      0.48340      1.98100
    468.93520      9.31530    148.00000     64.90000      2.02210      0.48370      2.01600
    469.08760      9.30310    148.00000     64.10000      2.04230      0.48560      2.05800
    469.24000      9.41770    148.30000     64.30000      2.05590      0.49100      2.08000
    469.39240      9.70830    149.50000     64.50000      2.04230      0.49010      2.06400
    469.54480     10.01660    151.70000     65.00000      2.02350      0.47780      2.02600
    469.69720     10.17240    153.90000     65.90000      2.00610      0.46300      1.99700
    469.84960     10.11650    156.20000     66.50000      1.97650      0.46300      1.99300
    470.00200     10.01600    157.50000     66.20000      1.95630      0.46510      1.99700
    470.15440     10.02290    156.30000     65.90000      1.93640      0.45040      1.99000
    470.30680     10.16780    154.60000     66.30000      1.91490      0.45000      1.97200
    470.45920     10.42190    153.20000     66.90000      1.89610      0.46510      1.95800
    470.61160     10.57230    151.50000     67.30000      1.91110      0.48510      1.96100
    470.76400     10.60100    150.70000     67.50000      1.94940      0.48980      1.97600
    470.91640     10.78260    150.90000     67.60000      2.03210      0.48840      1.99200
    471.06880     10.89910    151.00000     68.60000      2.09700      0.48190      2.00800
    471.22120     10.05670    150.60000     70.10000      2.14290      0.47060      2.04100
    471.37360      9.71900    149.40040     70.10000      2.16050      0.45640      2.09200
    471.52600      9.61410    147.78060     68.80000      2.14730      0.44360      2.14400
    471.67840      9.57540    145.90070     68.30000      2.15610      0.43260      2.17600
    471.83080      9.60670    143.54110     68.50000      2.22230      0.42010      2.18700
    471.98320      9.64430    140.10000     66.50000      2.33460      0.40870      2.19400
    472.13560      9.60970    135.86130     61.70000      2.48110      0.39910      2.20700
    472.28800      9.55110    132.16120     56.80000      2.65950      0.39180      2.22700
    472.44040      9.53600    129.12090     53.70000      2.83970      0.38980      2.24800
    472.59280      9.55310    126.88040     52.90000      2.95800      0.39620      2.26470
    472.74520      9.55370    125.60000     53.50000      2.90400      0.40550      2.26530
