~VERSION INFORMATION
VERS.         2.0        : CWLS LOG ASCII STANDARD VERSION 2.0
WRAP.         NO         : ONE LINE PER DEPTH STEP
~WELL INFORMATION
STRT.M     181.20400                                                            :START DEPTH
STOP.M    1243.43200                                                            :STOP DEPTH
STEP.M       0.15240                                                            :STEP
NULL.          -999.25                                                          : NULL VALUE
WELL.          B-1                                                            : WELL NAME
~CURVE INFORMATION
DEPT.m          00 000 00 00                                                     : Depth Index
CALI.in         00 000 00 00                                                     :
DT.us/ft        00 000 00 00                                                     :
GR.gAPI         00 000 00 00                                                     :
LLD.ohmm        00 000 00 00                                                     :
NPHI.m3/m3      00 000 00 00                                                     :
RHOB.g/cm3      00 000 00 00                                                     :
~Ascii Log Data
# ...
    804.36760     10.35240     92.11900     49.90000      2.82490      0.27670      2.39570
    804.52000     10.43050     94.20000     51.80000      2.71640      0.28260      2.37420
    804.67240     10.51820     95.99840     53.80000      2.69150      0.29650      2.35200
    804.82480     11.20340     99.79900     55.20000      2.62420      0.31380      2.33240
    804.97720     11.70090    100.30000     56.40000      2.52350      0.32850      2.29440
    805.12960     11.75140    101.26630     58.00000      2.44340      0.33360      2.26300
    805.28200     11.22120    102.26610     59.30000      2.38230      0.33570      2.30790
    805.43440     10.78890    105.50000     60.20000      2.26990      0.33250      2.36400
    805.58680     10.72230    107.60000     60.60000      2.22840      0.31690      2.36700
    805.73920     10.40740    110.20000     59.60000      2.29880      0.29330      2.35500
    805.89160     10.00070    114.40000     56.50000      2.56530      0.27170      2.35900
    806.04400      9.86150    110.90000     52.30000      2.92090      0.25580      2.38100
    806.19640      9.88520     97.70000     48.70000      3.20930      0.24920      2.41200
    806.34880      9.91390     96.30000     48.00000      3.39230      0.25010      2.44200
    806.50120      9.77650    108.30000     50.10000      3.33450      0.25010      2.45700
    806.65360      9.64940    111.60000     53.10000      3.00610      0.25190      2.45100
    806.80600      9.56690    106.20000     56.10000      2.75420      0.26460      2.42500
    806.95840      9.50080    104.60000     61.20000      2.50100      0.29130      2.37100
    807.11080      9.48640    108.80000     68.60000      2.27790      0.31970      2.30100
    807.26320      9.52170    119.10000     74.20000      2.13490      0.33350      2.25300
    807.41560      9.72720    127.10000     74.50000      2.07810      0.33090      2.25600
    807.56800      9.96280    119.80000     71.10000      2.06220      0.32680      2.29800
    807.72040     10.07630    109.80000     68.80000      2.04330      0.33460      2.33600
    807.87280     10.08220    110.20000     69.20000      2.02520      0.35380      2.34200
    808.02520     10.08170    113.60000     72.30000      1.96790      0.37820      2.32800
    808.17760     10.09000    115.70000     76.10000      1.90670      0.39640      2.31000
    808.33000     10.06740    116.50000     78.00000      1.89550      0.39770      2.29800
    808.48240     10.03890    114.50000     76.40000      1.93720      0.37050      2.29700
    808.63480     10.03540    111.60000     73.30000      2.00480      0.33650      2.30600
    808.78720     10.06670    110.80000     72.40000      2.06620      0.32710      2.32000
    808.93960     10.10050    111.90000     74.40000      2.06740      0.33650      2.32200
    809.09200     10.17180    113.70000     76.00000      2.02770      0.34720      2.30800
    809.24440     10.39170    114.60000     74.70000      2.09890      0.35100      2.29300
    809.39680     10.55000    113.10000     72.30000      2.10860      0.34930      2.30560
    809.54920     10.55000    111.00000     72.20000      2.06540      0.34890      2.34160
    809.70160     10.55000    112.40000     75.90000      2.00910      0.35710      2.36000
    809.85400     10.55000    116.70000     81.30000      1.89230      0.37740      2.33300
    810.00640     10.45430    121.70000     85.90000      1.64060      0.40750      2.28840
    810.15880     10.34000    127.90000     89.00000      1.49280      0.44280      2.25600
    810.31120     10.30950    133.10000     90.90000      1.42560      0.46170      2.25240
    810.46360     10.27000    135.15730     92.50000      1.39960      0.46640      2.25900
    810.61600     10.26580    134.38670     93.20000      1.41910      0.46640      2.27170
    810.76840     10.34530    131.60230     92.10000      1.52060      0.46060      2.28590
    810.92080     10.50170    127.08770     88.60000      1.61440      0.44570      2.29880
    811.07320     10.52290    123.20090     83.90000      1.65580      0.42670      2.30730
    811.22560     10.45360    123.17100     81.90000      1.64060      0.41910      2.30840
    811.37800     10.33300    126.90000     84.70000      1.59590      0.42880      2.30150
    811.53040     10.20360    129.74330     90.40000      1.52760      0.44920      2.28900
    811.68280     10.24820    130.72220     95.50000      1.45890      0.45740      2.27800
    811.83520     10.39080    130.96660     96.90000      1.44990      0.44330      2.27900
    811.98760     10.55950    131.16670     95.10000      1.43220      0.42710      2.28300
    812.14000     10.61050    132.23270     94.10000      1.38480      0.42470      2.27800
    812.29240     10.46400    134.66480     96.40000      1.32640      0.43530      2.25800
    812.44480     10.25720    137.75450     99.90000      1.28230      0.45270      2.23200
    812.59720     10.62110    139.85500    100.10000      1.30140      0.46890      2.21500
    812.74960     10.96470    141.10000     97.00000      1.32070      0.47440      2.21200
    812.90200     10.64720    141.80000     95.10000      1.33910      0.46770      2.21700
    813.05440     10.53000    141.60000     95.20000      1.35770      0.46480      2.22300
    813.20680     10.50770    140.40000     94.10000      1.38040      0.47770      2.23200
    813.35920     10.50900    137.80000     90.10000      1.40610      0.49700      2.24100
    813.51160     10.78240    134.40000     85.70000      1.44440      0.49700      2.24700
    813.66400     10.90770    131.90000     84.80000      1.47230      0.47310      2.25200
    813.81640     10.61590    134.50000     86.40000      1.49150      0.44920      2.25800
    813.96880     10.21800    143.50000     88.10000      1.52760      0.44030      2.26600
    814.12120     10.20620    146.00000     88.90000      1.55240      0.44250      2.27300
    814.27360     10.19360    137.70000     89.30000      1.58490      0.43830      2.27900
    814.42600     10.21670    131.10000     90.30000      1.62930      0.42440      2.28700
    814.57840     10.24360    128.60000     90.40000      1.72190      0.41140      2.29900
    814.73080     10.21000    126.50000     88.70000      1.76600      0.40310      2.31200
    814.88320     10.21140    128.80000     86.70000      1.79060      0.39500      2.32800
    815.03560     10.22000    134.20000     86.40000      1.79060      0.38530      2.34200
    815.18800     10.21520    132.70000     87.10000      1.79060      0.38560      2.33900
    815.34040     10.17670    127.20000     85.60000      1.77010      0.39500      2.30970
    815.49280     10.15100    126.88510     81.40000      1.79470      0.40680      2.26560
    815.64520     10.15640    126.87170     77.60000      1.88800      0.41260      2.22800
    815.79760     10.12320    123.33060     76.10000      1.98610      0.40900      2.21610
    815.95000     10.16000    119.25670     76.60000      1.98610      0.39950      2.23340
    816.10240     10.18500    119.42810     77.80000      1.95430      0.39180      2.26730
    816.25480     10.58700    122.70000     80.40000      1.86210      0.39090      2.29840
    816.40720     10.72240    127.05400     84.00000      1.66340      0.39680      2.31380
    816.55960     10.76980    130.71000     86.50000      1.57400      0.40230      2.31200
    816.71200     10.43510    129.73400     86.50000      1.56320      0.39280      2.29900
    816.86440     10.19370    125.63560     84.10000      1.63300      0.36580      2.29760
    817.01680     10.55000    119.99140     80.50000      1.86210      0.33490      2.32480
    817.16920     10.34440    112.67150     76.30000      2.26470      0.30540      2.36650
    817.32160      9.95080    104.51150     73.00000      2.58820      0.26840      2.39490
    817.47400      9.79450     99.93360     71.10000      2.97170      0.23640      2.40000
