~VERSION INFORMATION
VERS.         2.0        : CWLS LOG ASCII STANDARD VERSION 2.0
WRAP.         NO         : ONE LINE PER DEPTH STEP
~WELL INFORMATION
STRT.M     181.20400                                                            :START DEPTH
STOP.M    1243.43200                                                            :STOP DEPTH
STEP.M       0.15240                                                            :STEP
NULL.          -999.25                                                          : NULL VALUE
WELL.          B-1                                                            : WELL NAME
~CURVE INFORMATION
DEPT.m          00 000 00 00                                                     : Depth Index
CALI.in         00 000 00 00                                                     :
DT.us/ft        00 000 00 00                                                     :
GR.gAPI         00 000 00 00                                                     :
LLD.ohmm        00 000 00 00                                                     :
NPHI.m3/m3      00 000 00 00                                                     :
RHOB.g/cm3      00 000 00 00                                                     :
~Ascii Log Data
# ...
    605.48560     10.22140    107.70000     55.00000      4.18790      0.26690      2.45260
    605.63800     10.12000    107.20000     53.00000      4.17830      0.26640      2.45100
    605.79040     10.12000    106.70000     50.50000      4.21700      0.26460      2.45020
    605.94280     10.14330    106.00000     49.20000      4.31520      0.26330      2.45120
    606.09520     10.15000    105.20000     48.60000      4.38530      0.26320      2.45400
    606.24760     10.14440    104.90000     48.10000      4.45660      0.25940      2.45800
    606.40000     10.14450    104.40000     47.50000      4.51860      0.25260      2.46200
    606.55240     10.14670    103.80000     47.00000      4.48750      0.24500      2.46440
    606.70480     10.14450    104.30000     47.30000      4.40560      0.24090      2.46440
    606.85720     10.16000    105.54400     48.50000      4.25520      0.24700      2.46280
    607.00960     10.16000    107.25500     50.70000      4.15400      0.25600      2.46000
    607.16200     10.16000    109.23330     52.40000      4.08020      0.26440      2.45600
    607.31440     10.17560    110.38900     51.20000      4.09170      0.26900      2.45360
    607.46680     10.17330    110.30030     47.70000      4.14220      0.26900      2.45240
    607.61920     10.17000    109.26740     44.80000      4.21430      0.26680      2.45360
    607.77160     10.16560    107.80080     45.00000      4.33210      0.26530      2.45760
    607.92400     10.16330    106.26710     46.70000      4.42930      0.26530      2.46400
    608.07640     10.17220    105.20000     47.50000      4.45660      0.26800      2.46730
    608.22880     10.17890    105.32810     47.10000      4.44630      0.27030      2.46040
    608.38120     10.17000    106.44210     46.70000      4.38530      0.26800      2.45140
    608.53360     10.17000    107.55680     47.10000      4.38530      0.26160      2.44800
    608.68600     10.16400    107.55730     49.00000      4.37520      0.25560      2.45230
    608.83840     10.16800    106.58600     51.10000      4.48750      0.25350      2.46000
    608.99080     10.18600    105.87160     51.40000      4.53940      0.25540      2.46700
    609.14320     10.21000    106.10000     50.00000      4.59200      0.25890      2.46970
    609.29560     10.21000    107.40000     48.40000      4.47710      0.26220      2.46710
    609.44800     10.20400    109.70000     48.60000      4.34510      0.26490      2.46330
    609.60040     10.22400    111.70000     50.70000      4.13050      0.26760      2.45760
    609.75280     10.25200    112.90000     52.80000      3.92650      0.27160      2.44860
    609.90520     10.22000    113.80000     54.00000      3.74970      0.27720      2.43570
    610.05760     10.20000    114.40000     54.90000      3.64760      0.28190      2.42600
    610.21000     10.20000    115.10000     55.70000      3.56450      0.28450      2.42680
    610.36240     10.20000    115.40000     55.30000      3.51560      0.28370      2.43060
    610.51480     10.19000    114.90000     52.60000      3.51560      0.28120      2.43620
    610.66720     10.20000    114.10000     49.10000      3.58100      0.27750      2.44260
    610.81960     10.20000    113.60000     47.50000      3.63800      0.27290      2.44900
    610.97200     10.18000    113.40000     48.00000      3.65230      0.27090      2.45060
    611.12440     10.18000    113.60000     49.90000      3.65720      0.27400      2.44740
    611.27680     10.19780    113.80000     52.20000      3.64040      0.27770      2.44180
    611.42920     10.18440    113.40000     53.50000      3.58810      0.27880      2.43660
    611.58160     10.18000    113.00000     54.20000      3.61410      0.27830      2.43500
    611.73400     10.18000    112.70000     54.70000      3.68130      0.27800      2.44000
    611.88640     10.18890    110.60000     54.90000      3.84590      0.27690      2.44600
    612.03880     10.20330    106.70000     54.70000      4.08320      0.27180      2.45200
    612.19120     10.21220    102.30000     53.60000      4.30530      0.26070      2.46400
    612.34360     10.22110     99.30000     52.30000      4.30530      0.24720      2.48300
    612.49600     10.23000    100.90000     52.60000      4.16870      0.23970      2.49300
    612.64840     10.26000    106.60000     54.20000      3.81940      0.25420      2.47800
    612.80080     10.20200    113.30000     57.00000      3.38070      0.28040      2.44500
    612.95320     10.17000    117.29870     59.40000      3.01990      0.30300      2.41840
    613.10560     10.22210    119.44000     60.90000      2.86420      0.32120      2.40340
    613.25800     10.64000    120.12000     62.10000      2.80540      0.33480      2.39870
    613.41040     10.80010    119.98000     62.30000      2.82490      0.34040      2.39860
    613.56280     10.84600    119.90000     62.00000      2.83790      0.33880      2.39900
    613.71520     10.84600    120.37980     62.10000      2.86420      0.33710      2.39970
    613.86760     10.85000    121.09980     63.10000      2.83140      0.33710      2.40060
    614.02000     10.89000    121.93970     64.70000      2.80540      0.33990      2.39810
    614.17240     10.88200    122.73970     66.70000      2.74870      0.34680      2.39100
    614.32480     10.91600    123.30000     68.30000      2.73670      0.35680      2.38130
    614.47720     10.97600    123.78540     69.00000      2.76920      0.36700      2.37730
    614.62960     11.01200    124.38570     68.90000      2.86280      0.37370      2.37890
    614.78200     10.94000    124.12880     68.80000      2.98220      0.37490      2.38460
    614.93440     10.87400    121.61510     68.20000      3.11280      0.36920      2.39940
    615.08680     10.71400    117.98570     65.90000      3.24860      0.35030      2.42110
    615.23920     10.66600    115.64280     63.80000      3.31220      0.33210      2.43100
    615.39160     10.66010    114.60000     63.80000      3.25840      0.33020      2.42200
    615.54400     10.76000    116.00000     65.60000      3.14050      0.34160      2.40900
    615.69640     10.87560    117.90000     67.10000      3.14770      0.35140      2.40200
    615.84880     10.92890    115.80000     67.80000      3.22110      0.35090      2.39900
    616.00120     10.73990    110.60000     68.60000      3.28850      0.33540      2.39900
    616.15360     10.56780    109.20000     71.10000      3.38840      0.30960      2.39800
    616.30600     10.49220    112.50000     74.80000      3.47540      0.29690      2.39000
    616.45840     10.47000    115.90000     77.50000      3.46740      0.31670      2.38300
    616.61080     10.47220    117.00000     76.40000      3.49140      0.33680      2.39300
    616.76320     10.48560    113.75950     72.60000      3.65600      0.32390      2.41800
    616.91560     10.53000    109.32950     70.80000      3.86370      0.29630      2.43500
    617.06800     10.48200    108.88520     71.60000      3.98110      0.28350      2.43800
    617.22040     10.46400    111.22770     72.10000      4.12100      0.28300      2.43800
    617.37280     10.46400    110.92900     70.30000      4.16870      0.28030      2.44400
    617.52520     10.47200    109.21490     68.50000      4.05510      0.27600      2.45100
    617.67760     10.48000    110.60000     69.70000      3.94460      0.27500      2.44800
    617.83000     10.49600    113.71000     72.90000      3.78440      0.28420      2.43380
    617.98240     10.48800    117.90970     76.20000      3.50750      0.30530      2.41260
    618.13480     10.49200    122.79860     78.60000      3.23590      0.33290      2.38830
    618.28720     10.53600    126.86510     80.60000      3.02690      0.35890      2.36510
    618.43960     10.64000    129.17710     82.30000      2.81840      0.37820      2.34780
    618.59200     11.06000    128.86810     81.60000      2.97170      0.38590      2.34000
