~VERSION INFORMATION
VERS.         2.0        : CWLS LOG ASCII STANDARD VERSION 2.0
WRAP.         NO         : ONE LINE PER DEPTH STEP
~WELL INFORMATION
STRT.M     181.20400                                                            :START DEPTH
STOP.M    1243.43200                                                            :STOP DEPTH
STEP.M       0.15240                                                            :STEP
NULL.          -999.25                                                          : NULL VALUE
WELL.          B-1                                                            : WELL NAME
~CURVE INFORMATION
DEPT.m          00 000 00 00                                                     : Depth Index
CALI.in         00 000 00 00                                                     :
DT.us/ft        00 000 00 00                                                     :
GR.gAPI         00 000 00 00                                                     :
LLD.ohmm        00 000 00 00                                                     :
NPHI.m3/m3      00 000 00 00                                                     :
RHOB.g/cm3      00 000 00 00                                                     :
~Ascii Log Data
# ...
   1082.80240     10.02880     87.90000     98.90000      3.42770      0.29800      2.32750
   1082.95480      9.20000     88.40000    100.30000      3.67280      0.26820      2.34820
   1083.10720      9.26450     91.90000    103.00000      3.77570      0.26040      2.29590
   1083.25960      9.47380     95.70000    104.00000      3.56450      0.26890      2.20720
   1083.41200      9.56430     97.29880    104.80000      3.18420      0.29130      2.13380
   1083.56440      9.87850     97.73330    106.70000      3.01990      0.31910      2.11480
   1083.71680     10.69370     96.86730    107.70000      2.89740      0.33100      2.16380
   1083.86920     11.00050     95.84480    106.40000      2.77970      0.32520      2.25370
   1084.02160     10.72120     96.59720    104.10000      2.75420      0.32800      2.32860
   1084.17400     10.60400     99.76310    103.10000      2.67920      0.35520      2.34560
   1084.32640     10.33410    104.42810    104.60000      2.48310      0.40710      2.30700
   1084.47880     10.45160    109.67400    108.80000      2.28030      0.46580      2.25060
   1084.63120     10.94950    114.30000    113.30000      2.05590      0.49720      2.21550
   1084.78360     10.91490    117.50000    114.60000      1.94090      0.48790      2.22110
   1084.93600     10.75380    116.50000    113.40000      1.91430      0.45610      2.25940
   1085.08840     10.64320    112.10000    113.30000      1.95430      0.42340      2.30000
   1085.24080     10.44940    110.30000    116.60000      1.99530      0.40390      2.31790
   1085.39320     10.10170    111.20000    121.40000      2.07490      0.40300      2.31560
   1085.54560      9.80710    111.70000    122.70000      2.10380      0.41440      2.31310
   1085.69800      9.38200    111.00000    119.00000      2.14290      0.42420      2.31660
   1085.85040      9.32800    109.90000    113.90000      2.20290      0.42020      2.30940
   1086.00280      9.56860    108.70000    111.50000      2.25420      0.41080      2.28230
   1086.15520     10.30080    109.00000    114.00000      2.23020      0.41470      2.25260
   1086.30760     10.79900    112.10000    118.30000      2.18270      0.43430      2.23680
   1086.46000     10.92170    114.50000    121.00000      2.04100      0.45670      2.22680
   1086.61240     10.67490    115.10000    122.90000      1.89000      0.47530      2.20910
   1086.76480     10.51130    115.70000    124.30000      1.82390      0.48990      2.19270
   1086.91720     10.85370    113.50000    124.70000      1.87930      0.48830      2.19640
   1087.06960     10.79270    108.10000    121.50000      2.02770      0.46250      2.21900
   1087.22200     10.43800    105.50000    115.20000      2.28030      0.41990      2.23540
   1087.37440     10.13920    105.70000    108.10000      2.54100      0.37890      2.22860
   1087.52680     10.21800    102.20000    100.90000      2.69770      0.35750      2.20620
   1087.67920      9.95670     95.70000     95.10000      2.73530      0.36160      2.18350
   1087.83160      9.69350     93.30000     94.50000      2.66690      0.38310      2.17230
   1087.98400     10.07270     95.70000    100.50000      2.51770      0.40540      2.18030
   1088.13640     10.88630    100.20000    108.60000      2.38390      0.41520      2.20630
   1088.28880     11.06010    105.50000    113.90000      2.32660      0.41430      2.23170
   1088.44120     10.85450    109.43600    115.40000      2.31820      0.41200      2.24220
   1088.59360     10.75630    111.34660    115.30000      2.31820      0.40940      2.24550
   1088.74600     10.68200    110.26800    115.40000      2.27380      0.40710      2.25980
   1088.89840     10.63000    107.91770    115.00000      2.21890      0.40410      2.28560
   1089.05080     10.58570    106.62080    114.60000      2.24910      0.40160      2.30450
   1089.20320     10.58480    106.55190    115.10000      2.44590      0.40120      2.30400
   1089.35560     10.63500    108.90150    116.60000      2.76370      0.40720      2.28520
   1089.50800     10.52800    111.49870    118.60000      3.21190      0.41600      2.26250
   1089.66040     10.49220    111.14940    120.30000      3.62400      0.42490      2.25420
   1089.81280     10.44000    107.92200    120.70000      3.90620      0.42950      2.26490
   1089.96520      9.99250    101.94980    120.00000      4.21540      0.42540      2.28170
   1090.11760      9.43910     95.27450    118.60000      4.33510      0.40840      2.28910
   1090.27000      9.11210     90.85810    116.70000      4.18940      0.38540      2.29240
   1090.42240      8.97640     88.60800    114.70000      4.25040      0.36590      2.31640
   1090.57480      8.93450     87.71990    112.50000      4.16260      0.34980      2.36860
   1090.72720      9.04150     87.97200    109.70000      4.15180      0.33830      2.41930
   1090.87960      8.95540     87.78020    106.30000      4.30150      0.33380      2.43800
   1091.03200      8.76870     87.51880    104.40000      4.19230      0.34610      2.42500
   1091.18440      8.67820     89.00770    107.40000      4.01790      0.35260      2.39600
   1091.33680      8.61670     90.12070    114.00000      3.81070      0.34120      2.36100
   1091.48920      8.81720     89.43200    118.10000      3.44350      0.31550      2.33800
   1091.64160      9.08280     89.46880    117.30000      3.34200      0.28910      2.35300
   1091.79400      8.83030     88.34810    115.80000      3.38070      0.27920      2.40100
   1091.94640      8.59190     86.70590    117.20000      3.53180      0.28390      2.43300
   1092.09880      8.79410     89.30000    119.50000      3.68980      0.29370      2.41900
   1092.25120      9.29420     92.80000    119.40000      3.85480      0.30710      2.38800
   1092.40360      9.38280     94.30000    119.20000      3.74970      0.31960      2.38500
   1092.55600      8.85350     95.70000    121.70000      3.67280      0.32330      2.41800
   1092.70840      9.07300     95.90000    124.60000      3.45140      0.31630      2.45600
   1092.86080      9.66410     94.20000    124.80000      3.32660      0.30060      2.47000
   1093.01320      9.76230     91.70000    122.00000      3.04090      0.27310      2.46600
   1093.16560      9.42620     90.70000    119.60000      2.93760      0.25850      2.44700
   1093.31800      9.26340     91.10000    119.10000      2.77970      0.30960      2.40000
   1093.47040      9.77880     91.90000    118.10000      2.75420      0.37220      2.31400
   1093.62280     10.16080     92.70000    116.80000      2.61820      0.41490      2.20700
   1093.77520      9.97610     93.30000    117.20000      2.58230      0.43820      2.11300
   1093.92760      9.65520     94.70000    119.70000      2.47170      0.44680      2.05500
   1094.08000      9.82200     96.80000    121.00000      2.39880      0.45300      2.02900
   1094.23240     10.30830     99.40000    119.20000      2.22840      0.46020      2.02900
   1094.38480     10.18940    101.70000    116.80000      2.15770      0.46280      2.05100
   1094.53720     10.81930    101.90000    116.10000      2.10380      0.45900      2.08400
   1094.68960     11.45800    102.60000    117.60000      2.12330      0.45150      2.12500
   1094.84200     11.90630    104.00000    120.80000      2.14780      0.44500      2.17700
   1094.99440     12.29830    105.20000    123.80000      2.18270      0.44220      2.22900
   1095.14680     12.41460    107.50000    124.70000      2.18270      0.44270      2.25400
   1095.29920     12.12540    108.90000    121.70000      2.12810      0.44470      2.23100
   1095.45160     11.80460    110.80000    116.40000      2.06540      0.44750      2.16400
   1095.60400     11.73750    112.00000    112.20000      2.01840      0.45270      2.08700
   1095.75640     11.34740    110.10000    110.30000      1.96790      0.46200      2.03100
   1095.90880     11.82090    109.10000    109.80000      1.94980      0.47200      2.00870
