~VERSION INFORMATION
VERS.         2.0        : CWLS LOG ASCII STANDARD VERSION 2.0
WRAP.         NO         : ONE LINE PER DEPTH STEP
~WELL INFORMATION
STRT.M     181.20400                                                            :START DEPTH
STOP.M    1243.43200                                                            :STOP DEPTH
STEP.M       0.15240                                                            :STEP
NULL.          -999.25                                                          : NULL VALUE
WELL.          B-1                                                            : WELL NAME
~CURVE INFORMATION
DEPT.m          00 000 00 00                                                     : Depth Index
CALI.in         00 000 00 00                                                     :
DT.us/ft        00 000 00 00                                                     :
GR.gAPI         00 000 00 00                                                     :
LLD.ohmm        00 000 00 00                                                     :
NPHI.m3/m3      00 000 00 00                                                     :
RHOB.g/cm3      00 000 00 00                                                     :
~Ascii Log Data
# ...
    393.34480     10.99000    155.20000     73.50000      1.52170      0.48020      2.02200
    393.49720     10.99000    156.10000     71.70000      1.56850      0.48760      2.02600
    393.64960     11.00000    151.60000     68.10000      1.62080      0.47100      2.04100
    393.80200     11.27000    145.80000     65.40000      1.71490      0.44750      2.08000
    393.95440     11.42000    142.30000     63.80000      1.81330      0.43460      2.13200
    394.10680     11.45000    139.40000     62.70000      1.88100      0.43010      2.16300
    394.25920     11.51000    139.70000     61.80000      1.92460      0.42830      2.16000
    394.41160     11.63000    142.20000     60.50000      1.95140      0.42990      2.14700
    394.56400     11.73000    141.40000     59.00000      1.99990      0.43030      2.14700
    394.71640     11.72000    139.53360     56.90000      2.00910      0.42170      2.15600
    394.86880     11.76000    138.13340     55.40000      2.02770      0.40720      2.16300
    395.02120     11.91000    137.06680     55.00000      2.05120      0.39830      2.17100
    395.17360     11.92000    137.25530     55.20000      2.06540      0.40340      2.18100
    395.32600     11.62000    138.63300     56.20000      2.03240      0.41880      2.18300
    395.47840     11.67000    140.23270     58.50000      2.02300      0.43120      2.17800
    395.63080     12.00000    140.76730     62.00000      2.05590      0.43250      2.17600
    395.78320     12.02000    139.14680     64.20000      2.10380      0.42450      2.18400
    395.93560     12.01000    135.50000     63.30000      2.12980      0.41380      2.19800
    396.08800     12.03000    134.10000     62.40000      2.13300      0.40940      2.20300
    396.24040     12.02000    137.40000     63.60000      2.10070      0.41970      2.18400
    396.39280     12.03000    142.60000     66.20000      2.02730      0.44180      2.14600
    396.54520     12.04000    147.40000     67.30000      1.93410      0.45870      2.10600
    396.69760     12.06000    150.20000     66.70000      1.84270      0.46480      2.08000
    396.85000     12.19000    150.80000     67.60000      1.77200      0.47030      2.06600
    397.00240     12.34000    151.00000     70.60000      1.74580      0.48190      2.05600
    397.15480     12.36000    151.60000     72.80000      1.71400      0.49620      2.05900
    397.30720     12.05000    151.30000     71.30000      1.73870      0.50030      2.08300
    397.45960     12.02000    147.90000     67.80000      1.86170      0.47390      2.12500
    397.61200     11.86000    138.90000     64.50000      2.10490      0.41530      2.17300
    397.76440     11.69000    128.30000     60.40000      2.50980      0.34840      2.22000
    397.91680     11.74000    119.20000     54.80000      2.88510      0.30540      2.26000
    398.06920     11.68000    114.60000     51.00000      2.98250      0.30540      2.27900
    398.22160     11.69000    120.60000     53.00000      2.86420      0.34240      2.26000
    398.37400     11.83000    132.80000     59.50000      2.57630      0.38750      2.21000
    398.52640     12.00000    141.90000     64.30000      2.23360      0.41600      2.16400
    398.67880     11.74000    145.20000     64.10000      2.08930      0.42090      2.15100
    398.83120     11.89000    141.70000     60.90000      2.11350      0.41290      2.17000
    398.98360     12.28000    135.80000     60.10000      2.15770      0.40690      2.18800
    399.13600     12.31000    133.90000     63.20000      2.18270      0.41080      2.18000
    399.28840     12.12000    137.00000     66.30000      2.13800      0.42310      2.14600
    399.44080     12.03000    143.70000     66.80000      1.98610      0.44250      2.10100
    399.59320     11.89000    149.20000     65.20000      1.83070      0.46090      2.06550
    399.74560     11.57000    151.60000     64.00000      1.75100      0.47330      2.04620
    399.89800     11.59000    152.60000     65.00000      1.70490      0.48110      2.04400
    400.05040     12.31000    151.20000     66.80000      1.70350      0.48920      2.05170
    400.20280     12.28000    149.60000     67.70000      1.76100      0.49620      2.06370
    400.35520     12.40000    147.60000     67.70000      1.89380      0.49100      2.08130
    400.50760     12.40000    140.40000     66.40000      2.10070      0.46030      2.11110
    400.66000     12.24000    129.80000     62.50000      2.35020      0.42210      2.15730
    400.81240     11.53000    119.60000     57.00000      2.69770      0.38690      2.21600
    400.96480     11.47000    113.10000     52.20000      2.97170      0.35830      2.28300
    401.11720     11.74000    114.40000     51.10000      3.09030      0.34000      2.31800
    401.26960     11.92000    121.10000     53.90000      3.04090      0.34270      2.29600
    401.42200     11.90000    128.70000     58.10000      2.84450      0.36910      2.23400
    401.57440     11.94000    134.40000     60.90000      2.58820      0.40280      2.18400
    401.72680     12.43000    133.40000     60.60000      2.51190      0.40790      2.17900
    401.87920     12.58000    127.30000     58.30000      2.56450      0.39030      2.21100
    402.03160     12.82000    122.60000     56.60000      2.70400      0.37590      2.25200
    402.18400     12.86000    120.82250     56.60000      2.91740      0.37580      2.28500
    402.33640     12.61000    120.52220     56.90000      3.08320      0.37530      2.29760
    402.48880     12.64000    120.96650     55.30000      3.25090      0.35440      2.29940
    402.64120     12.54000    120.20020     51.20000      3.39630      0.32540      2.30860
    402.79360     12.54000    117.08920     46.70000      3.60580      0.29860      2.33780
    402.94600     12.58000    112.16740     44.00000      3.86370      0.28040      2.37870
    403.09840     12.75000    107.30040     42.70000      4.08320      0.27230      2.40700
    403.25080     12.68000    104.57760     43.10000      4.04580      0.27540      2.39480
    403.40320     12.65000    105.20000     44.70000      3.87880      0.29170      2.35020
    403.55560     12.50000    113.16120     47.10000      3.52340      0.32020      2.30260
    403.70800     12.59000    122.49550     50.70000      3.01930      0.35450      2.26490
    403.86040     12.75000    130.70000     55.60000      2.56960      0.38930      2.22060
    404.01280     12.88000    138.96330     61.00000      2.19240      0.42800      2.16260
    404.16520     12.90000    146.42960     65.40000      1.84160      0.46760      2.11300
    404.31760     12.93000    154.10000     67.70000      1.64060      0.49850      2.08800
    404.47000     12.98000    155.25530     68.80000      1.53700      0.51790      2.07400
    404.62240     13.06000    155.55550     69.00000      1.45770      0.52520      2.06900
    404.77480     13.12000    156.86630     68.30000      1.44320      0.52180      2.07300
    404.92720     13.25000    157.27780     66.30000      1.47750      0.51070      2.08000
    405.07960     12.95000    156.74450     64.00000      1.50620      0.49560      2.08700
    405.23200     12.63000    156.69940     63.80000      1.52420      0.48000      2.08900
    405.38440     12.43000    157.32250     66.50000      1.55800      0.46720      2.08700
    405.53680     12.37000    156.50070     69.90000      1.57520      0.46350      2.08000
    405.68920     12.15000    154.90000     70.80000      1.55600      0.48370      2.07300
    405.84160     12.12000    155.19890     69.90000      1.54640      0.51770      2.07000
    405.99400     12.13000    157.62740     69.70000      1.52760      0.51520      2.07500
    406.14640     12.06000    158.64340     70.40000      1.52060      0.47760      2.07700
    406.29880     11.94000    156.70100     71.20000      1.52410      0.47460      2.06900
    406.45120     12.03000    156.37110     71.80000      1.50080      0.51040      2.05400
