~VERSION INFORMATION
VERS.         2.0        : CWLS LOG ASCII STANDARD VERSION 2.0
WRAP.         NO         : ONE LINE PER DEPTH STEP
~WELL INFORMATION
STRT.M     181.20400                                                            :START DEPTH
STOP.M    1243.43200                                                            :STOP DEPTH
STEP.M       0.15240                                                            :STEP
NULL.          -999.25                                                          : NULL VALUE
WELL.          B-1                                                            : WELL NAME
~CURVE INFORMATION
DEPT.m          00 000 00 00                                                     : Depth Index
CALI.in         00 000 00 00                                                     :
DT.us/ft        00 000 00 00                                                     :
GR.gAPI         00 000 00 00                                                     :
LLD.ohmm        00 000 00 00                                                     :
NPHI.m3/m3      00 000 00 00                                                     :
RHOB.g/cm3      00 000 00 00                                                     :
~Ascii Log Data
# ...
   1228.64920      8.56000     86.57150    102.40000      9.09910      0.29190      2.34750
   1228.80160      8.59000     86.96860    102.50000      9.48420      0.29740      2.34900
   1228.95400      8.61000     86.52300    100.90000      9.46240      0.29760      2.34400
   1229.10640      8.71000     84.94550    100.60000      8.93310      0.28970      2.34400
   1229.25880      8.73000     82.26050    104.50000      7.94330      0.27800      2.35700
   1229.41120      8.66000     79.49950    110.40000      7.06320      0.26760      2.37500
   1229.56360      8.58000     78.34570    113.90000      6.75020      0.26540      2.38100
   1229.71600      8.54000     79.66360    112.40000      6.88440      0.27510      2.36700
   1229.86840      8.54000     82.79900    108.10000      7.22540      0.29150      2.34100
   1230.02080      8.45000     85.80280    104.60000      7.43620      0.30880      2.31900
   1230.17320      8.44000     87.41420    102.80000      7.40580      0.31300      2.31600
   1230.32560      8.51000     87.62000    103.40000      7.08930      0.30350      2.32800
   1230.47800      8.64000     86.80900    106.00000      6.65850      0.28990      2.34400
   1230.63040      8.64000     85.61120    109.70000      6.24880      0.28290      2.35900
   1230.78280      8.67000     84.71980    113.00000      6.04250      0.28270      2.36500
   1230.93520      8.64000     84.71420    114.10000      6.21320      0.28650      2.35900
   1231.08760      8.62000     85.91450    112.90000      6.70030      0.29210      2.34600
   1231.24000      8.64000     88.07480    110.40000      7.21750      0.30500      2.33100
   1231.39240      8.57000     89.80000    109.30000      7.65590      0.32350      2.31900
   1231.54480      8.55000     90.01710    110.50000      7.86040      0.33670      2.31400
   1231.69720      8.58000     88.71370    111.70000      7.77150      0.32790      2.32100
   1231.84960      8.58000     86.46330    110.80000      7.69670      0.29720      2.34400
   1232.00200      8.66000     84.91990    108.20000      7.98670      0.26990      2.37300
   1232.15440      8.66000     84.70570    106.80000      8.59090      0.26100      2.38500
   1232.30680      8.61000     84.89420     98.20000      9.26340      0.26820      2.37200
   1232.45920      8.65000     85.00000     80.90000      9.72060      0.27530      2.35100
   1232.61160      8.70000     83.90000     71.40000      9.69060      0.27330      2.34800
   1232.76400      8.69000     81.70000     78.20000      9.02490      0.26520      2.37100
   1232.91640      8.70000     79.40000     92.40000      8.01680      0.25730      2.40500
   1233.06880      8.60000     77.00000      0.00000      7.09580      0.25250      2.43300
   1233.22120      8.57000     75.80000      0.00000      6.47140      0.25150      2.44100
   1233.37360      8.51000     76.80000      0.00000      6.32410      0.25740      2.42300
   1233.52600      8.60000     79.40000      0.00000      6.36800      0.27250      2.38800
   1233.67840      8.53000     82.80000      0.00000      6.68350      0.29430      2.35400
   1233.83080      8.54000     85.60000      0.00000      7.04690      0.31890      2.33400
   1233.98320      8.59000     86.90000      0.00000      7.07950      0.32760      2.32900
   1234.13560      8.58000     86.60000      0.00000      6.88650      0.31540      2.33400
   1234.28800      8.57000     85.30000      0.00000      6.76080      0.29300      2.34900
   1234.44040      8.57000     84.00000      0.00000      6.48640      0.27930      2.36900
   1234.59280      8.48000     83.30000      0.00000      6.59180      0.27450      2.38100
   1234.74520      8.58000     83.50000      0.00000      7.46450      0.27610      2.37400
   1234.89760      8.66000     84.60000      0.00000      8.72970      0.28000      2.35200
   1235.05000      8.66000     85.60000      0.00000      9.88560      0.28630      2.33400
   1235.20240      8.63000     85.10000      0.00000     10.35140      0.29510      2.33400
   1235.35480      8.49000     83.40000      0.00000     10.42320      0.30040      2.34800
   1235.50720      8.54000     80.90000      0.00000      9.77240      0.29370      2.36400
   1235.65960      8.68000     76.90000      0.00000      8.83080      0.27170      2.38500
   1235.81200      8.70000     74.00000      0.00000      7.98000      0.24100      2.42100
   1235.96440      8.64000     74.20000      0.00000      8.01680      0.21380      2.45900
   1236.11680      8.62000     76.10000      0.00000      7.31140      0.20720      2.46700
   1236.26920      8.68000     79.90000      0.00000      6.82340      0.22790      2.43500
   1236.42160      8.73000     82.80000      0.00000      6.33870      0.25730      2.40000
   1236.57400      8.66000     82.30000      0.00000      5.94290      0.27210      2.39600
   1236.72640      8.58000     80.90000      0.00000      5.75440      0.27110      2.41000
   1236.87880      8.53000     80.80000      0.00000      1.00000      0.26880      2.41200
   1237.03120      8.62000     82.30000      0.00000      1.00000      0.27110      2.39100
   1237.18360      8.59000     84.80000      0.00000      1.00000      0.27510      2.36800
   1237.33600      8.57000     86.70000      0.00000      1.00000      0.28230      2.35900
   1237.48840      8.57000     87.20000      0.00000      1.00000      0.29490      2.35900
   1237.64080      8.60000     86.90000      0.00000      1.00000      0.30820      2.35700
   1237.79320      8.64000     86.00000      0.00000      1.00000      0.31590      2.35100
   1237.94560      8.61000     85.50000      0.00000      1.00000      0.31860      2.34900
   1238.09800      8.61000     85.80000      0.00000      1.00000      0.31860      2.35200
   1238.25040      8.60000     86.50000      0.00000      1.00000      0.31950      2.35000
   1238.40280      8.58000     86.70000      0.00000      1.00000      0.31840      2.34400
   1238.55520      8.43000     85.90000      0.00000      1.00000      0.31170      2.34900
   1238.70760      8.38000     84.20000      0.00000      1.00000      0.30430      2.36400
   1238.86000      8.48000     83.00000      0.00000      1.00000      0.30450      2.37800
   1239.01240      8.53000     82.60000      0.00000      1.00000      0.31220      2.38600
   1239.16480      8.56000     82.70000      0.00000      1.00000      0.31760      2.39600
   1239.31720      8.58000     82.80000      0.00000      1.00000      0.31860      2.41700
   1239.46960      8.55000     82.60000      0.00000      1.00000      0.33220      2.44700
   1239.62200      8.46000     82.60000      0.00000      1.00000      0.36630      2.47300
   1239.77440      8.35000     82.80000      0.00000      1.00000      0.39910      2.48300
   1239.92680      8.31000     82.90000      0.00000      1.00000      0.40990      2.46400
   1240.07920      8.25000     82.90000      0.00000      1.00000      0.40350      2.42300
   1240.23160      8.23000     82.60000      0.00000      1.00000     -0.03380      2.38000
   1240.38400      8.18000     82.60000      0.00000      1.00000     -0.03380      2.35000
   1240.53640      8.12000     82.80000      0.00000      1.00000     -0.03380      2.33400
   1240.68880      8.07000     82.90000      0.00000      1.00000     -0.03380      2.32800
   1240.84120      8.05000     82.90000      0.00000      1.00000     -0.03380      2.32500
   1240.99360      8.06000     82.90000      0.00000      1.00000     -0.03380      2.32400
   1241.14600      8.05000     88.40000      0.00000      1.00000     -0.03390      2.32200
   1241.29840      8.05000     99.60000      0.00000      1.00000     -0.03390      2.32100
   1241.45080      8.05000      0.00000      0.00000      1.00000     -0.03390      2.32200
   1241.60320      8.05000      0.00000      0.00000      1.00000     -0.03390      2.32200
   1241.75560      8.05000      0.00000      0.00000   -999.25000     -0.03390      2.31900
