~VERSION INFORMATION
VERS.         2.0        : CWLS LOG ASCII STANDARD VERSION 2.0
WRAP.         NO         : ONE LINE PER DEPTH STEP
~WELL INFORMATION
STRT.M     181.20400                                                            :START DEPTH
STOP.M    1243.43200                                                            :STOP DEPTH
STEP.M       0.15240                                                            :STEP
NULL.          -999.25                                                          : NULL VALUE
WELL.          B-1                                                            : WELL NAME
~CURVE INFORMATION
DEPT.m          00 000 00 00                                                     : Depth Index
CALI.in         00 000 00 00                                                     :
DT.us/ft        00 000 00 00                                                     :
GR.gAPI         00 000 00 00                                                     :
LLD.ohmm        00 000 00 00                                                     :
NPHI.m3/m3      00 000 00 00                                                     :
RHOB.g/cm3      00 000 00 00                                                     :
~Ascii Log Data
# ...
    950.21440     10.02000    128.29940    110.70000      1.36140      0.40730      2.31420
    950.36680     10.08000    128.30030    108.60000      1.40930      0.41130      2.31270
    950.51920     10.07000    124.90000    104.60000      1.45880      0.41870      2.30460
    950.67160     10.05000    121.90040    102.00000      1.48250      0.41980      2.30160
    950.82400     10.24000    120.74990    102.30000      1.49970      0.41100      2.30970
    950.97640     10.57000    121.99940    103.90000      1.51360      0.39230      2.32610
    951.12880     10.97000    122.10000    104.60000      1.61060      0.36900      2.34290
    951.28120     11.04000    118.52620    104.30000      1.70220      0.34950      2.35180
    951.43360     10.51000    112.90310    103.30000      1.79890      0.34190      2.34930
    951.58600     10.30000    110.87500    102.30000      1.86210      0.35040      2.34000
    951.73840     10.32000    112.50000    102.70000      1.90110      0.37290      2.32840
    951.89080     10.45000    115.30000    106.00000      1.79030      0.39740      2.31790
    952.04320     10.77000    118.40000    110.30000      1.69620      0.41100      2.30930
    952.19560     11.01000    119.00000    113.40000      1.61380      0.41170      2.30300
    952.34800     10.74000    119.00000    114.70000      1.55290      0.40880      2.30320
    952.50040     10.66000    119.20000    114.10000      1.56840      0.41190      2.30810
    952.65280     10.39000    118.80000    112.80000      1.58700      0.41690      2.31200
    952.80520     10.26000    118.60000    112.00000      1.58850      0.42100      2.31350
    952.95760     10.28000    119.00000    111.50000      1.60820      0.42340      2.31310
    953.11000     10.27000    119.88820    110.30000      1.60780      0.42380      2.31110
    953.26240     10.71000    120.00000    108.30000      1.62940      0.42300      2.30750
    953.41480     11.04000    118.53410    107.10000      1.66180      0.41980      2.30510
    953.56720     10.77000    116.18840    105.80000      1.71940      0.41360      2.30470
    953.71960     10.98000    114.14500    103.40000      1.79650      0.40490      2.30640
    953.87200     10.58000    112.90010    101.90000      1.86280      0.39530      2.30930
    954.02440     10.30000    112.16690    101.90000      1.91530      0.38720      2.31270
    954.17680     10.09000    111.55610    102.30000      1.95890      0.38050      2.31800
    954.32920     10.00000    110.40000    101.40000      1.99530      0.37530      2.32600
    954.48160     10.04000    108.08970     99.90000      1.98200      0.36900      2.33980
    954.63400     10.37000    106.78920     99.50000      1.94110      0.35600      2.34360
    954.78640     10.37000    107.89950    100.10000      1.88200      0.34100      2.33610
    954.93880     10.20000    111.32120    102.50000      1.80690      0.34880      2.32700
    955.09120     10.20000    115.54210    106.70000      1.72490      0.37670      2.32040
    955.24360     10.30000    118.86640    110.60000      1.65380      0.39530      2.31390
    955.39600     10.14000    120.51090    112.80000      1.60650      0.41080      2.30600
    955.54840     10.27000    120.83320    113.30000      1.60330      0.42120      2.29980
    955.70080     10.57000    120.30000    114.20000      1.63410      0.42420      2.29670
    955.85320     10.48000    119.25960    114.50000      1.64600      0.41780      2.29800
    956.00560     10.42000    118.40000    112.00000      1.65960      0.40700      2.30290
    956.15800     10.63000    117.80000    108.00000      1.66180      0.39770      2.30780
    956.31040     10.70000    117.44000    105.60000      1.64980      0.38790      2.30900
    956.46280     10.48000    117.20000    106.50000      1.66730      0.37930      2.30590
    956.61520     10.55000    117.35990    107.90000      1.74580      0.37820      2.30220
    956.76760     10.68000    117.63990    106.40000      1.84920      0.37870      2.30400
    956.92000     10.71000    117.56010    102.00000      1.94440      0.37310      2.31560
    957.07240     10.86000    116.70170     97.40000      2.03930      0.36070      2.32790
    957.22480     11.09000    114.70000     95.70000      2.07490      0.35110      2.33500
    957.37720     11.15000    111.00000     96.30000      2.07490      0.35210      2.33480
    957.52960     11.21000    107.10000     98.00000      2.07330      0.35700      2.32940
    957.68200     11.26000    104.50000     99.30000      2.06800      0.35750      2.32270
    957.83440     10.99000    104.40000     98.90000      2.06330      0.35680      2.31470
    957.98680     11.07000    104.20000     96.90000      2.08450      0.35620      2.29910
    958.13920     10.86000    103.10000     94.90000      2.12600      0.35580      2.26800
    958.29160     11.23000    103.50000     95.10000      2.08760      0.35540      2.21900
    958.44400     11.36000    104.10000     98.90000      1.98010      0.35680      2.18400
    958.59640     10.88000    104.50000    104.60000      1.85450      0.36130      2.18500
    958.74880     10.51000    105.60000    108.20000      1.77080      0.36670      2.21700
    958.90120     10.52000    107.20000    105.80000      1.77890      0.36780      2.25400
    959.05360     10.54000    109.90000     98.40000      1.88360      0.36160      2.27700
    959.20600     11.05000    112.70000     91.30000      2.02770      0.34710      2.29300
    959.35840     11.37000    115.10000     89.20000      2.12810      0.32950      2.31000
    959.51080     11.14000    114.70000     93.10000      2.18270      0.31680      2.33000
    959.66320     11.05000    110.10000     98.30000      2.11350      0.31560      2.34130
    959.81560     11.11000    105.40000    100.70000      2.05590      0.32810      2.34100
    959.96800     11.06000    102.90000    100.70000      2.01370      0.35020      2.33670
    960.12040     10.89000    103.40000     99.40000      2.08930      0.37190      2.34130
    960.27280     10.58000    106.20000     97.00000      2.17270      0.36780      2.36300
    960.42520     10.52000    108.50000     93.40000      2.36400      0.33650      2.38700
    960.57760     10.37000    109.20000     89.20000      2.48880      0.31220      2.40870
    960.73000     10.17000    107.40000     85.20000      2.58470      0.30120      2.42270
    960.88240      9.99000    104.20000     82.20000      2.74380      0.29100      2.42980
    961.03480     10.43000    101.20000     80.80000      2.95690      0.27580      2.43820
    961.18720     10.28000     97.80000     79.20000      3.15860      0.25460      2.45530
    961.33960      9.97000     95.70000     76.00000      3.31360      0.23450      2.47840
    961.49200     10.28000     94.80000     74.10000      3.41900      0.22710      2.49210
    961.64440      9.63000     90.50000     77.20000      3.34970      0.24090      2.47700
    961.79680      9.84000     86.90000     83.20000      2.94130      0.26460      2.43440
    961.94920     11.15000     87.60000     87.00000      2.55730      0.27950      2.39170
    962.10160     11.31000     90.30000     86.60000      2.34420      0.28110      2.36640
    962.25400     11.13000     94.30000     84.40000      2.41010      0.27710      2.36070
    962.40640     10.83000     98.20000     82.70000      2.50840      0.27320      2.36910
    962.55880     10.33000     99.50000     82.60000      2.50610      0.27260      2.38400
    962.71120     10.57000     98.30000     83.20000      2.46500      0.27620      2.39870
    962.86360     10.55000     96.70000     83.40000      2.40800      0.27890      2.40830
    963.01600     10.31000     96.40000     84.10000      2.35090      0.27750      2.41100
    963.16840     10.15000     96.20000     85.50000      2.29020      0.27900      2.40330
    963.32080     10.21000     95.30000     88.20000      2.20290      0.29280      2.39400
