~VERSION INFORMATION
VERS.         2.0        : CWLS LOG ASCII STANDARD VERSION 2.0
WRAP.         NO         : ONE LINE PER DEPTH STEP
~WELL INFORMATION
STRT.M     181.20400                                                            :START DEPTH
STOP.M    1243.43200                                                            :STOP DEPTH
STEP.M       0.15240                                                            :STEP
NULL.          -999.25                                                          : NULL VALUE
WELL.          B-1                                                            : WELL NAME
~CURVE INFORMATION
DEPT.m          00 000 00 00                                                     : Depth Index
CALI.in         00 000 00 00                                                     :
DT.us/ft        00 000 00 00                                                     :
GR.gAPI         00 000 00 00                                                     :
LLD.ohmm        00 000 00 00                                                     :
NPHI.m3/m3      00 000 00 00                                                     :
RHOB.g/cm3      00 000 00 00                                                     :
~Ascii Log Data
# ...
    525.93280      9.45720    128.45470     42.00000      3.07610      0.36450      2.06420
    526.08520      9.41230    128.74180     40.80000      3.01990      0.36870      2.06640
    526.23760      9.40380    128.96770     38.20000      3.02690      0.36900      2.09200
    526.39000      9.39070    129.78350     36.40000      2.99230      0.36910      2.10100
    526.54240      9.35610    131.52510     35.90000      2.99230      0.36950      2.11030
    526.69480      9.35390    131.60650     35.50000      2.97850      0.36840      2.11700
    526.84720      9.36790    130.05220     35.40000      2.98540      0.36420      2.10900
    526.99960      9.39190    129.20000     36.10000      2.99920      0.35730      2.10570
    527.15200      9.41000    128.60000     37.20000      3.01990      0.35250      2.11300
    527.30440      9.41000    128.40000     38.40000      3.05490      0.34960      2.11680
    527.45680      9.41000    128.50000     40.40000      3.11890      0.34700      2.12340
    527.60920      9.40190    126.80000     45.30000      3.19890      0.34290      2.13810
    527.76160      9.37380    123.10000     53.30000      3.27340      0.33690      2.15760
    527.91400      9.33780    119.90000     60.60000      3.35740      0.33080      2.17220
    528.06640      9.25030    118.90000     62.70000      3.41190      0.33160      2.17420
    528.21880      9.07170    119.30000     58.30000      3.39450      0.33980      2.16830
    528.37120      8.82320    120.94780     51.40000      3.36070      0.35330      2.16120
    528.52360      8.60500    123.15970     46.50000      3.33850      0.36090      2.15840
    528.67600      8.65360    124.11780     44.60000      3.43260      0.35260      2.16280
    528.82840      8.77840    123.93640     44.30000      3.60150      0.32520      2.17380
    528.98080      8.77310    123.39090     44.20000      3.75080      0.29310      2.18780
    529.13320      8.72030    122.89080     44.30000      3.84050      0.27260      2.19930
    529.28560      8.63300    123.19390     45.10000      3.83260      0.26860      2.20270
    529.43800      8.57430    124.36070     46.70000      3.71040      0.27780      2.19620
    529.59040      8.56710    126.08200     49.80000      3.58300      0.29390      2.18510
    529.74280      8.53270    127.85400     53.50000      3.49480      0.30760      2.17740
    529.89520      8.48380    129.13300     55.20000      3.42970      0.31180      2.17600
    530.04760      8.42810    129.62720     52.50000      3.33780      0.30990      2.17430
    530.20000      8.39560    129.03360     46.10000      3.27530      0.30680      2.16620
    530.35240      8.39440    127.21870     40.30000      3.17790      0.30710      2.15280
    530.50480      8.40890    125.00040     39.10000      3.09060      0.31310      2.14000
    530.65720      8.42450    123.17640     43.60000      3.02900      0.32030      2.13330
    530.80960      8.44340    121.62510     50.90000      3.01210      0.32740      2.13760
    530.96200      8.46000    119.43750     55.80000      2.96530      0.33410      2.15200
    531.11440      8.46000    114.23770     55.50000      2.98360      0.33980      2.16930
    531.26680      8.45090    105.85590     50.10000      3.08930      0.34400      2.18650
    531.41920      8.44000     99.70930     42.90000      3.24720      0.34680      2.21000
    531.57160      8.44000     99.69950     37.40000      3.45840      0.34790      2.23650
    531.72400      8.46770    104.79240     35.70000      3.79260      0.34600      2.25140
    531.87640      8.50460    113.85840     37.40000      4.16060      0.33900      2.23960
    532.02880      8.51000    122.41930     40.60000      4.40220      0.32910      2.20550
    532.18120      8.53340    125.27880     44.10000      4.48810      0.31690      2.17090
    532.33360      8.55060    125.32690     45.50000      4.36190      0.30250      2.15110
    532.48600      8.54470    126.03590     43.00000      4.04210      0.29460      2.14600
    532.63840      8.51690    127.01740     38.10000      3.69970      0.29560      2.14770
    532.79080      8.48000    128.82630     33.90000      3.47730      0.30430      2.15210
    532.94320      8.47520    131.16060     32.50000      3.45490      0.31430      2.16070
    533.09560      8.49400    132.06670     32.40000      3.56490      0.31660      2.17230
    533.24800      8.52000    131.00000     32.20000      3.69730      0.30870      2.17940
    533.40040      8.52000    129.31430     32.30000      3.69010      0.29450      2.17640
    533.55280      8.50540    127.82930     33.90000      3.61430      0.27990      2.16710
    533.70520      8.49980    126.68600     37.80000      3.39380      0.26840      2.16040
    533.85760      8.51490    126.05740     43.10000      3.19480      0.26120      2.15950
    534.01000      8.49530    124.80040     47.90000      3.03920      0.25880      2.16100
    534.16240      8.47000    123.37190     51.50000      3.00610      0.26390      2.16210
    534.31480      8.48490    121.90000     54.40000      3.03310      0.27930      2.17050
    534.46720      8.50000    120.85690     56.70000      3.12580      0.30290      2.19110
    534.61960      8.51500    121.51380     57.00000      3.22620      0.32420      2.21550
    534.77200      8.53000    122.94250     55.00000      3.29590      0.33020      2.22800
    534.92440      8.53510    124.88570     52.60000      3.31970      0.31930      2.21970
    535.07680      8.52480    125.98570     52.40000      3.30360      0.29920      2.20710
    535.22920      8.51510    126.10000     56.40000      3.27850      0.28060      2.21110
    535.38160      8.52000    126.40000     64.10000      3.19370      0.27020      2.24120
    535.53400      8.51490    125.95730     72.40000      3.09560      0.26820      2.28140
    535.68640      8.54100    125.52890     78.40000      3.00650      0.27230      2.30360
    535.83880      8.62190    124.62930     81.80000      2.93780      0.28200      2.28800
    535.99120      8.66480    124.28550     84.00000      2.83080      0.29790      2.23960
    536.14360      8.60770    125.71370     84.70000      2.83140      0.31720      2.18530
    536.29600      8.51800    127.05670     84.50000      2.83140      0.33080      2.14840
    536.44840      8.48000    127.70000     84.60000      2.81900      0.33250      2.13420
    536.60080      8.47470    126.86670     84.30000      2.85470      0.33410      2.13020
    536.75320      8.48590    124.94670     80.90000      2.84580      0.33990      2.11930
    536.90560      8.50000    124.81990     74.10000      2.81020      0.33980      2.09630
    537.05800      8.50540    126.01980     68.00000      2.78350      0.32840      2.07130
    537.21040      8.51540    126.43350     65.70000      2.74290      0.31660      2.05740
    537.36280      8.52000    122.46130     64.70000      2.73020      0.32120      2.06070
    537.51520      8.49830    112.58710     61.30000      2.78360      0.34600      2.07810
    537.66760      8.48540    101.01340     54.60000      2.85330      0.37420      2.10220
    537.82000      8.50090     94.16230     46.90000      2.88050      0.38500      2.12780
    537.97240      8.49900     96.52930     40.30000      2.91240      0.37920      2.15770
    538.12480      8.47350    104.92010     36.50000      3.01350      0.37020      2.20620
    538.27720      8.46550    113.05690     38.30000      3.25420      0.36700      2.29270
    538.42960      8.47550    118.57160     46.50000      3.86620      0.36950      2.41070
    538.58200      8.51900    120.69270     59.50000      5.14870      0.37440      2.50280
    538.73440      8.53320    121.70000     74.30000      6.35460      0.37950      2.50470
    538.88680      8.50320    123.31280     87.20000      6.91220      0.38240      2.41970
    539.03920      8.48440    123.66930     93.70000      7.01340      0.38050      2.31750
