~VERSION INFORMATION
VERS.         2.0        : CWLS LOG ASCII STANDARD VERSION 2.0
WRAP.         NO         : ONE LINE PER DEPTH STEP
~WELL INFORMATION
STRT.M     176.93600                                                            :START DEPTH
STOP.M    1710.99440                                                            :STOP DEPTH
STEP.M       0.15240                                                            :STEP
NULL.          -999.25                                                          : NULL VALUE
WELL.          B-2                                                              : WELL NAME
~CURVE INFORMATION
DEPT.m          00 000 00 00                                                     : Depth Index
CALI.in         00 000 00 00                                                     :
DT.us/ft        00 000 00 00                                                     :
LLD.ohmm        00 000 00 00                                                     :
NPHI.m3/m3      00 000 00 00                                                     :
RHOB.g/cm3      00 000 00 00                                                     :
SGR.gAPI        00 000 00 00                                                     :
~Ascii Log Data
# ...
    481.88840     12.48740    212.18710      2.16350      0.36700      2.12030     42.10490
    482.04080     12.47330    228.18490      1.73010      0.41910      2.00420     47.11860
    482.19320     12.49560    245.11540      1.42090      0.44510      1.93300     54.67780
    482.34560     12.58760    245.81060      1.23020      0.48330      1.89390     60.80090
    482.49800     12.64990    244.29530      1.17280      0.46670      1.89600     59.76020
    482.65040     12.67200    247.99050      1.20040      0.46760      1.89370     59.31000
    482.80280     12.83070    242.18060      1.20980      0.44150      1.90160     56.24440
    482.95520     12.98590    244.17060      1.22030      0.44610      1.89730     64.78850
    483.10760     12.83440    247.01180      1.23110      0.45600      1.88720     60.02900
    483.26000     12.74660    236.93440      1.22190      0.47610      1.87450     61.40100
    483.41240     12.62840    227.00000      1.16280      0.48200      1.86710     61.38040
    483.56480     12.53880    230.19780      1.14510      0.45650      1.89400     57.97220
    483.71720     12.53900    240.43800      1.17660      0.42220      1.93570     56.44880
    483.86960     12.43520    236.45250      1.15160      0.41810      1.95690     56.95610
    484.02200     12.36720    236.49470      1.09660      0.44370      1.96080     58.79900
    484.17440     12.52020    238.02020      1.27560      0.43610      2.00220     60.69150
    484.32680     12.82300    237.05280      1.63340      0.39710      2.10670     50.95410
    484.47920     12.83080    233.20970      1.73950      0.34130      2.31590     48.10850
    484.63160     12.79470    237.46390      1.75910      0.38990      2.22110     50.40220
    484.78400     12.56740    246.65520      1.40100      0.41840      2.04040     61.71100
    484.93640     12.52350    253.07920      1.07030      0.42580      1.93020     64.66250
    485.08880     12.72740    259.27140      1.08620      0.45290      1.91240     59.07090
    485.24120     12.80770    260.68350      1.07950      0.46710      1.90590     70.06840
    485.39360     13.04320    257.86870      1.09000      0.46420      1.89790     68.98390
    485.54600     13.31970    266.29310      1.12480      0.46890      1.89100     62.87770
    485.69840     13.03320    272.49980      1.15170      0.48760      1.89290     63.27020
    485.85080     13.00860    271.69920      1.18600      0.47630      1.92720     62.76510
    486.00320     12.90080    259.59090      1.19560      0.46620      1.95930     61.42880
    486.15560     12.74010    221.27170      1.36710      0.43760      1.96910     58.72940
    486.30800     12.49310    222.90000      1.47800      0.41420      1.99640     58.23830
    486.46040     12.45810    219.84050      1.59680      0.40220      2.07650     55.51040
    486.61280     12.99440    224.23160      2.02710      0.37880      2.15220     49.10590
    486.76520     13.08430    224.73650      2.46220      0.35030      2.19540     43.67990
    486.91760     12.89690    224.65120      3.10030      0.30600      2.24700     38.70150
    487.07000     12.63020    219.46860      4.25800      0.24160      2.34100     30.72900
    487.22240     12.55530    213.57040      4.96010      0.22200      2.42760     29.20060
    487.37480     12.49550    203.95680      4.85020      0.20730      2.42200     26.17900
    487.52720     12.36880    212.04520      4.18650      0.23970      2.37990     33.85950
    487.67960     12.33050    228.20980      3.26360      0.24190      2.32830     40.47520
    487.83200     12.35670    242.84000      2.19400      0.28640      2.26200     41.22980
    487.98440     12.39830    245.51580      1.56820      0.30360      2.14920     46.71740
    488.13680     12.42650    238.08980      1.16580      0.39710      1.97300     58.63320
    488.28920     12.47210    232.53680      0.95250      0.48740      1.82670     65.27610
    488.44160     12.40840    226.10790      0.91910      0.50910      1.79050     59.82620
    488.59400     12.38130    209.70770      0.93790      0.47940      1.84550     56.21060
    488.74640     12.42410    193.18720      0.93790      0.45330      1.91360     58.23000
    488.89880     12.54020    184.53610      0.90310      0.50840      1.85820     63.55450
    489.05120     12.58770    180.67460      0.83630      0.51700      1.78050     66.26070
    489.20360     12.51940    178.30000      0.83700      0.52470      1.74190     68.80330
    489.35600     12.35680    176.00000      0.84350      0.50830      1.76990     69.67200
    489.50840     12.21370    174.40000      0.84650      0.52060      1.79760     63.19670
    489.66080     12.16570    172.70000      0.85840      0.53140      1.82840     62.90960
    489.81320     12.21320    172.70000      0.87880      0.53610      1.82310     64.86400
    489.96560     12.29220    174.80000      0.90060      0.54180      1.80500     66.11800
    490.11800     12.25100    175.80000      0.92340      0.53110      1.78660     69.29310
    490.27040     12.19410    174.40000      0.95030      0.53040      1.78790     66.12770
    490.42280     12.30620    168.90000      0.95620      0.49300      1.80070     65.06030
    490.57520     12.41010    168.72220      0.94280      0.51700      1.79870     61.71170
    490.72760     12.45580    166.98910      0.94460      0.49940      1.78400     64.22360
    490.88000     12.41730    167.03350      0.92820      0.51990      1.77490     62.95970
    491.03240     12.39820    164.57870      0.94630      0.50620      1.79540     61.66470
    491.18480     12.54210    156.84200      1.12560      0.47690      1.85250     60.35120
    491.33720     12.45020    145.96740      1.41610      0.45360      1.94480     58.76120
    491.48960     12.44130    137.36510      1.56060      0.41530      2.01770     55.69250
    491.64200     12.32110    133.64360      1.96610      0.39760      2.05760     58.94500
    491.79440     12.34870    124.40000      2.36700      0.33730      2.11460     47.55910
    491.94680     12.51530    120.66670      2.32750      0.30070      2.19780     44.09830
    492.09920     12.89810    119.11150      2.45220      0.29780      2.18440     41.80870
    492.25160     12.74020    121.73330      2.31570      0.33470      2.08230     50.81010
    492.40400     12.89410    125.86530      1.88530      0.36200      2.01160     50.81040
    492.55640     12.85120    128.57800      1.59850      0.38680      1.97170     53.70320
    492.70880     12.71480    131.79910      1.42670      0.42960      1.96760     60.62260
    492.86120     12.74520    138.09050      1.34720      0.46700      1.95950     63.39790
    493.01360     12.85750    142.87750      1.34220      0.45960      1.97260     60.26030
    493.16600     12.72540    145.10000      1.31300      0.45940      1.98300     67.02440
    493.31840     12.62580    146.00000      1.27000      0.46210      1.93470     67.86150
    493.47080     12.79910    151.50000      1.30230      0.46510      1.89950     70.00070
    493.62320     12.73690    150.00000      1.33760      0.45290      1.91440     68.08170
    493.77560     12.80490    154.10000      1.31330      0.43090      1.98660     67.35240
    493.92800     13.05450    148.10000      1.25510      0.42750      1.96890     68.39810
    494.08040     12.84580    122.50000      1.17180      0.45250      1.88210     84.86490
    494.23280     12.64810    126.40000      1.01230      0.47440      1.80550     88.96730
    494.38520     12.78720    120.10000      0.96540      0.49380      1.79940     92.79780
    494.53760     12.96690    119.90000      1.09900      0.49150      1.85580     81.73780
    494.69000     12.99870    118.50000      1.30980      0.47000      1.93900     78.56230
    494.84240     12.95690    106.50000      1.80620      0.40920      2.06450     62.76900
    494.99480     12.92470    100.70000      2.83900      0.34190      2.18910     49.26310
