~VERSION INFORMATION
VERS.         2.0        : CWLS LOG ASCII STANDARD VERSION 2.0
WRAP.         NO         : ONE LINE PER DEPTH STEP
~WELL INFORMATION
STRT.M     176.93600                                                            :START DEPTH
STOP.M    1710.99440                                                            :STOP DEPTH
STEP.M       0.15240                                                            :STEP
NULL.          -999.25                                                          : NULL VALUE
WELL.          B-2                                                              : WELL NAME
~CURVE INFORMATION
DEPT.m          00 000 00 00                                                     : Depth Index
CALI.in         00 000 00 00                                                     :
DT.us/ft        00 000 00 00                                                     :
LLD.ohmm        00 000 00 00                                                     :
NPHI.m3/m3      00 000 00 00                                                     :
RHOB.g/cm3      00 000 00 00                                                     :
SGR.gAPI        00 000 00 00                                                     :
~Ascii Log Data
# ...
   1197.86360     11.34220     96.60000      1.81120      0.38420      2.21820     94.42670
   1198.01600     11.48240     98.02220      1.85700      0.34380      2.24170     90.00360
   1198.16840     11.32190    100.06670      1.74880      0.29350      2.23520     89.52380
   1198.32080     11.08530     95.93170      1.51620      0.27510      2.20850     91.33440
   1198.47320     11.00100    102.38900      1.46690      0.27860      2.21840     87.16480
   1198.62560     10.93930    110.91250      1.50650      0.27790      2.26530     96.54530
   1198.77800     11.06510    111.66670      1.34120      0.27940      2.26420     96.36730
   1198.93040     11.10740    110.86560      1.30680      0.29730      2.20790    103.39570
   1199.08280     10.89850    116.55520      1.24710      0.32940      2.17370    117.02090
   1199.23520     10.51890    121.00000      1.16800      0.35010      2.17880    121.05280
   1199.38760     10.41190    122.33330      1.09280      0.35270      2.20360    120.31330
   1199.54000     10.48170    123.93230      1.04100      0.37220      2.22160    113.33880
   1199.69240     10.36540    126.20000      0.99790      0.39830      2.23040    108.67180
   1199.84480     10.19260    127.13330      0.94610      0.42330      2.23510    103.94120
   1199.99720     10.05950    121.40000      1.35630      0.42230      2.23170     89.72710
   1200.14960      9.73690    102.80000      1.69150      0.43960      2.21730     91.76860
   1200.30200     10.20670     96.80000      1.85830      0.46340      2.23000     72.44290
   1200.45440     11.20030     97.80000      2.22040      0.43710      2.29870     72.29230
   1200.60680     11.69880    114.20000      1.57910      0.34600      2.34380     75.15250
   1200.75920     12.10180    124.20000      1.23920      0.27610      2.28640     77.40190
   1200.91160     11.99040    123.00000      1.19280      0.26320      2.17410     94.35290
   1201.06400     11.58410    124.20000      1.23040      0.29520      2.09090     85.97280
   1201.21640     11.15090    117.00000      1.28400      0.33720      2.05640     88.64770
   1201.36880     11.31200    113.60000      1.43830      0.37150      2.06070     87.34810
   1201.52120     11.60140    107.60000      1.41070      0.37660      2.05580     82.70410
   1201.67360     11.26870    118.20000      1.31160      0.36970      2.04880    100.44760
   1201.82600     11.01250    117.60000      1.25160      0.38000      2.07420    104.70340
   1201.97840     10.74330    113.60000      1.23970      0.39290      2.13940    105.83690
   1202.13080     10.56170    115.60000      1.23970      0.40020      2.20980    101.66320
   1202.28320     10.49720    113.20000      1.23540      0.38720      2.24750    102.48000
   1202.43560     10.47990    115.60000      1.22540      0.38880      2.25430    106.31480
   1202.58800     10.39700    121.00000      1.13870      0.39250      2.24920    101.93620
   1202.74040     10.36220    115.48890      1.08520      0.39440      2.24450    104.85650
   1202.89280     10.39180    111.06320      1.21670      0.37990      2.23140    101.64610
   1203.04520     10.39630    102.79740      1.50230      0.35250      2.21420     87.17250
   1203.19760     10.37450     97.30870      1.88750      0.33500      2.16350     78.42110
   1203.35000     10.49520     96.68900      1.89460      0.32890      2.08450     71.74870
   1203.50240     10.81640     99.26350      1.57550      0.32460      2.04680     68.93510
   1203.65480     10.60760    103.13330      1.52390      0.32120      2.06980     93.15260
   1203.80720     10.37630    107.40570      1.63730      0.31200      2.12810     95.34040
   1203.95960     10.86640    115.40000      1.75180      0.32570      2.17630     97.75560
   1204.11200     11.14960    111.78680      1.83190      0.32590      2.19090     96.46970
   1204.26440     10.88460    112.82670      1.99970      0.31440      2.09560    107.81450
   1204.41680     10.95060    140.31880      1.80660      0.32050      1.98680    104.61820
   1204.56920     10.94250    142.56000      1.66750      0.33670      1.95460    105.98760
   1204.72160     10.92340    129.00440      1.66540      0.34660      2.01270    114.23750
   1204.87400     11.03710    117.56000      1.52330      0.32820      2.12230    112.73830
   1205.02640     10.75570    116.65280      1.52430      0.31230      2.21780    113.73780
   1205.17880     10.08480    115.47840      1.64730      0.31140      2.24240    114.14580
   1205.33120      9.63490    113.92010      1.43170      0.31530      2.21610    113.64370
   1205.48360      9.30080    117.20000      1.15690      0.31890      2.18860    113.07830
   1205.63600      9.25730    119.68100      1.07230      0.33960      2.19770    114.04860
   1205.78840      9.36990    123.84490      1.22860      0.37510      2.19250    114.99460
   1205.94080      9.46030    113.69570      2.14700      0.40400      2.18650     94.28450
   1206.09320      9.67780     93.70550      3.40810      0.35970      2.19500     77.49270
   1206.24560      9.06340     75.80000      3.78070      0.26740      2.26240     74.48710
   1206.39800      8.74420     62.60000      4.08750      0.19130      2.34710     78.39630
   1206.55040      8.93990     74.60000      3.82330      0.16270      2.43110     76.98880
   1206.70280      9.72200     87.20000      3.57160      0.15280      2.47490     93.93170
   1206.85520     10.66110     96.00000      2.94840      0.16420      2.50240     95.31510
   1207.00760     11.17360    125.60000      1.85750      0.20080      2.43940     96.73790
   1207.16000     10.94690    121.60000      1.32620      0.25790      2.21240    117.59780
   1207.31240     10.53750    130.80000      1.21880      0.32300      2.06260    122.40900
   1207.46480      9.83050    127.20000      1.23750      0.37260      2.02050    121.69340
   1207.61720      9.61450    112.40160      1.55470      0.37020      2.07060    108.96120
   1207.76960     10.04860     96.44750      1.77260      0.33180      2.12360     96.73750
   1207.92200     10.43730    114.21900      2.12000      0.28160      2.13750     98.53940
   1208.07440     10.17140    118.21200      1.88180      0.29060      2.13300     99.51390
   1208.22680     10.51680    118.58630      1.36050      0.31160      2.09120    113.22490
   1208.37920     10.49170    123.91900      1.27220      0.34330      2.08340    114.27930
   1208.53160     10.27770    118.97390      1.28310      0.36100      2.10800    112.91810
   1208.68400     10.27360    111.81770      1.40120      0.37680      2.16310    107.90960
   1208.83640     10.32230    100.31410      1.83240      0.36730      2.17130     99.66360
   1208.98880     10.45820     97.59240      2.06530      0.30270      2.14990     98.93180
   1209.14120     10.58920     91.96560      2.18590      0.27990      2.14290    103.06640
   1209.29360     10.34830     96.00950      2.07880      0.28820      2.14700    102.21690
   1209.44600     10.19250    111.94840      1.65100      0.31020      2.12490    102.93550
   1209.59840     10.39340    110.51330      1.56120      0.31550      2.11560    110.82080
   1209.75080     10.44670    114.96240      1.42490      0.34470      2.14550    110.75590
   1209.90320      9.97330    117.80580      1.33460      0.34980      2.16910    112.86230
   1210.05560      9.44940    115.74760      1.23950      0.38400      2.18350    113.34140
   1210.20800      9.65840    113.19190      1.32390      0.38440      2.20090    111.74380
   1210.36040      9.64400    108.60760      1.45280      0.36720      2.20410    107.95240
   1210.51280      9.54790    102.69940      1.47220      0.34090      2.19070    109.46120
   1210.66520      9.35820    100.43070      1.47940      0.31840      2.19740    112.30590
   1210.81760      9.23570     98.38510      1.56560      0.31280      2.21020    105.42010
   1210.97000      8.83580    100.74770      1.49180      0.30660      2.23180    103.16640
