~VERSION INFORMATION
VERS.         2.0        : CWLS LOG ASCII STANDARD VERSION 2.0
WRAP.         NO         : ONE LINE PER DEPTH STEP
~WELL INFORMATION
STRT.M     176.93600                                                            :START DEPTH
STOP.M    1710.99440                                                            :STOP DEPTH
STEP.M       0.15240                                                            :STEP
NULL.          -999.25                                                          : NULL VALUE
WELL.          B-2                                                              : WELL NAME
~CURVE INFORMATION
DEPT.m          00 000 00 00                                                     : Depth Index
CALI.in         00 000 00 00                                                     :
DT.us/ft        00 000 00 00                                                     :
LLD.ohmm        00 000 00 00                                                     :
NPHI.m3/m3      00 000 00 00                                                     :
RHOB.g/cm3      00 000 00 00                                                     :
SGR.gAPI        00 000 00 00                                                     :
~Ascii Log Data
# ...
   1396.74560      8.62540     85.86650      4.18370      0.26850      2.47330    118.39010
   1396.89800      8.62690     84.60000      4.40060      0.24610      2.48740    109.87450
   1397.05040      8.62750     82.46550      4.97960      0.24130      2.48720    108.38590
   1397.20280      8.63260     81.20000      5.26980      0.24420      2.48700    111.13750
   1397.35520      8.62520     81.64360      5.39840      0.24710      2.50810    102.83000
   1397.50760      8.63740     80.04470      5.50460      0.24160      2.52930    100.45480
   1397.66000      8.62390     77.20000      5.74080      0.23890      2.54320     97.16620
   1397.81240      8.61790     80.40000      5.40630      0.24580      2.52610     95.84550
   1397.96480      8.62960     79.60000      5.05370      0.25950      2.49710     97.68240
   1398.11720      8.64550     84.20000      4.58840      0.27540      2.47140    115.17590
   1398.26960      8.64600     89.80000      3.74970      0.29870      2.43500    115.32810
   1398.42200      8.64470     90.20000      3.29290      0.30910      2.42520    116.49250
   1398.57440      8.64530     89.80000      3.12790      0.31150      2.41590    117.23680
   1398.72680      8.64400     89.00000      3.13100      0.28620      2.43630    119.58740
   1398.87920      8.64570     87.40000      3.32980      0.26910      2.45430    113.17870
   1399.03160      8.64760     84.20000      3.74660      0.27980      2.47870    107.34920
   1399.18400      8.65520     83.60000      4.13140      0.28350      2.48930    103.57200
   1399.33640      8.67300     84.00000      4.19040      0.29830      2.47790    104.94570
   1399.48880      8.68810     87.40000      3.96430      0.27900      2.46240    104.37360
   1399.64120      8.68940     89.00000      3.64050      0.24490      2.44750    106.57940
   1399.79360      8.68820     90.40000      3.21400      0.23760      2.43470    102.42850
   1399.94600      8.69120     89.40000      2.99150      0.26220      2.42340    102.22490
   1400.09840      8.68510     84.00000      3.39560      0.28820      2.46270     99.32400
   1400.25080      8.68710     78.60000      4.37730      0.29280      2.50640     85.54370
   1400.40320      8.70060     77.60000      4.83550      0.28150      2.53890     93.13340
   1400.55560      8.77930     79.20000      4.94310      0.26840      2.50080     78.20380
   1400.70800      8.65720     86.80000      4.68140      0.26880      2.46990    105.26330
   1400.86040      8.65720     90.20000      3.67190      0.27030      2.45460    119.07570
   1401.01280      8.65940     90.40000      3.45460      0.27130      2.44530    115.98780
   1401.16520      8.65740     90.00000      3.53220      0.27150      2.43920    123.58500
   1401.31760      8.65720     90.80000      3.53750      0.27170      2.45270    122.37850
   1401.47000      8.66050     90.60000      3.53520      0.27460      2.47200    129.46430
   1401.62240      8.65820     90.60000      3.60090      0.27560      2.47240    127.52660
   1401.77480      8.65560     88.20000      3.78130      0.27220      2.47130    128.56480
   1401.92720      8.65920     87.40000      3.80260      0.26500      2.46810    129.32170
   1402.07960      8.65900     88.00000      3.69100      0.25740      2.46780    127.07470
   1402.23200      8.65970     88.40000      3.59090      0.25430      2.45900    130.88130
   1402.38440      8.65990     89.60000      3.58720      0.25780      2.46110    130.21840
   1402.53680      8.66020     89.40000      3.61990      0.26760      2.45300    127.75860
   1402.68920      8.66190     90.00000      3.63320      0.26590      2.44460    127.69240
   1402.84160      8.66100     89.60000      3.62680      0.26660      2.41850    128.29840
   1402.99400      8.66110     89.40000      3.50570      0.26270      2.42020    125.37150
   1403.14640      8.66210     89.80000      3.49120      0.25840      2.42680    133.25240
   1403.29880      8.65010     89.60000      3.52940      0.26590      2.44430    130.06020
   1403.45120      8.62390     88.20000      3.75300      0.27950      2.45270    125.63350
   1403.60360      8.60210     87.80000      3.85450      0.29090      2.46690    115.93950
   1403.75600      8.60720     86.40000      3.93760      0.28410      2.49070    114.02940
   1403.90840      8.60340     86.80000      3.85740      0.28400      2.50320    110.21630
   1404.06080      8.60120     87.80000      3.65250      0.28750      2.49520    109.40010
   1404.21320      8.60120     88.60000      3.49640      0.28570      2.47060    117.05980
   1404.36560      8.60750     89.20000      3.32390      0.27620      2.46000    115.67620
   1404.51800      8.60020     91.40000      3.21000      0.27020      2.45370    114.25680
   1404.67040      8.60520     91.00000      3.22450      0.27580      2.46310    113.47430
   1404.82280      8.59810     88.40000      3.45300      0.27960      2.48660    109.80270
   1404.97520      8.60990     87.40000      3.60940      0.28600      2.50180    110.05030
   1405.12760      8.59260     87.00000      3.62630      0.29410      2.49360    111.15710
   1405.28000      8.59820     87.20000      3.67850      0.29420      2.48430    113.87540
   1405.43240      8.59420     89.20000      3.36480      0.29260      2.47980    114.31560
   1405.58480      8.58720     90.20000      3.17790      0.28800      2.47100    112.29220
   1405.73720      8.59350     90.20000      3.20550      0.28520      2.45990    111.61000
   1405.88960      8.57790     89.80000      3.28190      0.28770      2.45590    113.13820
   1406.04200      8.58490     90.40000      3.27470      0.28820      2.46610    109.47130
   1406.19440      8.58720     89.60000      3.45590      0.28710      2.47440    114.29910
   1406.34680      8.57790     88.40000      3.27900      0.28480      2.47170    108.18280
   1406.49920      8.58420     93.40000      3.01870      0.28110      2.46830    111.63950
   1406.65160      8.57550     92.40000      3.12910      0.27660      2.45610    112.42890
   1406.80400      8.58440     92.60000      2.98730      0.27280      2.44570    113.44760
   1406.95640      8.59590     94.00000      2.92080      0.27130      2.40420    117.29590
   1407.10880      8.59110     94.60000      3.03460      0.27450      2.39020    116.87080
   1407.26120      8.59190     97.80000      2.89610      0.28530      2.40530    112.76090
   1407.41360      8.59190     97.00000      2.86860      0.29560      2.44650    114.93640
   1407.56600      8.59420     94.60000      3.09560      0.30660      2.48010    115.49470
   1407.71840      8.59820     92.40000      3.20820      0.30430      2.46660    118.08880
   1407.87080      8.59020     89.00000      3.21890      0.28300      2.45710    115.98120
   1408.02320      8.59590     88.00000      3.21710      0.27540      2.43970    115.99510
   1408.17560      8.59420     92.20000      3.08620      0.28650      2.42980    117.31300
   1408.32800      8.59190     92.80000      3.05480      0.29010      2.42060    124.33380
   1408.48040      8.58890     95.00000      2.99850      0.28170      2.43550    124.68650
   1408.63280      8.58960     94.80000      3.11210      0.26810      2.47060    124.59480
   1408.78520      8.55690     93.25710      3.15630      0.26980      2.47780    110.23290
   1408.93760      8.53350     91.88450      3.07440      0.28260      2.46150    116.00010
   1409.09000      8.58620     90.25710      3.25870      0.27910      2.46890    119.67920
   1409.24240      8.58170     88.08730      3.41170      0.27150      2.48520    118.90780
   1409.39480      8.57880     86.51430      3.76300      0.25620      2.49500    121.16670
   1409.54720      8.58300     88.97180      3.89350      0.25780      2.47340    107.32210
   1409.69960      8.58020     91.00000      3.63370      0.27960      2.45390    113.72260
   1409.85200      8.58440     94.49090      3.33010      0.30730      2.43900    115.09850
