~VERSION INFORMATION
VERS.         2.0        : CWLS LOG ASCII STANDARD VERSION 2.0
WRAP.         NO         : ONE LINE PER DEPTH STEP
~WELL INFORMATION
STRT.M     176.93600                                                            :START DEPTH
STOP.M    1710.99440                                                            :STOP DEPTH
STEP.M       0.15240                                                            :STEP
NULL.          -999.25                                                          : NULL VALUE
WELL.          B-2                                                              : WELL NAME
~CURVE INFORMATION
DEPT.m          00 000 00 00                                                     : Depth Index
CALI.in         00 000 00 00                                                     :
DT.us/ft        00 000 00 00                                                     :
LLD.ohmm        00 000 00 00                                                     :
NPHI.m3/m3      00 000 00 00                                                     :
RHOB.g/cm3      00 000 00 00                                                     :
SGR.gAPI        00 000 00 00                                                     :
~Ascii Log Data
# ...
    786.84080     12.78820     94.65710      2.72740      0.24200      2.48220     29.03980
    786.99320     12.65100     95.05700      2.75780      0.24450      2.49210     33.39720
    787.14560     12.58530     95.05730      2.74330      0.24360      2.48610     31.66300
    787.29800     12.57550     95.15710      2.71810      0.24400      2.49030     30.24450
    787.45040     12.56910     94.87140      2.72610      0.25190      2.49730     25.90690
    787.60280     12.56060     94.40000      2.74390      0.25690      2.50970     28.86000
    787.75520     12.56640     96.17780      2.67430      0.25710      2.51870     31.84540
    787.90760     12.57110     96.24440      2.60430      0.25430      2.51670     31.03190
    788.06000     12.56630     95.93320      2.66720      0.25080      2.49830     28.69890
    788.21240     12.57820     93.79810      3.00510      0.24400      2.48860     30.01950
    788.36480     12.57620     89.79890      3.63840      0.25070      2.48150     24.93820
    788.51720     12.57290     85.43290      4.39330      0.25820      2.49940     20.09610
    788.66960     12.55680     82.30010      4.94120      0.26160      2.50560     19.96850
    788.82200     12.51320     81.33300      4.96690      0.26090      2.51650     20.51030
    788.97440     12.46450     84.80000      4.43220      0.25710      2.50510     22.27780
    789.12680     12.45420     88.10000      3.67620      0.24710      2.49570     22.65420
    789.27920     12.48530     91.40000      2.95620      0.25820      2.48000     23.58860
    789.43160     12.51360     92.80000      2.81630      0.26160      2.47930     22.53900
    789.58400     12.56490     92.40000      2.81140      0.26800      2.47750     21.28180
    789.73640     12.61900     92.90000      2.83430      0.26270      2.47080     22.70850
    789.88880     12.61920     92.70000      2.79360      0.26240      2.47620     22.90110
    790.04120     12.62720     92.60000      2.83460      0.26520      2.47090     23.62480
    790.19360     12.63140     92.90000      2.88410      0.27370      2.47430     22.17590
    790.34600     12.63590     92.20000      2.91610      0.28630      2.47140     22.75220
    790.49840     12.63370     92.40000      2.91290      0.29380      2.48460     22.55540
    790.65080     12.65890     93.40000      2.93110      0.28650      2.48080     23.76350
    790.80320     12.65610     93.00000      2.86390      0.26490      2.48070     23.58520
    790.95560     12.61770     92.60000      2.83870      0.24980      2.47280     24.82330
    791.10800     12.61790     91.30000      2.93630      0.24740      2.47920     23.85030
    791.26040     12.61570     91.60000      3.04440      0.25550      2.48220     23.91230
    791.41280     12.58810     90.80000      3.12500      0.26810      2.48390     24.14830
    791.56520     12.57520     91.20000      3.22130      0.28150      2.49140     21.91780
    791.71760     12.57540     90.80000      3.21420      0.28870      2.49180     21.72710
    791.87000     12.57170     91.20000      3.14120      0.29620      2.48800     21.46770
    792.02240     12.55850     90.90000      3.06290      0.29990      2.47320     21.43390
    792.17480     12.53610     90.60000      3.01470      0.29940      2.46540     22.04190
    792.32720     12.49080     90.50000      2.98840      0.28520      2.46650     21.66810
    792.47960     12.47810     90.50000      3.00130      0.27780      2.47290     20.74810
    792.63200     12.47950     90.70000      3.12620      0.26800      2.48070     19.81570
    792.78440     12.47100     91.00000      3.21160      0.25960      2.48180     21.56250
    792.93680     12.49530     91.40000      3.25730      0.26340      2.48130     20.34030
    793.08920     12.48530     91.10000      3.29130      0.27750      2.47720     20.45450
    793.24160     12.48530     90.60000      3.30650      0.28420      2.47800     19.56940
    793.39400     12.48690     90.00000      3.26830      0.27430      2.48040     21.58130
    793.54640     12.50420     89.60000      3.20530      0.26650      2.48040     22.46940
    793.69880     12.51330     89.70000      3.11180      0.26880      2.47920     22.85450
    793.85120     12.50510     89.50000      3.08350      0.28160      2.47740     23.44080
    794.00360     12.51200     89.60000      3.12260      0.28280      2.47950     22.83010
    794.15600     12.51230     89.70000      3.30220      0.27370      2.48170     20.15900
    794.30840     12.50310     88.80000      3.41730      0.26620      2.48160     21.90630
    794.46080     12.48310     89.40000      3.42640      0.27660      2.47750     21.31980
    794.61320     12.47360     88.80000      3.35710      0.28450      2.47510     21.80680
    794.76560     12.48180     89.00000      3.28740      0.28410      2.48200     19.43870
    794.91800     12.49680     89.40000      3.23920      0.27810      2.48770     23.26060
    795.07040     12.51650     89.80000      3.18680      0.26810      2.49170     22.50620
    795.22280     12.51320     90.00000      3.13720      0.27050      2.49280     24.09650
    795.37520     12.50590     90.60000      3.08920      0.26990      2.49680     22.73630
    795.52760     12.51180     90.70000      3.05000      0.26340      2.50030     23.51680
    795.68000     12.52530     90.40000      3.04510      0.24990      2.50220     29.17700
    795.83240     12.53540     90.20000      3.06540      0.24560      2.50180     18.67270
    795.98480     12.55400     89.90000      3.08150      0.25150      2.50030     22.15490
    796.13720     12.57210     89.40000      3.09750      0.26230      2.51340     21.32560
    796.28960     12.57090     90.00000      3.07790      0.26820      2.51680     21.82730
    796.44200     12.57600     89.40000      3.04960      0.26120      2.52540     23.50520
    796.59440     12.58080     89.80000      2.97040      0.25390      2.50510     22.33040
    796.74680     12.60240     91.20000      2.92390      0.24950      2.51220     28.08390
    796.89920     12.59550     91.50000      2.86280      0.24690      2.50470     26.25150
    797.05160     12.59770     91.60000      2.79560      0.23900      2.49560     28.96410
    797.20400     12.61110     91.50000      2.77700      0.22820      2.49770     22.06630
    797.35640     12.59610     91.20000      2.77090      0.21850      2.49900     27.56730
    797.50880     12.60190     91.50000      2.78390      0.21070      2.51130     28.54960
    797.66120     12.60920     92.10000      2.79870      0.21500      2.51430     25.93340
    797.81360     12.60740     92.40000      2.77230      0.22070      2.50560     27.53940
    797.96600     12.61590     93.20000      2.74570      0.22550      2.50890     29.32350
    798.11840     12.62480     93.80000      2.71310      0.22380      2.50970     31.31230
    798.27080     12.61940     94.20000      2.65300      0.22010      2.50690     28.79290
    798.42320     12.60920     94.30000      2.58400      0.21040      2.48810     29.45010
    798.57560     12.61230     94.60000      2.55890      0.20840      2.47950     26.71850
    798.72800     12.60820     94.90000      2.55050      0.21070      2.49060     28.88840
    798.88040     12.60640     95.60000      2.52380      0.21610      2.50310     28.67450
    799.03280     12.59980     95.80000      2.50850      0.21120      2.50500     29.10000
    799.18520     12.59150     95.50000      2.49700      0.20810      2.49710     29.26840
    799.33760     12.52770     95.90000      2.48300      0.21300      2.48140     30.25520
    799.49000     12.50290     95.20000      2.46880      0.22690      2.47410     32.87090
    799.64240     12.51040     95.90000      2.46060      0.22610      2.47590     31.06210
    799.79480     12.50860     95.30000      2.46630      0.22350      2.47940     28.91820
    799.94720     12.50910     96.10000      2.48060      0.22700      2.48020     29.81860
