~VERSION INFORMATION
VERS.         2.0        : CWLS LOG ASCII STANDARD VERSION 2.0
WRAP.         NO         : ONE LINE PER DEPTH STEP
~WELL INFORMATION
STRT.M     176.93600                                                            :START DEPTH
STOP.M    1710.99440                                                            :STOP DEPTH
STEP.M       0.15240                                                            :STEP
NULL.          -999.25                                                          : NULL VALUE
WELL.          B-2                                                              : WELL NAME
~CURVE INFORMATION
DEPT.m          00 000 00 00                                                     : Depth Index
CALI.in         00 000 00 00                                                     :
DT.us/ft        00 000 00 00                                                     :
LLD.ohmm        00 000 00 00                                                     :
NPHI.m3/m3      00 000 00 00                                                     :
RHOB.g/cm3      00 000 00 00                                                     :
SGR.gAPI        00 000 00 00                                                     :
~Ascii Log Data
# ...
    587.95880     15.27940    139.60000      2.99860      0.37510      2.00900     36.07970
    588.11120     14.48070    138.80000      2.93400      0.39190      1.91870     31.42860
    588.26360     13.48890    135.50000      2.87570      0.41010      1.87660     39.39100
    588.41600     12.75950    134.10000      2.89150      0.40920      1.90040     44.16890
    588.56840     12.34010    137.30000      2.96350      0.39910      1.93470     45.96850
    588.72080     12.11710    138.20000      3.07050      0.38310      1.96590     46.75730
    588.87320     12.39140    140.70000      3.12200      0.36740      2.02040     48.69740
    589.02560     12.74270    143.90000      3.21270      0.36850      2.02800     46.65840
    589.17800     12.75400    134.80000      3.26410      0.38960      1.95760     48.68640
    589.33040     12.03390    134.80000      3.33600      0.41530      1.88960     46.16850
    589.48280     11.87400    131.70000      4.08350      0.40620      1.89210     41.40570
    589.63520     12.66510    127.90000      5.05620      0.36560      1.97570     39.39190
    589.78760     14.45600    128.30000      5.61790      0.33060      2.08720     37.74350
    589.94000     14.80700    125.80000      6.18790      0.32150      2.11970     37.85220
    590.09240     15.83590    112.40000      5.07060      0.33250      2.07020     34.71790
    590.24480     16.56080    100.60000      3.94120      0.35290      1.98680     26.25450
    590.39720     16.14650     98.40000      3.66830      0.40260      1.83210     26.77820
    590.54960     17.89270    100.00000      3.60350      0.44450      1.72050     26.69320
    590.70200     16.46800    114.00000      3.70570      0.42990      1.74850     25.74420
    590.85440     16.89040    124.60000      4.05500      0.40940      1.93180     23.95070
    591.00680     17.42080    126.00000      4.28300      0.36660      2.07960     24.12130
    591.15920     17.57320    126.90000      4.29560      0.42560      2.04350     22.83490
    591.31160     17.25450    123.60000      3.98160      0.44140      1.90210     22.88210
    591.46400     17.30330    114.50000      3.64330      0.50830      1.75420     23.52270
    591.61640     17.10300    118.30000      3.53880      0.50930      1.69320     23.92200
    591.76880     16.86160    128.00000      3.51020      0.52560      1.68440     28.93130
    591.92120     16.81560    129.90000      3.56750      0.50030      1.74340     30.83420
    592.07360     16.81760    125.30000      3.65280      0.49630      1.81240     28.62470
    592.22600     16.67660    125.60000      3.63140      0.46990      1.88800     28.30150
    592.37840     16.48010    126.20000      3.51710      0.46170      1.97990     27.72060
    592.53080     16.32810    125.50000      3.41280      0.46230      1.97100     37.11040
    592.68320     16.18540    135.10000      3.40190      0.46090      1.93890     32.20490
    592.83560     16.09900    132.30000      3.39650      0.44280      1.94300     27.78090
    592.98800     16.24940    126.00000      3.31030      0.41430      1.99620     29.05890
    593.14040     16.72050    129.00000      3.22360      0.43580      1.97110     30.37010
    593.29280     15.84790    126.90000      3.10120      0.44730      1.90230     31.79100
    593.44520     15.93030    125.50000      3.08110      0.46020      1.88810     32.22800
    593.59760     16.67500    128.60000      3.16710      0.47020      1.89410     29.60770
    593.75000     17.39230    135.10000      3.33680      0.47190      1.86260     28.45640
    593.90240     17.17390    139.40000      3.51580      0.47750      1.82150     25.69260
    594.05480     16.94150    135.80000      3.59760      0.48130      1.77740     23.17250
    594.20720     17.13940    131.90000      3.62800      0.47130      1.77830     25.30870
    594.35960     17.33910    131.70000      3.62580      0.46990      1.84220     23.85780
    594.51200     17.23460    132.60000      3.54310      0.47020      1.91640     24.64800
    594.66440     16.82760    130.20000      3.52830      0.46770      1.86090     23.88250
    594.81680     16.11610    134.40000      3.47710      0.50620      1.71230     23.30750
    594.96920     15.50430    133.30000      3.37500      0.51870      1.61990     22.46380
    595.12160     15.19660    125.90000      3.43620      0.51440      1.63070     26.28350
    595.27400     14.54700    122.60000      3.49520      0.50130      1.70600     27.43360
    595.42640     14.13060    123.40000      3.57130      0.48570      1.80920     28.53530
    595.57880     13.37690    123.30000      3.68900      0.44630      1.88490     32.77960
    595.73120     13.32780    122.00000      3.69510      0.39970      1.95180     33.36420
    595.88360     13.16590    130.70000      3.63000      0.39260      1.97400     33.92570
    596.03600     13.00590    129.20000      3.61390      0.39050      1.97850     27.47960
    596.18840     12.87120    128.00000      3.71450      0.41340      1.99140     27.40920
    596.34080     12.79380    128.10000      3.87190      0.39690      2.00700     30.08260
    596.49320     12.68540    129.10000      3.98680      0.38170      2.03100     30.42110
    596.64560     12.61310    127.30000      3.98960      0.35520      2.05350     23.55110
    596.79800     12.65370    128.50000      3.90860      0.38350      2.08290     28.93670
    596.95040     12.90030    126.10000      3.83650      0.39500      2.10550     28.56580
    597.10280     13.30400    124.30000      3.82520      0.40380      2.11190     29.47470
    597.25520     13.89120    118.80000      3.84500      0.39500      2.06820     30.47070
    597.40760     14.50090    122.10000      3.83380      0.41620      1.97260     32.33770
    597.56000     15.08740    124.80000      3.78470      0.44000      1.83580     29.25810
    597.71240     15.37350    123.50000      3.62480      0.45930      1.70620     29.12570
    597.86480     15.56600    123.40000      3.46250      0.45880      1.64060     27.55190
    598.01720     15.48470    124.80000      3.41480      0.45590      1.62660     25.58000
    598.16960     14.37150    124.40000      3.41470      0.49730      1.60850     33.78180
    598.32200     14.19250    131.50000      3.55280      0.47870      1.66530     28.96630
    598.47440     13.68360    134.87900      3.67600      0.40690      1.71550     33.99770
    598.62680     13.39790    136.62360      3.80590      0.40300      1.78360     33.04940
    598.77920     13.27640    135.39890      3.93550      0.38620      1.82490     33.98840
    598.93160     13.26260    131.82140      3.87670      0.36980      1.83890     34.16510
    599.08400     13.22880    126.35150      3.75070      0.35410      1.81590     35.33250
    599.23640     13.00930    122.83350      3.78130      0.33970      1.81840     30.23820
    599.38880     12.73470    124.25600      3.73350      0.33030      1.89810     28.87870
    599.54120     12.66060    125.98870      3.67380      0.32780      1.99970     31.14430
    599.69360     12.73040    129.90000      3.70710      0.33330      2.03990     33.03050
    599.84600     12.75730    130.07780      3.49760      0.35070      2.07700     41.63050
    599.99840     12.79800    130.95600      3.63050      0.34270      2.15550     40.43630
    600.15080     12.64170    130.79990      3.83880      0.32420      2.21300     37.04640
    600.30320     12.90670    129.26540      3.96260      0.30220      2.22450     39.27700
    600.45560     12.72110    128.42240      4.34310      0.27870      2.23160     38.70510
    600.60800     13.07360    128.83340      4.51980      0.26930      2.23580     39.49120
    600.76040     12.91590    128.47700      4.58070      0.28750      2.22520     34.56130
    600.91280     12.79640    125.97790      4.54930      0.29550      2.21290     41.36630
    601.06520     12.45020    123.40000      4.02400      0.29290      2.22770     40.91240
