~VERSION INFORMATION
VERS.         2.0        : CWLS LOG ASCII STANDARD VERSION 2.0
WRAP.         NO         : ONE LINE PER DEPTH STEP
~WELL INFORMATION
STRT.M     176.93600                                                            :START DEPTH
STOP.M    1710.99440                                                            :STOP DEPTH
STEP.M       0.15240                                                            :STEP
NULL.          -999.25                                                          : NULL VALUE
WELL.          B-2                                                              : WELL NAME
~CURVE INFORMATION
DEPT.m          00 000 00 00                                                     : Depth Index
CALI.in         00 000 00 00                                                     :
DT.us/ft        00 000 00 00                                                     :
LLD.ohmm        00 000 00 00                                                     :
NPHI.m3/m3      00 000 00 00                                                     :
RHOB.g/cm3      00 000 00 00                                                     :
SGR.gAPI        00 000 00 00                                                     :
~Ascii Log Data
# ...
   1502.81600      8.29450     83.64530      1.03650      0.21250      2.36940     31.74980
   1502.96840      8.29180     85.72600      0.95650      0.22340      2.33670     29.16930
   1503.12080      8.36220     87.36650      0.92830      0.22790      2.29730     29.13880
   1503.27320      8.36480     89.31210      1.08350      0.21840      2.29380     32.05190
   1503.42560      8.40280     90.29460      1.26710      0.21720      2.33170     54.68830
   1503.57800      8.43460     89.08440      1.66090      0.23940      2.39490     67.76360
   1503.73040      8.48920     86.85290      2.13590      0.26230      2.46400     84.04950
   1503.88280      8.49150     85.58590      2.33210      0.28550      2.50230    116.54900
   1504.03520      8.50710     84.71590      2.35720      0.29420      2.51170    121.25220
   1504.18760      8.56850     85.56870      2.28660      0.29070      2.51280    129.01320
   1504.34000      8.60350     87.61680      2.19910      0.29170      2.52560    124.75490
   1504.49240      8.60120     88.67360      2.15390      0.29040      2.52020    128.55360
   1504.64480      8.60350     88.87010      2.06610      0.29170      2.51470    130.07200
   1504.79720      8.60820     88.66670      2.00270      0.31380      2.50870    138.06750
   1504.94960      8.60810     88.18900      2.00550      0.31690      2.51250    139.51050
   1505.10200      8.59890     89.84910      1.84690      0.30770      2.50060    141.77710
   1505.25440      8.56620     92.51970      1.48610      0.27660      2.48040    105.12100
   1505.40680      8.44400     91.80000      1.31390      0.24460      2.41210     78.02190
   1505.55920      8.33440     92.24190      1.19860      0.23350      2.34190     48.88310
   1505.71160      8.38880     93.60000      1.01930      0.23820      2.28070     35.81490
   1505.86400      8.46040     93.93710      0.97230      0.23750      2.26610     32.98220
   1506.01640      8.54050     95.66110      0.99490      0.24280      2.26220     31.62020
   1506.16880      8.52690     97.77550      0.99120      0.24250      2.26420     32.18820
   1506.32120      8.53820     98.12790      1.03870      0.24030      2.26010     30.58410
   1506.47360      8.55220     95.40390      1.10180      0.23320      2.28270     37.35430
   1506.62600      8.62460     93.68740      1.15840      0.22910      2.33180     50.97060
   1506.77840      8.32250     89.74700      1.19320      0.23270      2.38050     67.62210
   1506.93080      8.32110     87.66990      1.22150      0.24140      2.40880     60.71040
   1507.08320      8.32350     88.45540      1.25000      0.24800      2.41360     61.90570
   1507.23560      8.30750     89.22080      1.23280      0.24640      2.39460     69.72070
   1507.38800      8.20440     89.70390      1.23800      0.24450      2.36390     65.28310
   1507.54040      8.28150     92.59650      1.28890      0.24110      2.32100     58.90850
   1507.69280      8.31650     92.40000      1.26030      0.23210      2.34420     60.14000
   1507.84520      8.31650     90.85350      1.22020      0.22250      2.36260     58.95950
   1507.99760      8.29710     88.77350      1.20860      0.22060      2.37470     60.26180
   1508.15000      8.30380     88.24030      1.23780      0.22810      2.37470     71.52050
   1508.30240      8.37010     86.16210      1.32360      0.23500      2.39580     78.64350
   1508.45480      8.42150     84.59980      1.44320      0.23040      2.42400     90.24940
   1508.60720      8.43460     84.60090      1.66330      0.23240      2.44590     87.76020
   1508.75960      8.47520     84.18650      1.95870      0.26220      2.47740     83.97640
   1508.91200      8.50790     84.61300      2.21060      0.28440      2.52360    109.10880
   1509.06440      8.51950     85.03970      2.41090      0.30540      2.57120    123.19100
   1509.21680      8.52810     85.06680      2.51550      0.30330      2.56820    142.99530
   1509.36920      8.51800     87.19740      2.61420      0.28860      2.52280    140.14240
   1509.52160      8.47900     88.48000      2.36250      0.25390      2.44730    121.73620
   1509.67400      8.33980     88.77330      1.96690      0.22380      2.41090     71.39310
   1509.82640      8.28850     87.30660      1.64850      0.22080      2.40780     64.74270
   1509.97880      8.28510     84.40000      1.68550      0.22510      2.45200     66.88540
   1510.13120      8.30010     80.09330      1.67180      0.21570      2.44350     55.34350
   1510.28360      8.29710     81.85300      1.59160      0.20820      2.39310     38.42390
   1510.43600      8.30560     85.40000      1.51610      0.20820      2.35020     36.84050
   1510.58840      8.30250     87.64020      1.49460      0.22540      2.37570     36.19070
   1510.74080      8.29780     86.93330      1.42420      0.23140      2.37910     38.68530
   1510.89320      8.29680     87.20000      1.32190      0.23870      2.35340     38.44550
   1511.04560      8.26030     89.42580      1.07760      0.23600      2.28790     26.93680
   1511.19800      8.23040     91.77340      0.81340      0.23510      2.25620     26.43200
   1511.35040      8.23950     92.68010      0.79590      0.24060      2.25960     27.23610
   1511.50280      8.27810     89.53330      0.81880      0.24910      2.27800     27.52930
   1511.65520      8.30350     87.56040      0.84920      0.25630      2.26990     27.66350
   1511.80760      8.30450     87.24000      0.89820      0.25400      2.26200     35.03130
   1511.96000      8.30250     87.54640      0.91770      0.25320      2.24710     35.94910
   1512.11240      8.29860     88.90670      0.88190      0.24470      2.24600     30.21960
   1512.26480      8.30480     90.00000      0.86940      0.23680      2.23810     33.48140
   1512.41720      8.30060     89.73430      0.90450      0.23150      2.24580     25.05300
   1512.56960      8.30340     88.87950      0.92260      0.23260      2.26250     28.28600
   1512.72200      8.30020     89.12000      0.93550      0.23470      2.28760     24.88420
   1512.87440      8.29960     87.89330      0.97220      0.22990      2.28590     22.70900
   1513.02680      8.30380     87.53330      0.97360      0.21800      2.27110     23.15500
   1513.17920      8.29880     86.91940      0.97180      0.20680      2.26930     24.37030
   1513.33160      8.29910     86.20000      1.00550      0.20620      2.27250     23.44850
   1513.48400      8.30010     86.41350      1.02200      0.21390      2.28700     23.79770
   1513.63640      8.29440     87.20000      1.00650      0.22040      2.28840     22.75480
   1513.78880      8.29680     88.00020      0.96330      0.21880      2.28310     20.83570
   1513.94120      8.30010     89.08000      0.90160      0.21460      2.28360     21.94170
   1514.09360      8.30010     89.40000      0.90200      0.21300      2.28430     19.77690
   1514.24600      8.30420     88.53330      0.93550      0.20860      2.28930     21.33950
   1514.39840      8.30850     87.65400      0.98900      0.20720      2.30480     26.47700
   1514.55080      8.30710     86.60000      1.06660      0.20440      2.31170     28.73600
   1514.70320      8.32110     86.40000      1.22940      0.20350      2.33130     33.17320
   1514.85560      8.33890     84.00000      1.57600      0.19950      2.35960     41.13540
   1515.00800      8.35170     82.00000      2.14300      0.19930      2.39980     57.57550
   1515.16040      8.39280     79.40000      2.45920      0.19980      2.44480     63.31600
   1515.31280      8.41450     78.00000      2.21420      0.19570      2.46930     74.22280
   1515.46520      8.40050     79.20000      1.73260      0.19450      2.45740     51.93160
   1515.61760      8.33180     82.00000      1.48700      0.19960      2.43230     48.25450
   1515.77000      8.31650     85.40000      1.29180      0.21530      2.39770     40.31910
   1515.92240      8.31880     87.60000      1.18320      0.22680      2.37210     36.55610
