~VERSION INFORMATION
VERS.         2.0        : CWLS LOG ASCII STANDARD VERSION 2.0
WRAP.         NO         : ONE LINE PER DEPTH STEP
~WELL INFORMATION
STRT.M     176.93600                                                            :START DEPTH
STOP.M    1710.99440                                                            :STOP DEPTH
STEP.M       0.15240                                                            :STEP
NULL.          -999.25                                                          : NULL VALUE
WELL.          B-2                                                              : WELL NAME
~CURVE INFORMATION
DEPT.m          00 000 00 00                                                     : Depth Index
CALI.in         00 000 00 00                                                     :
DT.us/ft        00 000 00 00                                                     :
LLD.ohmm        00 000 00 00                                                     :
NPHI.m3/m3      00 000 00 00                                                     :
RHOB.g/cm3      00 000 00 00                                                     :
SGR.gAPI        00 000 00 00                                                     :
~Ascii Log Data
# ...
    283.00640     12.09430     89.46820     34.80830      0.20300      2.49110     11.71620
    283.15880     12.08950     83.10540     20.84940      0.26150      2.36080     16.82380
    283.31120     12.09000     81.30940     16.01090      0.29660      2.26780     17.12360
    283.46360     12.08910     83.93680     14.92290      0.30120      2.25200     21.67330
    283.61600     12.08470     88.10360     15.00920      0.28800      2.31540     17.78030
    283.76840     12.08320     92.53540     17.64520      0.28660      2.38190     15.61520
    283.92080     12.09940     95.10650     21.69640      0.29320      2.40550     15.34260
    284.07320     12.09950     96.45520     22.13430      0.29510      2.41030     16.54480
    284.22560     12.06840     95.81030     18.84060      0.28900      2.41480     15.85490
    284.37800     12.02760     94.45780     15.96750      0.29120      2.34600     17.53950
    284.53040     12.00730     92.39890     15.08970      0.29580      2.29390     19.65950
    284.68280     12.03600     86.62570     14.21360      0.29940      2.31400     18.72460
    284.83520     12.07710     82.37070     13.77250      0.30130      2.33320     17.02960
    284.98760     12.09960     84.97070     14.24900      0.31890      2.29580     16.79910
    285.14000     12.15090     88.02460     14.50150      0.32460      2.26360     18.38730
    285.29240     12.18220     90.42580     15.65480      0.30680      2.29200     16.78690
    285.44480     12.19540     90.55650     18.28850      0.27820      2.38670     16.91590
    285.59720     12.16250     87.79240     20.91830      0.26100      2.41130     14.50970
    285.74960     12.08500     86.14610     21.35370      0.25950      2.33950     13.99020
    285.90200     12.08120     86.25950     19.11950      0.27590      2.27730     13.55410
    286.05440     12.08580     86.08130     19.10180      0.29710      2.25850     13.77920
    286.20680     12.02850     86.64930     20.37810      0.30670      2.28700     12.55290
    286.35920     12.02990     87.33510     20.85090      0.29370      2.29910     14.59690
    286.51160     12.07030     87.36790     20.93390      0.27440      2.29290     16.70330
    286.66400     12.09130     88.46520     21.40680      0.26870      2.29280     15.93550
    286.81640     12.13910     90.94910     21.18430      0.26670      2.31560     14.84650
    286.96880     12.17050     94.22040     20.62490      0.25980      2.34320     13.47510
    287.12120     12.17710     98.59950     19.62980      0.24900      2.35930     13.97450
    287.27360     12.16880     99.15520     17.54400      0.24690      2.37510     15.96780
    287.42600     12.17880     94.38750     14.67470      0.25530      2.36160     16.96420
    287.57840     12.16730     89.04580     12.89220      0.26630      2.32070     18.51020
    287.73080     12.16790     82.89040     12.97890      0.27400      2.28060     17.81100
    287.88320     12.17660     78.55530     14.61490      0.29910      2.24350     21.29570
    288.03560     12.17100     77.71790     18.29830      0.31680      2.23990     17.50010
    288.18800     12.17420     80.00390     25.00540      0.30240      2.28470     16.40810
    288.34040     12.18350     83.60310     31.44490      0.24910      2.35940     16.43010
    288.49280     12.18770     85.42480     32.09630      0.21090      2.40040     14.66290
    288.64520     12.19000     86.00590     27.04010      0.20770      2.40860     12.21790
    288.79760     12.20020     81.01150     23.16770      0.21470      2.41490     15.94850
    288.95000     12.22510     75.62050     22.34690      0.22980      2.37890     14.96110
    289.10240     12.21930     75.17990     22.04690      0.25710      2.32490     16.28670
    289.25480     12.18080     76.96770     24.58870      0.26600      2.31920     18.16280
    289.40720     12.17490     83.07450     30.91190      0.24010      2.36140     16.13850
    289.55960     12.15740     93.51580     34.17420      0.20650      2.42040     17.86360
    289.71200     12.12370     97.98990     32.19090      0.19470      2.44360     20.52770
    289.86440     12.08500     97.15080     28.74910      0.19010      2.46620     20.54560
    290.01680     12.03550     93.49440     21.51270      0.20230      2.42690     24.49350
    290.16920     12.02350     84.56590     14.35100      0.24610      2.36240     24.61330
    290.32160     12.07480     80.90000     13.00250      0.31190      2.27860     24.33580
    290.47400     12.09740     81.37450     13.25680      0.32880      2.25940     25.06080
    290.62640     12.09030     83.10240     14.57320      0.30320      2.27780     25.48880
    290.77880     12.07200     83.93770     19.73570      0.26100      2.34370     18.52450
    290.93120     12.05600     83.09810     25.54070      0.22780      2.41220     17.56280
    291.08360     12.00570     86.19810     26.00600      0.22990      2.41210     18.41520
    291.23600     11.98160     89.39150     26.13490      0.21820      2.38740     16.34540
    291.38840     11.97750     93.08490     25.77040      0.22190      2.38470     15.63370
    291.54080     11.97190     96.30440     22.84740      0.23920      2.36160     14.10410
    291.69320     11.97070     92.48590     19.59870      0.25770      2.34800     19.99460
    291.84560     11.97610     90.48200     18.10890      0.28920      2.32750     20.01910
    291.99800     11.97790     89.59500     15.95340      0.30320      2.32760     20.78060
    292.15040     11.97990     88.93110     14.49960      0.30500      2.30770     22.74650
    292.30280     11.97760     90.28580     15.27950      0.29780      2.30100     22.97970
    292.45520     12.00920     89.15280     16.89210      0.28330      2.30880     22.89860
    292.60760     12.05750     89.20310     17.20250      0.26540      2.31380     21.20110
    292.76000     12.09280     86.74060     17.83750      0.25170      2.31560     19.32970
    292.91240     12.11250     83.52900     20.20350      0.24960      2.29950     20.70220
    293.06480     12.10910     85.18910     19.51120      0.25780      2.30440     18.46430
    293.21720     12.10370     83.72750     18.59060      0.26050      2.34560     18.20630
    293.36960     12.10170     82.08480     19.36810      0.23860      2.36680     21.34470
    293.52200     12.11210     78.96750     21.17730      0.21940      2.35860     19.28820
    293.67440     12.10650     76.37840     21.53050      0.20900      2.34820     19.45710
    293.82680     12.10590     79.33080     20.47530      0.20880      2.37500     18.38740
    293.97920     12.10350     87.58670     23.25120      0.20870      2.39390     21.60730
    294.13160     12.09900     97.16540     24.33610      0.19770      2.39570     18.23880
    294.28400     12.10670    104.53500     26.61780      0.17930      2.40310     19.42900
    294.43640     12.12470    104.40630     28.88820      0.17120      2.43120     19.53470
    294.58880     12.12500     99.56340     22.05600      0.19710      2.42280     20.44260
    294.74120     12.14450     90.54080     15.91950      0.23300      2.36930     20.14060
    294.89360     12.13160     86.72660     11.03290      0.27500      2.29840     29.65740
    295.04600     12.11710     83.69000      9.61840      0.30610      2.26040     28.37290
    295.19840     12.12000     84.80930     10.39400      0.31620      2.27200     27.09370
    295.35080     12.11590     84.67400     11.88680      0.30610      2.31410     18.38600
    295.50320     12.10560     83.74210     15.53120      0.28840      2.34200     16.36370
    295.65560     12.10380     83.94520     18.50160      0.27600      2.34530     18.72850
    295.80800     12.10090     86.08540     19.43990      0.27660      2.34310     13.46430
    295.96040     12.10290     95.22710     19.83810      0.28470      2.34720     12.52090
    296.11280     12.10500    101.33990     20.49870      0.28520      2.34370     13.26800
