~VERSION INFORMATION
VERS.         2.0        : CWLS LOG ASCII STANDARD VERSION 2.0
WRAP.         NO         : ONE LINE PER DEPTH STEP
~WELL INFORMATION
STRT.M     176.93600                                                            :START DEPTH
STOP.M    1710.99440                                                            :STOP DEPTH
STEP.M       0.15240                                                            :STEP
NULL.          -999.25                                                          : NULL VALUE
WELL.          B-2                                                              : WELL NAME
~CURVE INFORMATION
DEPT.m          00 000 00 00                                                     : Depth Index
CALI.in         00 000 00 00                                                     :
DT.us/ft        00 000 00 00                                                     :
LLD.ohmm        00 000 00 00                                                     :
NPHI.m3/m3      00 000 00 00                                                     :
RHOB.g/cm3      00 000 00 00                                                     :
SGR.gAPI        00 000 00 00                                                     :
~Ascii Log Data
# ...
    680.77040     11.20430    125.58810      1.96400      0.38620      2.17620     50.27270
    680.92280     11.50070    124.98220      1.96490      0.38160      2.16430     51.79180
    681.07520     11.76200    124.70000      1.95720      0.37690      2.15330     50.25220
    681.22760     11.89840    124.80590      1.94110      0.37970      2.18190     49.93680
    681.38000     11.98730    125.04140      1.91230      0.38840      2.21380     48.32170
    681.53240     11.94730    125.20000      1.87120      0.39610      2.23790     47.97260
    681.68480     11.90750    125.44720      1.85800      0.40250      2.26010     49.42410
    681.83720     12.23670    125.92940      1.84620      0.38710      2.26530     46.46480
    681.98960     13.19190    126.42400      1.85820      0.37310      2.25420     48.59150
    682.14200     12.90590    127.74710      1.87520      0.37380      2.25220     47.47180
    682.29440     12.23620    127.53520      1.89000      0.38710      2.25760     47.13270
    682.44680     12.26100    127.70600      1.90860      0.40170      2.26430     46.58640
    682.59920     12.39480    126.20000      1.89810      0.41220      2.28130     47.98230
    682.75160     12.39430    123.87140      1.90120      0.41500      2.29550     44.66910
    682.90400     12.28740    122.64280      1.89200      0.41010      2.30300     43.05740
    683.05640     12.45370    123.04290      1.87750      0.39990      2.33040     43.78280
    683.20880     12.45320    122.92860      1.87120      0.38180      2.34330     45.99230
    683.36120     12.40470    123.01440      1.88070      0.37120      2.35280     45.91040
    683.51360     12.46880    123.27140      1.89450      0.36920      2.35050     42.62080
    683.66600     12.47440    123.90000      1.91180      0.36570      2.34920     44.62910
    683.81840     12.48270    123.58000      1.95180      0.37950      2.33030     42.65200
    683.97080     12.49150    123.13980      1.98740      0.39590      2.32470     40.57640
    684.12320     12.52810    122.38020      1.99990      0.41730      2.30840     39.23050
    684.27560     12.55220    121.62000      2.01060      0.40730      2.29520     46.37060
    684.42800     12.68260    121.70000      2.01200      0.37660      2.27500     48.03970
    684.58040     12.54980    121.93980      1.99280      0.36790      2.24130     48.10670
    684.73280     12.30040    122.41990      1.98990      0.36170      2.20870     41.09510
    684.88520     12.10070    122.89980      1.98360      0.35910      2.18970     41.44390
    685.03760     12.11260    123.38010      1.98300      0.34520      2.21450     41.27230
    685.19000     12.05730    124.10000      2.01940      0.36250      2.26270     42.34100
    685.34240     12.00950    123.20000      2.03340      0.39050      2.28830     44.56830
    685.49480     12.03500    122.60000      2.07810      0.40460      2.29970     44.18760
    685.64720     12.04090    122.40000      2.08260      0.41900      2.31470     43.23890
    685.79960     12.05510    121.00000      2.07950      0.42220      2.32810     43.96890
    685.95200     12.14710    121.40000      2.05330      0.40660      2.32730     43.32070
    686.10440     12.19530    121.00000      2.02530      0.39520      2.30180     44.86400
    686.25680     12.23610    121.40000      2.01680      0.37860      2.26980     41.68650
    686.40920     12.42270    120.80000      2.01190      0.39330      2.25950     41.24020
    686.56160     12.48560    121.34230      2.01730      0.38680      2.25910     41.60020
    686.71400     12.41410    122.40000      2.02850      0.39970      2.23960     43.50660
    686.86640     12.30510    123.49970      2.02980      0.39550      2.18040     39.06910
    687.01880     12.26870    124.64300      2.01620      0.38240      2.10540     43.89000
    687.17120     12.28060    124.68570      2.00820      0.37830      2.05520     40.41560
    687.32360     12.34720    124.25710      1.98840      0.35670      2.04260     41.39570
    687.47600     12.10510    123.60000      1.96140      0.35880      2.05230     41.06440
    687.62840     11.56930    123.51110      1.93310      0.37270      2.06550     39.66650
    687.78080     11.25490    123.42220      1.89910      0.37820      2.08740     40.43480
    687.93320     11.14110    124.19990      1.88530      0.37400      2.09840     42.39990
    688.08560     11.04310    125.09980      1.88820      0.36180      2.09160     44.37720
    688.23800     11.04440    125.14460      1.89360      0.37660      2.08150     47.51700
    688.39040     11.18690    124.80000      1.90860      0.38730      2.06380     48.48750
    688.54280     10.97350    125.28870      1.91260      0.38500      2.02680     49.43120
    688.69520     10.68990    127.01970      1.90180      0.36260      1.99700     49.15150
    688.84760     10.26740    132.80000      1.87530      0.34550      2.00270     52.69880
    689.00000     10.07530    130.60000      1.86930      0.33770      2.01190     52.32220
    689.15240      9.92390    128.20000      1.88540      0.34610      2.01260     53.28610
    689.30480      9.52360    128.20000      1.90610      0.35870      2.01530     53.71990
    689.45720      9.44060    126.60000      1.91030      0.37560      2.01980     54.52020
    689.60960      9.08890    126.50000      1.90330      0.38840      2.01450     55.00740
    689.76200      8.22880    127.10000      1.91990      0.38920      1.99170     51.69590
    689.91440      7.74870    125.90000      1.92350      0.39040      1.97940     54.11200
    690.06680      7.40340    126.30000      1.91720      0.38870      1.98600     51.69280
    690.21920      7.25100    125.90000      1.92480      0.38210      2.00810     51.60260
    690.37160      7.21890    125.90000      1.94490      0.37660      2.03200     51.09240
    690.52400      7.17600    126.30000      1.93330      0.38340      2.04540     52.01800
    690.67640      7.15920    126.20000      1.93570      0.39540      2.05930     45.48940
    690.82880      7.18010    126.20000      1.92820      0.39860      2.07140     53.90040
    690.98120      7.40320    126.20000      1.93900      0.38730      2.09040     53.72280
    691.13360      8.16590    126.10000      1.93030      0.37540      2.11080     54.37490
    691.28600      9.12470    126.10000      1.93170      0.37820      2.13560     56.15860
    691.43840     10.01040    125.83340      1.92590      0.38310      2.15380     46.17900
    691.59080     10.61580    125.72220      1.90550      0.38140      2.17700     54.57030
    691.74320     11.17230    126.50020      1.90370      0.38050      2.18180     53.99050
    691.89560     11.37170    127.34460      1.85850      0.38000      2.19630     51.32150
    692.04800     11.26410    128.01120      1.79610      0.37960      2.24640     54.82010
    692.20040     11.25940    128.46670      1.73180      0.38820      2.29350     53.57870
    692.35280     11.03150    128.57780      1.68750      0.39090      2.30440     51.73360
    692.50520      9.79120    128.62210      1.70400      0.38460      2.31690     53.97940
    692.65760     10.40460    129.60000      1.70700      0.36200      2.32850     56.62140
    692.81000     10.90960    128.81430      1.72030      0.33790      2.30870     55.58590
    692.96240     11.01250    128.35720      1.72740      0.33920      2.26920     55.33030
    693.11480     10.89620    128.67130      1.73520      0.35320      2.26300     54.38210
    693.26720     10.66710    129.18560      1.74100      0.36550      2.27280     55.95090
    693.41960     10.42620    128.75710      1.74150      0.37000      2.31570     50.67190
    693.57200     10.35420    129.44290      1.74470      0.36710      2.33280     52.37600
    693.72440     10.77120    129.70000      1.73880      0.35870      2.33340     53.70030
    693.87680     11.45350    129.90000      1.72490      0.35890      2.33040     56.49750
