~VERSION INFORMATION
VERS.         2.0        : CWLS LOG ASCII STANDARD VERSION 2.0
WRAP.         NO         : ONE LINE PER DEPTH STEP
~WELL INFORMATION
STRT.M     176.93600                                                            :START DEPTH
STOP.M    1710.99440                                                            :STOP DEPTH
STEP.M       0.15240                                                            :STEP
NULL.          -999.25                                                          : NULL VALUE
WELL.          B-2                                                              : WELL NAME
~CURVE INFORMATION
DEPT.m          00 000 00 00                                                     : Depth Index
CALI.in         00 000 00 00                                                     :
DT.us/ft        00 000 00 00                                                     :
LLD.ohmm        00 000 00 00                                                     :
NPHI.m3/m3      00 000 00 00                                                     :
RHOB.g/cm3      00 000 00 00                                                     :
SGR.gAPI        00 000 00 00                                                     :
~Ascii Log Data
# ...
   1701.69800      3.02380     85.60000     60.52000      0.22920      2.22660    126.29910
   1701.85040      3.02380     85.60000     60.52000      0.22920      2.22660    126.29910
   1702.00280      3.02380     85.60000     60.52000      0.22920      2.22660    126.29910
   1702.15520      3.02380     85.60000     60.52000      0.22920      2.22660    126.29910
   1702.30760      3.02380     85.60000     60.52000      0.22920      2.22660    126.29910
   1702.46000      3.02380     85.60000     40.10590      0.22920      2.22660    126.29910
   1702.61240      3.02380     85.60000     12.46750      0.22920      2.22660    126.29910
   1702.76480      3.02380     85.60000     38.08550      0.22920      2.22660    126.29910
   1702.91720      3.02380     85.60000     43.26500      0.22920      2.22660    126.29910
   1703.06960      3.02380     85.60000     35.30780      0.22920      2.22660    126.29910
   1703.22200      3.02380     85.60000      0.60030      0.22920      2.22660    126.29910
   1703.37440      3.02380     85.60000      0.60030      0.22920      2.22660    126.29910
   1703.52680      3.02380     85.60000      0.60030      0.22920      2.22660    126.29910
   1703.67920      3.02380     85.60000      0.60030      0.22920      2.22660    126.29910
   1703.83160      3.02380     85.60000      0.60030      0.22920      2.22660    126.29910
   1703.98400      3.02380     85.60000      0.60030      0.22920      2.22660    126.29910
   1704.13640      3.02380     85.60000      0.60030      0.22920      2.22660    126.29910
   1704.28880      3.02380     85.60000      0.60030      0.22920      2.22660    126.29910
   1704.44120      3.02380     85.60000      0.60030      0.22920      2.22660    126.29910
   1704.59360      3.02380     85.60000      0.60030      0.22920      2.22660    126.29910
   1704.74600      3.02380     85.60000      0.60030      0.22920      2.22660    126.29910
   1704.89840      3.02380     85.60000      0.60030      0.22920      2.22660    126.29910
   1705.05080      3.02380     85.60000      0.60030      0.22920      2.22660    126.29910
   1705.20320      3.02380     85.60000      0.60030      0.22920      2.22660    126.29910
   1705.35560      3.02380     85.60000      0.60030      0.22920      2.22660    126.29910
   1705.50800      3.02380     85.60000      0.60030      0.22920      2.22660    126.29910
   1705.66040      3.02380     85.60000      0.60030      0.22920      2.22660    126.29910
   1705.81280      3.02380     85.60000      0.60030      0.22920      2.22660    126.29910
   1705.96520      3.02380     85.60000      0.60030      0.22920      2.22660    126.29910
   1706.11760      3.02380     85.60000      0.60030      0.22920      2.22660    126.29910
   1706.27000      3.02380     85.60000      0.60030      0.22920      2.22660    126.29910
   1706.42240      3.02380     85.60000      0.60030      0.22920      2.22660    126.29910
   1706.57480      3.02380     85.60000      0.60030      0.22920      2.22660    126.29910
   1706.72720      3.02380     85.60000      0.60030      0.22920      2.22660    126.29910
   1706.87960      3.02380     85.60000      0.60030      0.22920      2.22660    126.29910
   1707.03200      3.02380     85.60000      0.60030      0.22920      2.22660    126.29900
   1707.18440      3.02380     85.60000      0.60030      0.22920      2.22660    126.29880
   1707.33680      3.02380     85.60000      0.60030      0.22920      2.22660    126.29860
   1707.48920      3.02380     85.60000      0.60030      0.22920      2.22660    126.29800
   1707.64160      3.02380     85.60000      0.60030      0.22920      2.22660    126.29710
   1707.79400   -999.25000   -999.25000   -999.25000   -999.25000   -999.25000   -999.25000
   1707.94640   -999.25000   -999.25000   -999.25000   -999.25000   -999.25000   -999.25000
   1708.09880   -999.25000   -999.25000   -999.25000   -999.25000   -999.25000   -999.25000
   1708.25120   -999.25000   -999.25000   -999.25000   -999.25000   -999.25000   -999.25000
   1708.40360   -999.25000   -999.25000   -999.25000   -999.25000   -999.25000   -999.25000
   1708.55600   -999.25000   -999.25000   -999.25000   -999.25000   -999.25000   -999.25000
   1708.70840   -999.25000   -999.25000   -999.25000   -999.25000   -999.25000   -999.25000
   1708.86080   -999.25000   -999.25000   -999.25000   -999.25000   -999.25000   -999.25000
   1709.01320   -999.25000   -999.25000   -999.25000   -999.25000   -999.25000   -999.25000
   1709.16560   -999.25000   -999.25000   -999.25000   -999.25000   -999.25000   -999.25000
   1709.31800   -999.25000   -999.25000   -999.25000   -999.25000   -999.25000   -999.25000
   1709.47040   -999.25000   -999.25000   -999.25000   -999.25000   -999.25000   -999.25000
   1709.62280   -999.25000   -999.25000   -999.25000   -999.25000   -999.25000   -999.25000
   1709.77520   -999.25000   -999.25000   -999.25000   -999.25000   -999.25000   -999.25000
   1709.92760   -999.25000   -999.25000   -999.25000   -999.25000   -999.25000   -999.25000
   1710.08000   -999.25000   -999.25000   -999.25000   -999.25000   -999.25000   -999.25000
   1710.23240   -999.25000   -999.25000   -999.25000   -999.25000   -999.25000   -999.25000
   1710.38480   -999.25000   -999.25000   -999.25000   -999.25000   -999.25000   -999.25000
   1710.53720   -999.25000   -999.25000   -999.25000   -999.25000   -999.25000   -999.25000
   1710.68960   -999.25000   -999.25000   -999.25000   -999.25000   -999.25000   -999.25000
   1710.84200   -999.25000   -999.25000   -999.25000   -999.25000   -999.25000   -999.25000
   1710.99440   -999.25000   -999.25000   -999.25000   -999.25000   -999.25000   -999.25000
