~VERSION INFORMATION
VERS.         2.0        : CWLS LOG ASCII STANDARD VERSION 2.0
WRAP.         NO         : ONE LINE PER DEPTH STEP
~WELL INFORMATION
STRT.M     176.93600                                                            :START DEPTH
STOP.M    1710.99440                                                            :STOP DEPTH
STEP.M       0.15240                                                            :STEP
NULL.          -999.25                                                          : NULL VALUE
WELL.          B-2                                                              : WELL NAME
~CURVE INFORMATION
DEPT.m          00 000 00 00                                                     : Depth Index
CALI.in         00 000 00 00                                                     :
DT.us/ft        00 000 00 00                                                     :
LLD.ohmm        00 000 00 00                                                     :
NPHI.m3/m3      00 000 00 00                                                     :
RHOB.g/cm3      00 000 00 00                                                     :
SGR.gAPI        00 000 00 00                                                     :
~Ascii Log Data
# ...
    892.91120      8.79920     64.63120      2.26980      0.36040      2.43600     34.67520
    893.06360      8.78840     68.53870      2.14020      0.37780      2.44030     34.84790
    893.21600      8.79680     57.07590      2.09020      0.40460      2.44670     36.79660
    893.36840      8.79910     57.12560      2.03870      0.43670      2.44150     36.47130
    893.52080      8.78990     45.67570      1.93250      0.44660      2.43020     34.64970
    893.67320      8.79490     26.14350      1.86280      0.46020      2.43090     36.08760
    893.82560      8.79030     26.32970      1.88680      0.44690      2.42190     36.93590
    893.97800      8.79530     37.09790      1.91640      0.44830      2.39790     39.74640
    894.13040      8.79490     64.82980      1.83820      0.44030      2.37640     37.52700
    894.28280      8.79910     78.60000      1.82860      0.46180      2.37350     34.88870
    894.43520      8.79260     85.01880      1.69010      0.49230      2.36270     37.93240
    894.58760      8.79080     99.03460      1.49250      0.49740      2.36170     37.62740
    894.74000      8.79910     99.65540      1.39910      0.50840      2.36890     37.65980
    894.89240      8.79260     98.42490      1.32390      0.47270      2.35950     36.80000
    895.04480      8.79730     99.16270      1.24540      0.48780      2.35390     41.48680
    895.19720      8.78520     99.93210      1.24180      0.48750      2.37140     41.23500
    895.34960      8.79910    103.14350      1.28790      0.47680      2.39090     38.93940
    895.50200      8.79260    102.55890      1.46290      0.44170      2.38230     40.02680
    895.65440      8.79490    101.77650      1.66140      0.41980      2.37640     40.61410
    895.80680      8.79080    102.59030      1.69210      0.45810      2.36210     36.95660
    895.95920      8.79680    102.45950      1.64020      0.49920      2.35480     41.31700
    896.11160      8.79260    103.55180      1.52030      0.52990      2.35300     39.55000
    896.26400      8.79730     85.51230      1.40730      0.51030      2.36020     38.35900
    896.41640      8.79030     37.34630      1.43290      0.49020      2.37810     36.13930
    896.56880      8.79040     57.90060      1.53250      0.46340      2.39510     37.79580
    896.72120      8.78840     59.64420      1.61600      0.47330      2.39720     38.23740
    896.87360      8.79260     59.37220      1.71030      0.49400      2.41250     33.35710
    897.02600      8.79450     57.75860      1.78410      0.49450      2.41410     30.60270
    897.17840      8.78560     57.56010      1.79480      0.48950      2.39700     38.27090
    897.33080      8.76190     59.63790      1.69130      0.48400      2.36330     37.97160
    897.48320      8.74310     66.09590      1.57790      0.49860      2.33890     39.59100
    897.63560      8.75760     53.72290      1.44180      0.50150      2.33170     41.33000
    897.78800      8.75760     55.33810      1.34730      0.49070      2.34760     42.92320
    897.94040      8.75810     56.09930      1.34990      0.47560      1.76990     46.65260
    898.09280      8.75760     56.09230      1.43410      0.47620      1.77820     42.04000
    898.24520      8.76180     55.97640      1.49700      0.47290      1.79470     41.37410
    898.39760      8.75760     70.34210      1.63300      0.47790      1.81670     38.90010
    898.55000      8.75580     64.78470      1.73450      0.46590      1.84190     40.03450
    898.70240      8.76410     32.09530      1.82750      0.47780      1.84310     37.14670
    898.85480      8.75290     31.49930      1.86620      0.45580      1.84500     34.46440
    899.00720      8.75990     35.13240      1.78950      0.45950      1.88300     37.52890
    899.15960      8.77770     57.17800      1.74300      0.44190      1.87570     43.54570
    899.31200      8.79040     51.86740      1.76280      0.43830      1.87000     40.03120
    899.46440      8.79030      7.20000      1.79060      0.43480      1.84310     40.38790
    899.61680      8.78610      7.18210      1.88380      0.42610      1.85670     37.02100
    899.76920      8.79260     11.13680      2.02090      0.44970      1.84070     36.90260
    899.92160      8.78980     56.95440      1.94710      0.44350      1.83130     30.87600
    900.07400      8.79030     52.97300      1.85680      0.47110      1.79720     37.52200
    900.22640      8.79260      6.60000      1.71570      0.47450      1.76050     39.90700
    900.37880      8.78380      6.60000      1.46400      0.53350      1.71200     41.07150
    900.53120      8.79210      7.70700      1.36000      0.53390      1.70360     40.73640
    900.68360      8.79030     29.61660      1.29860      0.49500      1.69090     40.57670
    900.83600      8.79260     30.00000      1.26840      0.47770      1.71210     42.59920
    900.98840      8.78790     30.00000      1.36830      0.49380      1.74280     36.37940
    901.14080      8.78470     30.53560      1.50000      0.51820      1.77920     35.18670
    901.29320      8.79030     56.39730      1.63770      0.52510      1.77120     35.60470
    901.44560      8.79490     56.19730      1.71270      0.50440      1.72500     33.81170
    901.59800      8.78790     55.80000      1.63260      0.49410      1.69340     40.99150
    901.75040      8.79030     76.60000      1.46110      0.48630      1.68350     35.75530
    901.90280      8.79210     55.60000      1.34590      0.49030      1.66630     34.84150
    902.05520      8.79090     56.00000      1.26740      0.49090      1.67380     35.93260
    902.20760      8.78510     56.00000      1.24970      0.47870      1.70410     34.14490
    902.36000      8.79450     56.40000      1.31780      0.47340      1.74510     32.95490
    902.51240      8.79030     57.40000      1.39850      0.47130      1.74460     34.86050
    902.66480      8.78610     57.00000      1.45570      0.47770      1.71880     37.41860
    902.81720      8.79450     57.60000      1.49310      0.48200      1.69950     37.78250
    902.96960      8.78790     56.58950      1.48820      0.46910      1.70970     35.98780
    903.12200      8.79160     56.67360      1.46700      0.45460      1.72180     33.50650
    903.27440      8.79030     56.58960      1.50420      0.45550      1.74710     33.03130
    903.42680      8.78990     37.31580      1.50910      0.47510      1.71840     34.22850
    903.57920      8.78940      4.64210      1.45400      0.49690      1.70430     34.99640
    903.73160      8.79430      4.81050      1.39500      0.48900      1.67890     34.62600
    903.88400      8.79040      4.97900      1.34550      0.46650      1.72810     35.05720
    904.03640      8.78730      4.85260      1.33970      0.48270      1.76270     33.56670
    904.18880      8.79220      6.07400      1.39590      0.49340      1.74950     38.95010
    904.34120      8.79380      7.00000      1.47250      0.50730      1.70080     38.48850
    904.49360      8.79110      7.05260      1.49010      0.48930      1.66560     36.70160
    904.64600      8.79010     12.37720      1.45030      0.49020      1.66020     35.30990
    904.79840      8.78560     53.81140      1.42830      0.48520      1.66540     35.11130
    904.95080      8.78950     12.04650      1.43540      0.49500      1.65800     35.43010
    905.10320      8.79090      0.20000      1.45750      0.49970      1.66980     33.35580
    905.25560      8.79360      0.29470      1.49780      0.50350      1.70260     36.35030
    905.40800      8.78940     -0.41990      1.52490      0.49940      1.72940     36.38860
    905.56040      8.79010     -1.06600      1.53830      0.48160      1.71820     36.95630
    905.71280      8.79200      5.00000      1.57320      0.46400      1.70520     35.80220
    905.86520      8.79260      4.40000      1.61380      0.45360      1.71120     34.48040
    906.01760      8.79070      4.40000      1.65030      0.44690      1.75680     33.20620
