~VERSION INFORMATION
VERS.         2.0        : CWLS LOG ASCII STANDARD VERSION 2.0
WRAP.         NO         : ONE LINE PER DEPTH STEP
~WELL INFORMATION
STRT.M     176.93600                                                            :START DEPTH
STOP.M    1710.99440                                                            :STOP DEPTH
STEP.M       0.15240                                                            :STEP
NULL.          -999.25                                                          : NULL VALUE
WELL.          B-2                                                              : WELL NAME
~CURVE INFORMATION
DEPT.m          00 000 00 00                                                     : Depth Index
CALI.in         00 000 00 00                                                     :
DT.us/ft        00 000 00 00                                                     :
LLD.ohmm        00 000 00 00                                                     :
NPHI.m3/m3      00 000 00 00                                                     :
RHOB.g/cm3      00 000 00 00                                                     :
SGR.gAPI        00 000 00 00                                                     :
~Ascii Log Data
# ...
   1091.79320     10.51150    116.80000      1.25020      0.36100      2.10190     99.36660
   1091.94560     10.37850    116.60000      1.22390      0.34310      2.06610    100.47530
   1092.09800     10.32520    116.20000      1.16470      0.34030      2.05110    106.34470
   1092.25040     10.28320    115.80000      1.11920      0.35210      2.08440    109.23740
   1092.40280     10.27150    118.80000      1.11470      0.36880      2.14370    109.30700
   1092.55520     10.28410    116.20000      1.14700      0.38270      2.19200    109.36380
   1092.70760     10.26630    115.60000      1.20830      0.38300      2.22190    107.29300
   1092.86000     10.31900    113.00000      1.25370      0.36630      2.22340    105.35740
   1093.01240     10.67490    113.40000      1.22930      0.34570      2.18140    108.66750
   1093.16480     11.12600    118.60000      1.16360      0.34570      2.13480    104.82840
   1093.31720     11.24350    122.20000      1.11460      0.36680      2.11820    102.82420
   1093.46960     11.07190    123.80000      1.08230      0.38880      2.14380    105.12390
   1093.62200     10.81000    126.40000      1.06510      0.39860      2.17050    105.47120
   1093.77440     10.77970    118.00000      1.06640      0.39200      2.17680    108.03940
   1093.92680     10.76850    119.00000      1.07880      0.37970      2.17820    109.96890
   1094.07920     10.58910    118.00000      1.08490      0.36560      2.18590    107.00070
   1094.23160     10.50840    118.60000      1.08870      0.35620      2.18070    113.40400
   1094.38400     10.33170    120.40000      1.06130      0.36210      2.18310    116.34500
   1094.53640     10.01820    121.40000      1.02370      0.36520      2.18290    113.07100
   1094.68880      9.95100    121.00000      1.01150      0.36390      2.17370    111.95850
   1094.84120     10.09570    120.80000      1.00800      0.36460      2.16320    113.51380
   1094.99360      9.97330    120.60000      1.01030      0.36630      2.15560    111.52200
   1095.14600      9.81090    119.40000      1.03870      0.37340      2.16850    109.67580
   1095.29840      9.98670    119.00000      1.08780      0.36680      2.18300    110.13110
   1095.45080     10.08840    116.00000      1.11610      0.36470      2.20160    103.77410
   1095.60320     10.23520    116.00000      1.11270      0.36080      2.20920    101.79710
   1095.75560     10.45490    116.20000      1.09870      0.36670      2.18030    102.63800
   1095.90800     10.50510    117.60000      1.09830      0.37210      2.16460    110.34180
   1096.06040     10.34530    121.00000      1.06530      0.37020      2.16850    107.97630
   1096.21280     10.13730    119.40000      1.04520      0.35910      2.14550    105.32040
   1096.36520     10.64890    122.20000      1.02950      0.34120      2.08280    106.22150
   1096.51760     11.16880    125.20000      1.02170      0.32880      2.04370    110.36650
   1096.67000     11.16940    125.00000      1.02510      0.32980      2.07590    112.73250
   1096.82240     11.05880    125.40000      1.04060      0.34510      2.09580    112.50400
   1096.97480     10.65410    119.60000      1.04480      0.36850      2.09230    113.00530
   1097.12720     10.24800    117.80000      1.03550      0.38280      2.09030    111.02780
   1097.27960     10.28900    117.00000      1.00850      0.39440      2.11730    108.57450
   1097.43200     10.32580    118.00000      1.01330      0.39890      2.14610    115.38080
   1097.58440     10.12780    118.00000      1.02340      0.39660      2.15820    108.92180
   1097.73680     10.05810    121.40000      1.00270      0.39670      2.16010    109.28450
   1097.88920     10.85560    122.60000      0.98440      0.39860      2.12490    116.86070
   1098.04160     11.28300    122.40000      0.97320      0.38090      2.10650    114.87240
   1098.19400     10.77180    123.60000      0.96710      0.37660      2.10930    112.13550
   1098.34640     10.25490    124.60000      1.00240      0.37660      2.13040    110.89450
   1098.49880     10.25470    120.20000      1.00770      0.41120      2.16150    106.90290
   1098.65120     10.17260    121.80000      1.03670      0.42690      2.17290    104.18660
   1098.80360     10.20810    121.20000      1.02630      0.40790      2.17680    110.72210
   1098.95600     10.19880    119.80000      0.99950      0.37470      2.19200    120.11990
   1099.10840     10.15930    121.40000      0.99250      0.37840      2.18160    119.35750
   1099.26080     10.10370    121.19970      0.98970      0.38530      2.17980    118.90260
   1099.41320     10.06770    119.44000      1.01940      0.38070      2.18270    107.70850
   1099.56560      9.99360    116.64050      1.08070      0.36740      2.19070    109.58170
   1099.71800     10.00110    113.60000      1.13670      0.36100      2.18760    105.85260
   1099.87040     10.32050    114.08000      1.20270      0.35650      2.18690     97.56170
   1100.02280     10.87260    112.63930      1.35280      0.34710      2.09120     94.97400
   1100.17520     11.25440    110.24000      1.32410      0.33530      1.99670     91.99660
   1100.32760     11.61480    108.47980      1.25840      0.31740      1.98100     99.11660
   1100.48000     11.77570    109.60000      1.22010      0.30460      2.04360    103.40760
   1100.63240     11.98140    118.40000      1.06480      0.32060      2.09610     98.74950
   1100.78480     11.75950    120.20000      1.06980      0.35080      2.10030    106.95890
   1100.93720     11.15720    125.20000      1.07110      0.37650      2.10560    111.39150
   1101.08960     10.74050    125.40000      1.05230      0.38940      2.11870    112.70650
   1101.24200     10.59390    116.60000      1.04670      0.39600      2.12810    115.50660
   1101.39440     10.57670    117.00000      1.06050      0.39590      2.14930    116.69800
   1101.54680     10.69460    116.40000      1.05900      0.38620      2.15240    113.64590
   1101.69920     10.79890    118.60000      1.08030      0.37640      2.15010    111.17000
   1101.85160     10.76030    118.40000      1.09690      0.36040      2.12530    113.38320
   1102.00400     10.65160    116.80000      1.09170      0.35800      2.13090    116.22600
   1102.15640     10.50970    115.40000      1.09450      0.38160      2.16240    113.40400
   1102.30880     10.51490    116.40000      1.05620      0.37660      2.17350    114.70570
   1102.46120     10.63730    119.00000      1.00590      0.37800      2.16020    116.51880
   1102.61360     10.69940    119.80000      0.98760      0.38420      2.15470    116.50490
   1102.76600     10.66340    125.60000      0.99470      0.37560      2.18230    116.86620
   1102.91840     10.60750    126.40000      1.02610      0.38320      2.19690    116.40220
   1103.07080     10.55830    122.60170      1.03500      0.38630      2.18510    109.46570
   1103.22320     10.39570    118.46670      1.03260      0.38070      2.18510    109.02850
   1103.37560     10.22880    118.60000      1.05590      0.38310      2.20190    109.78960
   1103.52800     10.23190    118.46720      1.17280      0.37660      2.19390    101.71920
   1103.68040     10.35080    111.01020      1.28310      0.34510      2.19670     97.81740
   1103.83280     10.61640    108.40000      1.33420      0.33630      2.22420     93.97870
   1103.98520     11.16520    108.40000      1.38010      0.32050      2.24390     92.84550
   1104.13760     11.57490    107.40000      1.32420      0.30230      2.21700     94.47650
   1104.29000     11.57310    114.20000      1.20750      0.30790      2.18670     96.35020
   1104.44240     11.09400    115.20000      1.21720      0.33250      2.18280     94.53090
   1104.59480     10.43130    112.20000      1.15990      0.35080      2.17830     97.75500
   1104.74720     10.22030    112.20000      1.06860      0.39670      2.16930    105.26330
   1104.89960     10.14320    125.60000      1.04940      0.43300      2.16410    108.66830
