~VERSION INFORMATION
VERS.         2.0        : CWLS LOG ASCII STANDARD VERSION 2.0
WRAP.         NO         : ONE LINE PER DEPTH STEP
~WELL INFORMATION
STRT.M     176.93600                                                            :START DEPTH
STOP.M    1710.99440                                                            :STOP DEPTH
STEP.M       0.15240                                                            :STEP
NULL.          -999.25                                                          : NULL VALUE
WELL.          B-2                                                              : WELL NAME
~CURVE INFORMATION
DEPT.m          00 000 00 00                                                     : Depth Index
CALI.in         00 000 00 00                                                     :
DT.us/ft        00 000 00 00                                                     :
LLD.ohmm        00 000 00 00                                                     :
NPHI.m3/m3      00 000 00 00                                                     :
RHOB.g/cm3      00 000 00 00                                                     :
SGR.gAPI        00 000 00 00                                                     :
~Ascii Log Data
# ...
    985.72280     12.12400    123.00000      1.22020      0.37470      1.93670     81.89320
    985.87520     12.20930    118.00000      1.29300      0.39790      1.84930     80.70170
    986.02760     12.47770    120.80000      1.28760      0.45280      1.73350     79.42440
    986.18000     12.54580    122.60000      1.13380      0.45230      1.65480     81.42490
    986.33240     12.53410    132.60000      1.03020      0.46140      1.65320     82.79070
    986.48480     12.30070    134.00000      1.02070      0.42490      1.73100     82.97660
    986.63720     12.18100    131.80000      1.14270      0.39980      1.81730     81.86820
    986.78960     11.85900    122.40000      1.23180      0.37270      1.88230     78.49460
    986.94200     11.67370    113.40000      1.38800      0.35260      1.96750     77.66050
    987.09440     11.53130    112.60000      1.29140      0.34460      2.03150     82.05340
    987.24680     11.41680    113.80000      1.33820      0.34960      2.05730     83.25070
    987.39920     12.05810    121.20000      1.32390      0.34760      2.09360     80.96900
    987.55160     12.40290    114.80000      1.47910      0.32570      2.17750     78.62240
    987.70400     12.43690    103.00000      1.75270      0.29730      2.23810     77.06260
    987.85640     12.42510    106.00000      1.66450      0.27320      2.22620     77.03100
    988.00880     11.98160    116.20000      1.44040      0.26160      2.16990     79.47990
    988.16120     12.02070    117.00000      1.20810      0.30130      2.08280     87.97720
    988.31360     12.10590    126.40000      1.13600      0.36940      2.03410     88.05240
    988.46600     11.97670    119.00000      1.23130      0.39690      2.03820     89.00580
    988.61840     11.98510    110.40000      1.49590      0.39360      2.07510     81.56510
    988.77080     12.02650    109.20000      1.48260      0.37150      2.07820     81.17250
    988.92320     12.05350    117.20000      1.28300      0.37940      2.05410     88.54070
    989.07560     12.61260    137.80000      1.21160      0.38240      2.01820     88.85060
    989.22800     12.96770    143.40000      0.99460      0.39500      1.95880     88.60580
    989.38040     12.79240    142.80000      0.93710      0.39730      1.91520     88.92290
    989.53280     12.62880    140.40000      0.99680      0.39750      1.91110     95.45690
    989.68520     12.51910    130.40000      0.99770      0.38480      1.96090     94.50160
    989.83760     12.56010    130.20000      1.18450      0.37560      2.02520     87.66560
    989.99000     12.82660    121.20000      1.18710      0.37950      2.07470     79.40530
    990.14240     12.53110    112.40000      1.33160      0.38280      2.08780     80.10290
    990.29480     12.30560    108.80000      1.40670      0.36780      2.10140     78.53320
    990.44720     12.41590    111.80000      1.41180      0.33700      2.10000     76.87130
    990.59960     12.52590    116.00000      1.23390      0.33200      2.05760     79.86150
    990.75200     11.87480    124.40000      1.24540      0.34750      1.99610     79.85970
    990.90440     11.82180    126.60000      1.24940      0.36500      1.98400     79.76370
    991.05680     11.87400    124.00000      1.24330      0.37110      2.06500     85.29910
    991.20920     11.83830    117.80000      1.25470      0.37470      2.15190     85.47600
    991.36160     11.75450    125.20000      1.16090      0.37200      2.17150     87.17030
    991.51400     11.90370    126.20000      1.19080      0.37980      2.15360     84.70640
    991.66640     12.07320    124.60000      1.18020      0.38570      2.10870     85.90470
    991.81880     12.24110    116.20000      1.36770      0.37880      2.07400     83.20870
    991.97120     12.23640    112.20000      1.45250      0.36910      2.05850     79.08190
    992.12360     12.14040    114.80000      1.44820      0.37270      2.05660     85.24310
    992.27600     12.36410    116.00000      1.23410      0.39470      2.06830     88.36450
    992.42840     12.58510    134.20000      1.14380      0.42010      2.08650     88.11210
    992.58080     12.18050    134.60000      0.91150      0.43320      2.09090     90.24170
    992.73320     11.98220    142.00000      0.82180      0.44050      2.08360     92.12550
    992.88560     11.70820    136.60000      0.89530      0.42320      2.10480     89.05900
    993.03800     11.63740    130.80000      1.05990      0.38130      2.14130     88.13790
    993.19040     11.51940    121.40000      1.21880      0.35100      2.16920     85.80430
    993.34280     11.30680    115.00000      1.55470      0.34050      2.20300     79.55550
    993.49520     11.31130    100.20000      1.57410      0.32710      2.22990     82.87950
    993.64760     11.44090    111.40000      1.43010      0.32210      2.21560     76.57700
    993.80000     11.51730    122.00000      1.17400      0.35050      2.15200     79.06840
    993.95240     11.92650    134.20000      0.96460      0.38600      2.07350    100.35490
    994.10480     12.25980    146.00000      0.88990      0.41800      2.02810    101.97370
    994.25720     12.08510    137.00000      0.97550      0.41910      2.02710    100.77510
    994.40960     11.57090    135.80000      1.02450      0.41190      2.04510    101.06520
    994.56200     11.51550    126.20000      1.01210      0.41040      2.06150    106.23030
    994.71440     11.98490    126.80000      1.11020      0.41290      2.07400     93.54800
    994.86680     12.54430    123.60000      1.15270      0.41340      2.08550     90.34210
    995.01920     12.62820    123.20000      1.10560      0.38720      2.09940     92.33090
    995.17160     12.65480    118.80000      1.24620      0.36560      2.12470     88.86370
    995.32400     12.58400    117.20000      1.32270      0.34930      2.13950     80.83100
    995.47640     12.36610    107.00000      1.42430      0.34420      2.09680     74.01530
    995.62880     12.92230    110.00000      1.57130      0.33660      2.04650     72.29580
    995.78120     13.70230    101.80000      1.61170      0.33090      2.02990     64.65540
    995.93360     13.81710    105.80000      1.60500      0.32600      2.04880     65.65770
    996.08600     13.87710    107.80000      1.61170      0.31840      2.10150     63.08270
    996.23840     13.71160    101.20000      1.56980      0.31460      2.15180     64.46610
    996.39080     13.92270    114.60000      1.44970      0.31740      2.18090     76.48440
    996.54320     14.49020    116.00000      1.39030      0.33560      2.14530     77.63840
    996.69560     13.99340    137.40000      1.28660      0.36200      2.06850     78.10180
    996.84800     13.01230    115.00000      1.23670      0.38550      2.02550     77.54880
    997.00040     12.51560    119.20000      1.28460      0.39450      2.01930     75.84610
    997.15280     12.55940    116.60000      1.30160      0.38500      1.99060     88.64470
    997.30520     12.62690    119.80000      1.29680      0.38150      1.92230     88.49550
    997.45760     12.65520    125.40000      1.22790      0.38520      1.85680     92.37780
    997.61000     12.45980    122.20000      1.16240      0.38600      1.82590     94.21430
    997.76240     12.17490    123.80000      1.13680      0.37260      1.83430     84.03090
    997.91480     12.20370    126.80000      1.16990      0.36500      1.87110     92.12160
    998.06720     12.33380    125.40000      1.19490      0.38020      1.93640     92.98780
    998.21960     12.35360    127.60000      1.22300      0.40860      1.99670     91.98390
    998.37200     11.98840    120.80000      1.22200      0.41980      2.03100     91.12140
    998.52440     11.76730    119.80000      1.24060      0.40930      2.05240     91.64330
    998.67680     12.15610    122.20000      1.14800      0.39650      2.08160     87.53160
    998.82920     12.38710    125.60000      1.06800      0.38440      2.11230     82.63800
