~VERSION INFORMATION
VERS.         2.0        : CWLS LOG ASCII STANDARD VERSION 2.0
WRAP.         NO         : ONE LINE PER DEPTH STEP
~WELL INFORMATION
STRT.M     176.93600                                                            :START DEPTH
STOP.M    1710.99440                                                            :STOP DEPTH
STEP.M       0.15240                                                            :STEP
NULL.          -999.25                                                          : NULL VALUE
WELL.          B-2                                                              : WELL NAME
~CURVE INFORMATION
DEPT.m          00 000 00 00                                                     : Depth Index
CALI.in         00 000 00 00                                                     :
DT.us/ft        00 000 00 00                                                     :
LLD.ohmm        00 000 00 00                                                     :
NPHI.m3/m3      00 000 00 00                                                     :
RHOB.g/cm3      00 000 00 00                                                     :
SGR.gAPI        00 000 00 00                                                     :
~Ascii Log Data
# ...
   1290.67520      9.59550     86.40000      4.34730      0.28050      2.49540    118.69720
   1290.82760      8.74590     80.20000      4.82770      0.27820      2.57570    108.33410
   1290.98000      8.68760     76.20000      5.00690      0.25270      2.68950    106.77770
   1291.13240      8.71500     75.00000      5.36300      0.24230      2.80360    103.44770
   1291.28480      8.67120     76.60000      5.21300      0.23290      2.76250    106.15640
   1291.43720      8.66490     79.60000      5.47600      0.23500      2.68770    100.47300
   1291.58960      8.69170     79.80000      5.51060      0.24530      2.64190     99.74320
   1291.74200      8.70700     80.60000      5.13290      0.24660      2.62860    100.13200
   1291.89440      8.70390     79.80000      6.23050      0.24450      2.61810    100.09680
   1292.04680      8.68840     78.40000      6.91870      0.23150      2.61890    101.88650
   1292.19920      8.66020     76.00000      6.54990      0.22420      2.64390    101.95870
   1292.35160      8.66130     76.40000      6.77730      0.22860      2.69560     92.11370
   1292.50400      8.77730     77.80000      6.34100      0.23920      2.69410     98.78290
   1292.65640      8.76690     78.80000      5.75800      0.24070      2.65080    107.42090
   1292.80880      8.69200     84.80000      4.82070      0.24730      2.60400    108.66360
   1292.96120      9.11470     86.80000      3.84230      0.26720      2.47880    106.78310
   1293.11360      9.86160     93.40000      3.41140      0.29320      2.24510    125.56300
   1293.26600     10.42060     97.40000      3.27960      0.31440      2.16140    128.23310
   1293.41840     10.02190     95.40000      3.30260      0.32180      2.20470    128.68940
   1293.57080      9.66130     88.20000      3.67860      0.31270      2.31680    117.99640
   1293.72320      8.79030     76.40000      4.17580      0.29190      2.43330     93.34630
   1293.87560      8.66660     77.00000      4.43350      0.26930      2.55570     90.69220
   1294.02800      8.65960     77.60000      5.00750      0.25530      2.59370     92.51120
   1294.18040      8.68200     82.00000      4.59120      0.24770      2.57930     95.80090
   1294.33280      8.86400     85.00000      4.49180      0.24610      2.56850     97.26660
   1294.48520      8.98140     85.20000      4.47000      0.25260      2.57010    101.15730
   1294.63760      8.71330     85.40000      4.47560      0.26400      2.55790    104.51900
   1294.79000      8.65490     84.20000      4.23460      0.27470      2.59200    103.47670
   1294.94240      8.82530     82.60000      3.74750      0.28260      2.56430    109.42920
   1295.09480      9.11600     90.00000      3.64860      0.29070      2.52070    109.51940
   1295.24720      9.58670     93.20000      3.33390      0.30230      2.49260    135.57750
   1295.39960      9.66020     96.93330      3.08740      0.31270      2.49840    140.00240
   1295.55200      9.74170     99.26840      3.01220      0.33780      2.53060    139.57940
   1295.70440      9.64920     95.66520      3.03270      0.34900      2.52990    137.27960
   1295.85680      9.41430     95.49130      3.06400      0.37950      2.48310    145.11350
   1296.00920      9.25360     99.04620      3.01310      0.39060      2.36510    146.27150
   1296.16160      8.84290    101.46640      2.98820      0.39940      2.29200    144.11050
   1296.31400      9.32010    100.48710      3.02960      0.40510      2.26370    144.24130
   1296.46640      9.34170     98.02230      3.11060      0.40550      2.30250    150.99580
   1296.61880      8.97840     98.20000      3.18970      0.40540      2.34810    133.43060
   1296.77120      9.05860     96.60000      3.23330      0.39730      2.24550    141.51520
   1296.92360      9.45820    101.13380      3.09840      0.38320      2.11260    143.69980
   1297.07600      9.88580    103.20000      2.91500      0.40140      2.02500    140.38630
   1297.22840      9.90340    101.53190      2.82380      0.41510      2.05150    142.22430
   1297.38080      9.50710     97.00000      2.87290      0.40170      2.17040    142.94850
   1297.53320      9.63340     98.60000      2.96460      0.38000      2.26690    144.17850
   1297.68560      9.93760     97.48000      2.95970      0.38410      2.28810    146.01700
   1297.83800      9.94450     97.44010      2.97350      0.38910      2.29570    145.13440
   1297.99040      9.94770     97.76000      2.88760      0.37690      2.30670    143.78330
   1298.14280      9.87900     97.51910      2.83860      0.36820      2.31810    144.90210
   1298.29520      9.73140     95.60000      2.88500      0.39560      2.30720    146.87740
   1298.44760      9.57010     94.96000      2.90660      0.40950      2.28500    130.80900
   1298.60000      9.11290     91.80190      2.95430      0.40300      2.30610    121.25480
   1298.75240      8.81830     85.16740      3.49510      0.35460      2.35950    117.37520
   1298.90480      8.73480     78.87960      3.58300      0.31220      2.44260    102.41790
   1299.05720      8.66960     81.60000      3.49730      0.30640      2.56010     99.94060
   1299.20960      8.69980     86.14290      4.19770      0.31080      2.61190    101.95530
   1299.36200      8.98360     88.88840      4.54690      0.28650      2.65610     89.08560
   1299.51440      8.97820     82.37140      4.47940      0.25260      2.64450     85.21510
   1299.66680      8.71790     82.37140      4.76270      0.24040      2.64700     81.32470
   1299.81920      8.76370     83.31650      4.76140      0.24120      2.68160     78.50800
   1299.97160      8.87530     85.54310      3.83370      0.24640      2.62020     76.71150
   1300.12400      8.88360     85.00000      4.08420      0.23530      2.54370     77.88160
   1300.27640      8.70180     85.20000      4.28550      0.22070      2.51940     74.96120
   1300.42880      8.64730     80.60000      5.06030      0.23610      2.56290     81.96840
   1300.58120      8.74930     80.60000      6.36130      0.27240      2.61980     79.91670
   1300.73360      8.85200     79.20000      5.92450      0.28670      2.62020     94.19330
   1300.88600      8.87210     79.20000      5.48860      0.26330      2.61600     95.64190
   1301.03840      8.95410     83.80000      3.71000      0.24200      2.56860    111.99410
   1301.19080      9.13700     85.40000      3.37380      0.23460      2.55390    111.31770
   1301.34320      9.27390     84.80000      3.34480      0.23660      2.59430    112.53820
   1301.49560      8.68600     84.00000      3.78860      0.23930      2.59970     93.42620
   1301.64800      8.66970     82.40000      5.31750      0.23530      2.59520     77.83420
   1301.80040      8.69200     81.20000      5.16490      0.22740      2.57150     79.55250
   1301.95280      8.69590     82.00000      4.90980      0.21940      2.54860     80.45640
   1302.10520      8.69210     81.80000      4.75530      0.21500      2.56790     94.04120
   1302.25760      8.68260     77.80000      5.06640      0.21690      2.58180     90.32610
   1302.41000      8.68910     75.60000      5.58430      0.22470      2.59510     78.86940
   1302.56240      8.69130     74.80000      6.87160      0.23580      2.57880     77.06060
   1302.71480      8.69050     73.20000      6.34320      0.24660      2.54890     78.45060
   1302.86720      8.70680     79.00000      5.90100      0.25480      2.51670     81.82050
   1303.01960      8.72030     86.40000      4.47770      0.26160      2.51260     88.33250
   1303.17200      8.73970     86.80000      3.66630      0.27200      2.54590     85.72260
   1303.32440      8.75030     86.60000      3.59380      0.29030      2.59850     83.51370
   1303.47680      8.64760     87.60000      3.44130      0.31880      2.63190     80.48380
   1303.62920      8.61990     86.80000      3.36450      0.34930      2.64140     76.61490
   1303.78160      8.62440     89.00000      3.47180      0.36600      2.66750     88.61080
