~VERSION INFORMATION
VERS.         2.0        : CWLS LOG ASCII STANDARD VERSION 2.0
WRAP.         NO         : ONE LINE PER DEPTH STEP
~WELL INFORMATION
STRT.M     176.93600                                                            :START DEPTH
STOP.M    1710.99440                                                            :STOP DEPTH
STEP.M       0.15240                                                            :STEP
NULL.          -999.25                                                          : NULL VALUE
WELL.          B-2                                                              : WELL NAME
~CURVE INFORMATION
DEPT.m          00 000 00 00                                                     : Depth Index
CALI.in         00 000 00 00                                                     :
DT.us/ft        00 000 00 00                                                     :
LLD.ohmm        00 000 00 00                                                     :
NPHI.m3/m3      00 000 00 00                                                     :
RHOB.g/cm3      00 000 00 00                                                     :
SGR.gAPI        00 000 00 00                                                     :
~Ascii Log Data
    176.93600   -999.25000   -999.25000   -999.25000   -999.25000   -999.25000   -999.25000
    177.08840   -999.25000   -999.25000   -999.25000   -999.25000   -999.25000   -999.25000
    177.24080   -999.25000   -999.25000   -999.25000   -999.25000   -999.25000   -999.25000
    177.39320   -999.25000   -999.25000   -999.25000   -999.25000   -999.25000   -999.25000
    177.54560   -999.25000   -999.25000   -999.25000   -999.25000   -999.25000   -999.25000
    177.69800   -999.25000   -999.25000   -999.25000   -999.25000   -999.25000   -999.25000
    177.85040   -999.25000   -999.25000      0.23450      0.46050      1.76020     20.75750
    178.00280     12.60200   -999.25000      0.22740      0.46060      1.76020     20.75750
    178.15520     12.58700    -53.20000      0.22860      0.46740      1.76020     20.75750
    178.30760     12.60320    -53.20000      0.21880      0.44370      1.79830     20.75750
    178.46000     12.58650    -53.20000      0.22210      0.41510      1.85240     20.75750
    178.61240     12.59650    -53.20000      0.23130      0.39560      1.86030     20.75750
    178.76480     12.59000    -53.20000      0.22590      0.43160      1.82160     20.75750
    178.91720     12.62350    -53.20000      0.22910      0.47560      1.77690     20.75750
    179.06960     12.60900    -53.20000      0.23070      0.48590      1.72180     20.75750
    179.22200     12.62570    -53.20000      0.23230      0.46780      1.68520     20.75750
    179.37440     12.59890    -53.20000      0.23070      0.45260      1.64800     20.75750
    179.52680     12.63480    -53.20000      0.22770      0.51250      1.63090     20.75750
    179.67920     12.60670    -53.60000      0.21730      0.52550      1.60810     20.75750
    179.83160     12.61000    -53.60000      0.21380      0.52450      1.58230     20.75750
    179.98400     12.59440    -53.70000      0.21730      0.46540      1.57690     20.75750
    180.13640     12.61780    -54.10000      0.22240      0.47790      1.60790     20.75750
    180.28880     12.59670    -53.50000      0.22720      0.48480      1.63700     20.75750
    180.44120     12.60860    -53.60000      0.21930      0.50450      1.64200     20.75750
    180.59360     12.61780    -84.60000      0.22420      0.48160      1.66070     20.75750
    180.74600     12.61120    -84.50000      0.21840      0.46540      1.67880     20.75750
    180.89840     12.62020    -83.40000      0.22350      0.47580      1.67830     20.75750
    181.05080     12.62120    -84.80000      0.22060      0.46860      1.67460     20.75750
    181.20320     12.61340    -96.90000      0.22600      0.48490      1.65880     20.75750
    181.35560     12.62240    -96.00000      0.22750      0.45800      1.64320     20.75750
    181.50800     12.63700    -98.50000      0.22210      0.46260      1.63000     20.75750
    181.66040     12.62360    -95.60000      0.23660      0.44140      1.61040     20.75750
    181.81280     12.64480    -84.10000      0.24560      0.46410      1.61780     20.75750
    181.96520     12.63470    -69.50000      0.23710      0.47030      1.66460     17.06220
    182.11760     12.61920    -77.30000      0.23990      0.49570      1.86990     16.21290
    182.27000     12.63250    -77.10000      0.23840      0.47740      1.98640     14.37680
    182.42240     12.60900    -76.80000      0.28260      0.48240      1.97320     15.61360
    182.57480     12.52710    -77.80000      0.30060      0.46130      1.87830     16.76880
    182.72720     12.49750    -61.80000      0.22110      0.48970      1.75980     22.89200
    182.87960     12.46060    -65.30000      0.22220      0.51780      1.69520     23.64340
    183.03200     12.46150    -93.00000      0.21380      0.52300      1.65370     25.97500
    183.18440     12.45040   -104.00000      0.22320      0.52000      1.66970     24.38530
    183.33680     12.45700   -107.20000      0.22300      0.50210      1.66030     22.49630
    183.48920     12.44490    -91.80000      0.23720      0.49620      1.66570     23.22120
    183.64160     12.45930    -91.00000      0.23290      0.47810      1.66460     21.89580
    183.79400     12.44180    -89.00000      0.23590      0.47370      1.68300     20.89520
    183.94640     12.46240    -88.80000      0.23290      0.48680      1.69350     21.94580
    184.09880     12.44940    -87.60000      0.23040      0.48760      1.67810     21.55820
    184.25120     12.45610    -82.40000      0.22770      0.50990      1.68800     21.51770
    184.40360     12.43950    -80.80000      0.22360      0.50550      1.68360     21.60780
    184.55600     12.46010    -81.50000      0.22770      0.50040      1.68940     19.67360
    184.70840     12.44560    -82.10000      0.22820      0.49050      1.67060     24.81360
    184.86080     12.46150    -80.20000      0.23140      0.50980      1.66610     20.23550
    185.01320     12.45160    -82.70000      0.23060      0.53250      1.64670     18.71590
    185.16560     12.45160    -53.30000      0.22820      0.52570      1.63340     23.94460
    185.31800     12.44490    -51.20000      0.22970      0.52270      1.61660     22.16900
    185.47040     12.45700    -51.10000      0.23230      0.50520      1.58510     19.36550
    185.62280     12.45250    -51.90000      0.23710      0.50980      1.56240     20.51540
    185.77520     12.45610    -50.50000      0.23490      0.50660      1.54550     21.57210
    185.92760     12.45930    -50.50000      0.23580      0.52100      1.56500     22.39750
    186.08000     12.44710    -48.90000      0.23670      0.50600      1.59970     20.73130
    186.23240     12.44940    -48.90000      0.23180      0.50440      1.61390     20.17790
    186.38480     12.44940    -50.70000      0.22560      0.47360      1.60730     19.04500
    186.53720     12.45700    -50.50000      0.23140      0.46580      1.60610     20.42360
    186.68960     12.45030    -50.30000      0.23120      0.46310      1.61210     19.59170
    186.84200     12.45160    -50.70000      0.23170      0.46350      1.63500     17.88680
    186.99440     12.44260    -50.60000      0.22950      0.45200      1.66710     18.58660
    187.14680     12.45930    -50.60000      0.22730      0.42700      1.73530     19.71260
    187.29920     12.44800    -50.90000      0.22690      0.45790      1.75200     19.44980
    187.45160     12.45480    -51.50000      0.22730      0.44830      1.75590     16.81330
    187.60400     12.44180    -51.30000      0.23210      0.43760      1.74000     19.22160
    187.75640     12.45700    -51.30000      0.22990      0.43140      1.77740     20.84020
    187.90880     12.45570    -83.50000      0.22750      0.43660      1.81180     20.60940
    188.06120     12.44320    -83.60000      0.23480      0.44470      1.80010     18.12060
    188.21360     12.44630    -83.70000      0.23660      0.45200      1.75940     18.24690
    188.36600     12.45480    -84.60000      0.23620      0.49100      1.71900     19.53990
    188.51840     12.46470    -51.10000      0.23380      0.50790      1.69970     18.22910
    188.67080     12.44710    -49.90000      0.23100      0.49390      1.71340     18.32060
    188.82320     12.45160    -50.00000      0.23350      0.47060      1.71850     17.66940
    188.97560     12.45160    -49.70000      0.23590      0.47390      1.70970     18.12260
    189.12800     12.45700    -80.50000      0.23620      0.47860      1.70120     18.97880
    189.28040     12.44800    -80.40000      0.23360      0.47080      1.71550     18.54940
    189.43280     12.44490    -80.50000      0.23400      0.44910      1.72330     20.95580
    189.58520     12.45700    -64.50000      0.23300      0.45410      1.70540     18.23030
    189.73760     12.45480    -65.50000      0.23390      0.45800      1.72470     32.03710
    189.89000     12.44710    -65.60000      0.23740      0.48110      1.73160     30.56720
    190.04240     12.44710    -67.00000      0.23610      0.45590      1.74570     33.34930
