~VERSION INFORMATION
VERS.         2.0        : CWLS LOG ASCII STANDARD VERSION 2.0
WRAP.         NO         : ONE LINE PER DEPTH STEP
~WELL INFORMATION
STRT.M     176.93600                                                            :START DEPTH
STOP.M    1710.99440                                                            :STOP DEPTH
STEP.M       0.15240                                                            :STEP
NULL.          -999.25                                                          : NULL VALUE
WELL.          B-2                                                              : WELL NAME
~CURVE INFORMATION
DEPT.m          00 000 00 00                                                     : Depth Index
CALI.in         00 000 00 00                                                     :
DT.us/ft        00 000 00 00                                                     :
LLD.ohmm        00 000 00 00                                                     :
NPHI.m3/m3      00 000 00 00                                                     :
RHOB.g/cm3      00 000 00 00                                                     :
SGR.gAPI        00 000 00 00                                                     :
~Ascii Log Data
# ...
    375.81800     12.70810    130.80000      1.76890      0.44520      1.96450     57.09800
    375.97040     12.65840    132.30000      1.56040      0.48220      1.94210     60.83050
    376.12280     12.64690    158.00000      1.47690      0.49570      1.92160     60.63760
    376.27520     12.73260    161.70000      1.54720      0.48870      1.92670     60.58430
    376.42760     12.76210     -7.10000      1.84750      0.45700      1.96040     55.37450
    376.58000     12.54730    116.60000      2.47040      0.37530      2.04520     52.88980
    376.73240     12.36410    117.00000      3.52170      0.31030      2.15310     46.77920
    376.88480     12.22310    109.70000      5.17370      0.24570      2.26440     38.24670
    377.03720     12.17710    110.70000      7.67200      0.21800      2.32120     36.87250
    377.18960     12.18480     97.41420     13.39050      0.19490      2.34580     29.12860
    377.34200     12.17950     98.41480     14.94850      0.17750      2.37090     28.81090
    377.49440     12.17290    106.31690     11.95010      0.18280      2.41090     29.08270
    377.64680     12.28150    118.19980      7.27720      0.22480      2.35500     33.16250
    377.79920     12.41920    128.78760      3.50620      0.30050      2.20000     44.76330
    377.95160     12.60000    146.52230      1.96550      0.38900      2.06580     53.26380
    378.10400     12.83720    162.80000      1.39390      0.45810      2.02890     67.05350
    378.25640     13.13840    157.20110      1.29130      0.45300      2.06440     64.16100
    378.40880     13.08690    151.28620      1.55610      0.39400      2.10480     65.80380
    378.56120     12.68920    126.46250      2.19970      0.32650      2.12810     46.13280
    378.71360     12.65590    126.36420      3.26210      0.29400      2.14080     42.98100
    378.86600     12.83720    134.44440      3.68330      0.31130      2.14310     39.63090
    379.01840     13.00210    131.60120      2.77550      0.38450      2.12560     48.46410
    379.17080     13.21260    130.77870      1.96150      0.47170      2.08730     56.20170
    379.32320     13.66940    138.23200      1.41360      0.47250      2.04930     72.29060
    379.47560     13.84060    142.50000      1.08720      0.48210      2.02920     75.45720
    379.62800     13.90070    138.80000      1.06230      0.45960      2.03290     77.28740
    379.78040     13.63810    128.30000      1.13240      0.46680      2.03810     74.81550
    379.93280     13.45960    133.80000      1.22980      0.46890      2.04490     67.08730
    380.08520     13.43830    130.70000      1.28100      0.46520      2.06140     70.09900
    380.23760     13.47350    137.00000      1.30800      0.42960      2.10210     66.50660
    380.39000     13.62710    139.30000      1.38570      0.39940      2.12980     63.36460
    380.54240     13.65850    137.60000      1.56770      0.35910      2.15280     60.60730
    380.69480     13.60790    122.10000      1.98180      0.33920      2.16880     50.53510
    380.84720     13.38120    121.40000      2.67160      0.33780      2.18020     47.71420
    380.99960     13.27070    121.50000      3.56420      0.35150      2.18450     45.92440
    381.15200     13.04300    126.90000      3.92630      0.37460      2.15990     47.10290
    381.30440     12.91060    114.20000      2.73260      0.40410      2.09850     48.80380
    381.45680     13.06650    113.50000      1.87010      0.43920      2.01900     61.23020
    381.60920     13.47140    109.70000      1.39650      0.47360      1.95490     60.27310
    381.76160     13.89270    109.20000      1.10760      0.49130      1.92730     66.66370
    381.91400     14.05880    106.50000      1.08370      0.47540      1.93290     70.38050
    382.06640     13.66320    105.70000      1.24370      0.43230      1.96270     58.70270
    382.21880     13.61930     94.40000      1.62310      0.39740      2.01080     57.10650
    382.37120     13.55190     83.30000      2.35210      0.36970      2.08810     51.86820
    382.52360     12.96070     88.00000      3.46740      0.34170      2.18400     45.90490
    382.67600     12.66850     69.00000      4.86650      0.31240      2.27650     35.19070
    382.82840     12.66820     70.40000      5.59450      0.28830      2.34810     37.76880
    382.98080     12.68580     69.70000      5.66560      0.27410      2.40030     33.24740
    383.13320     12.75390     77.70000      5.77890      0.25980      2.40640     34.20000
    383.28560     12.81470     68.00000      5.72910      0.25720      2.33780     32.96120
    383.43800     12.90420     88.60000      5.28080      0.27250      2.24110     37.36180
    383.59040     12.98260     77.30000      4.24940      0.30810      2.12730     39.73930
    383.74280     13.58140     82.40000      3.01900      0.37910      2.04720     50.46880
    383.89520     13.79470     97.40000      2.02800      0.45920      1.98320     60.45470
    384.04760     13.50200    110.10000      1.42680      0.52580      1.95950     71.69160
    384.20000     13.07670    114.60000      1.12980      0.55970      1.97810     64.20400
    384.35240     12.74930    120.00000      1.09770      0.53430      2.05190     63.51660
    384.50480     12.72760    112.32030      1.39410      0.44350      2.15140     62.11740
    384.65720     12.72960    110.21990      2.19440      0.35870      2.25490     47.44710
    384.80960     12.83330    112.26070      3.24330      0.33470      2.33950     58.41050
    384.96200     13.12950    115.71980      3.73310      0.35780      2.38130     59.06720
    385.11440     13.41440    116.60000      2.80840      0.36760      2.35860     56.96370
    385.26680     13.64430    121.71860      1.81930      0.40050      2.27720     59.50750
    385.41920     13.53170    132.06340      1.34510      0.48360      2.17490     62.69250
    385.57160     13.29800    143.93950      1.15710      0.51270      2.08240     62.37070
    385.72400     13.09460    155.26200      1.16750      0.52060      2.02350     63.27630
    385.87640     12.98710    165.50000      1.25810      0.47860      2.01570     66.57710
    386.02880     12.99920    168.59920      1.29470      0.46250      2.01940     68.90510
    386.18120     13.11990    161.20230      1.28230      0.44800      2.01970     71.38190
    386.33360     13.26330    154.93460      1.29090      0.44480      2.00890     67.88610
    386.48600     13.30180    164.82030      1.30000      0.47060      2.01330     66.16590
    386.63840     13.30030    169.48840      1.28690      0.44720      2.00800     69.39450
    386.79080     13.26950    169.00000      1.26940      0.43300      2.01850     73.06150
    386.94320     13.24590    169.23320      1.22270      0.43950      2.01780     71.00670
    387.09560     13.31230    170.18880      1.18340      0.44730      2.00030     71.63110
    387.24800     13.18830    171.10000      1.17960      0.46520      1.97430     72.88580
    387.40040     12.90280    174.60270      1.18060      0.47540      1.93740     72.01980
    387.55280     12.74390    190.22260      1.17240      0.48680      1.89160     69.69880
    387.70520     12.76100    188.69990      1.23660      0.50470      1.85580     69.44910
    387.85760     12.92950    190.83160      1.34670      0.51350      1.85390     67.99510
    388.01000     13.06190    194.16670      1.34600      0.50210      1.87710     66.48460
    388.16240     12.88330    191.63360      1.33750      0.49110      1.89270     64.00070
    388.31480     12.68010    188.74360      1.29940      0.49250      1.89010     61.93790
    388.46720     12.66100    188.12230      1.17360      0.50380      1.88570     59.96050
    388.61960     12.77990    185.60000      1.16350      0.49600      1.89080     68.30590
    388.77200     12.78790    187.66570      1.19970      0.47920      1.89900     68.03610
    388.92440     12.85580    200.57550      1.23090      0.47630      1.91800     68.70590
