~VERSION INFORMATION
VERS.         2.0        : CWLS LOG ASCII STANDARD VERSION 2.0
WRAP.         NO         : ONE LINE PER DEPTH STEP
~WELL INFORMATION
STRT.M     176.93600                                                            :START DEPTH
STOP.M    1710.99440                                                            :STOP DEPTH
STEP.M       0.15240                                                            :STEP
NULL.          -999.25                                                          : NULL VALUE
WELL.          B-2                                                              : WELL NAME
~CURVE INFORMATION
DEPT.m          00 000 00 00                                                     : Depth Index
CALI.in         00 000 00 00                                                     :
DT.us/ft        00 000 00 00                                                     :
LLD.ohmm        00 000 00 00                                                     :
NPHI.m3/m3      00 000 00 00                                                     :
RHOB.g/cm3      00 000 00 00                                                     :
SGR.gAPI        00 000 00 00                                                     :
~Ascii Log Data
# ...
   1595.62760      8.51490     72.20000      3.12310      0.21030      2.42490    107.06840
   1595.78000      8.52270     72.60000      1.78940      0.20510      2.39340     89.22960
   1595.93240      8.49770     78.80000      1.37350      0.20680      2.31350     68.74190
   1596.08480      8.32950     84.20000      0.94300      0.21790      2.25360     38.39000
   1596.23720      8.26980     89.00000      0.69630      0.23460      2.22520     32.11050
   1596.38960      8.26030     88.60000      0.65160      0.24800      2.21900     31.81740
   1596.54200      8.23320     87.00000      0.60870      0.25810      2.20780     28.74560
   1596.69440      8.23250     85.20000      0.61140      0.24610      2.21280     30.75740
   1596.84680      8.27840     82.00000      0.62760      0.22650      2.24380     30.45030
   1596.99920      8.33770     80.60000      0.62460      0.21040      2.27180     29.86100
   1597.15160      8.31210     82.60000      0.67140      0.20900      2.28440     26.65220
   1597.30400      8.29870     83.00000      0.70910      0.21920      2.27520     30.46390
   1597.45640      8.26980     83.20000      0.74260      0.22840      2.27400     47.77090
   1597.60880      8.27190     83.80000      0.75950      0.23550      2.28570     62.44820
   1597.76120      8.27130     81.80000      0.75600      0.23880      2.28540     60.59640
   1597.91360      8.27180     81.40000      0.80830      0.23470      2.28640     42.26150
   1598.06600      8.26970     81.80000      0.90010      0.22920      2.28440     42.95320
   1598.21840      8.27190     84.20000      0.92120      0.22240      2.28340     36.18860
   1598.37080      8.27390     85.40000      1.00830      0.21820      2.27380     32.98490
   1598.52320      8.26800     86.40000      1.02160      0.21680      2.26870     30.83190
   1598.67560      8.26950     86.40000      0.91640      0.21820      2.26120     31.21670
   1598.82800      8.26750     86.40000      0.80400      0.21820      2.24830     33.21060
   1598.98040      8.27230     86.80000      0.72690      0.21700      2.23010     27.85640
   1599.13280      8.27400     86.53300      0.67320      0.21590      2.22730     25.75390
   1599.28520      8.27030     86.00000      0.57490      0.21670      2.22520     22.95330
   1599.43760      8.27000     83.73330      0.53440      0.21610      2.22710     22.11950
   1599.59000      8.27130     84.13320      0.55030      0.21360      2.23570     19.21230
   1599.74240      8.26760     84.60000      0.60030      0.21130      2.25450     27.81460
   1599.89480      8.26750     82.68150      0.76060      0.21340      2.26830     29.59420
   1600.04720      8.27580     85.91200      0.81780      0.21870      2.28630     30.81040
   1600.19960      8.27170     87.60800      0.77040      0.22840      2.30330     36.48860
   1600.35200      8.26980     88.30360      0.67880      0.23690      2.29770     35.98010
   1600.50440      8.26750     88.56000      0.56820      0.23160      2.25250     35.63460
   1600.65680      8.27210     89.81510      0.42930      0.22490      2.22810     32.11740
   1600.80920      8.27110     86.31200      0.41050      0.20880      2.23620     27.16400
   1600.96160      8.26640     83.98460      0.45420      0.20630      2.26440     28.36220
   1601.11400      8.22650     84.11200      0.50570      0.21270      2.28740     27.66370
   1601.26640      8.21800     82.48150      0.58780      0.25300      2.30000     27.63360
   1601.41880      8.20910     81.42400      0.80070      0.28540      2.31160     25.81860
   1601.57120      8.20910     80.04120      0.92340      0.28540      2.31200     37.54980
   1601.72360      8.29680     78.02400      0.96000      0.25760      2.32840     40.29740
   1601.87600      8.37170     77.66380      1.14500      0.23150      2.38100     61.44620
   1602.02840      8.55760     79.60000      1.39180      0.21990      2.43840     85.81430
   1602.18080      8.67440     84.08800      1.68020      0.20810      2.46330    102.74460
   1602.33320      8.43000     87.92790      1.94300      0.20030      2.38760     80.26720
   1602.48560      8.29080     86.68800      1.93470      0.18740      2.31220     50.49450
   1602.63800      8.27670     80.44980      1.64380      0.18180      2.30380     39.77520
   1602.79040      8.48680     71.76000      1.48210      0.20970      2.38330     42.19820
   1602.94280      8.53280     67.47150      1.64750      0.25300      2.50010     47.22110
   1603.09520      8.47050     72.27200      2.13940      0.25730      2.53890     46.13250
   1603.24760      8.39580     81.88780      2.78310      0.22960      2.46640     43.44160
   1603.40000      8.32020     85.32000      2.37370      0.19790      2.38310     35.31460
   1603.55240      8.24420     88.20000      1.64100      0.18960      2.31060     29.04420
   1603.70480      8.22750     90.88810      1.18670      0.17120      2.28010     24.32290
   1603.85720      8.21270     87.87200      0.94970      0.14880      2.26930     19.02190
   1604.00960      8.21380     87.24800      0.83820      0.13990      2.28100     16.25930
   1604.16200      8.21680     87.03200      0.82250      0.15690      2.27640     21.84460
   1604.31440      8.22150     86.36000      0.79190      0.18020      2.27370     23.47030
   1604.46680      8.24030     83.76740      0.77180      0.19230      2.26980     24.65990
   1604.61920      8.26680     84.58400      0.77180      0.19580      2.26590     18.81180
   1604.77160      8.26560     85.20000      0.74750      0.19590      2.25350     16.59720
   1604.92400      8.27340     85.45600      0.71630      0.19730      2.24780     18.46500
   1605.07640      8.26830     84.39940      0.69940      0.19760      2.25190     22.23320
   1605.22880      8.26520     83.93600      0.68420      0.19830      2.25780     25.16500
   1605.38120      8.27090     83.78370      0.70500      0.20070      2.26200     32.45880
   1605.53360      8.26910     83.40000      0.74440      0.20560      2.27110     45.50210
   1605.68600      8.26980     83.84040      0.72490      0.21160      2.27560     34.24920
   1605.83840      8.27180     84.80000      0.71570      0.21470      2.27470     24.31350
   1605.99080      8.26910     85.54430      0.69640      0.21350      2.26710     22.24180
   1606.14320      8.27060     85.92820      0.67930      0.20550      2.25920     21.61880
   1606.29560      8.25490     85.86400      0.70620      0.20200      2.25860     19.03140
   1606.44800      8.23950     85.00000      0.72440      0.20390      2.25760     18.30220
   1606.60040      8.23240     84.84000      0.66300      0.21090      2.26430     16.98150
   1606.75280      8.23250     84.61770      0.60780      0.21620      2.27250     20.39860
   1606.90520      8.22920     86.87200      0.67520      0.21720      2.29310     27.83010
   1607.05760      8.20200     87.46460      0.70150      0.21520      2.29430     41.96630
   1607.21000      8.19920     88.20000      0.76050      0.20790      2.28480     45.09190
   1607.36240      8.24040     88.20000      0.84690      0.20390      2.26080     43.57300
   1607.51480      8.25190     85.80000      0.76710      0.20710      2.23210     35.60960
   1607.66720      8.24430     85.80000      0.63540      0.21010      2.21810     28.69960
   1607.81960      8.23900     85.60000      0.54150      0.21690      2.22830     27.23480
   1607.97200      8.23050     85.20000      0.52800      0.20840      2.24270     21.88760
   1608.12440      8.23210     86.00000      0.59030      0.21040      2.24690     28.77540
   1608.27680      8.23370     88.60000      0.74320      0.21790      2.23760     43.26730
   1608.42920      8.23170     86.20000      0.80000      0.23850      2.21900     46.95900
   1608.58160      8.23940     84.80000      0.63750      0.25670      2.20810     29.41220
   1608.73400      8.25470     85.20000      0.54770      0.24980      2.22060     20.50340
