~VERSION INFORMATION
VERS.         2.0        : CWLS LOG ASCII STANDARD VERSION 2.0
WRAP.         NO         : ONE LINE PER DEPTH STEP
~WELL INFORMATION
STRT.M     197.66300                                                            :START DEPTH
STOP.M    1425.24500                                                            :STOP DEPTH
STEP.M       0.15240                                                            :STEP
NULL.          -999.25                                                          : NULL VALUE
WELL.          B-3                                                              : WELL NAME
~CURVE INFORMATION
DEPT.m          00 000 00 00                                                     : Depth Index
CALI.in         00 000 00 00                                                     :
GR.gAPI         00 000 00 00                                                     :
LLD.ohmm        00 000 00 00                                                     :
NPHI.m3/m3      00 000 00 00                                                     :
RHOB.g/cm3      00 000 00 00                                                     :
~Ascii Log Data
# ...
    772.82060      8.78470     46.46560      3.14930      0.21720      2.48560
    772.97300      8.77790     46.78070      3.14460      0.22220      2.48010
    773.12540      8.77510     48.49070      3.14980      0.22510      2.47530
    773.27780      8.77150     49.45990      3.16150      0.22320      2.47250
    773.43020      8.76470     49.89860      3.18430      0.21830      2.47320
    773.58260      8.75780     50.53500      3.20050      0.21310      2.47780
    773.73500      8.74920     54.12360      3.21530      0.20880      2.48630
    773.88740      8.75440     55.20370      3.21420      0.20520      2.49740
    774.03980      8.74990     56.79220      3.21400      0.20170      2.50800
    774.19220      8.75830     57.52800      3.23720      0.19890      2.51410
    774.34460      8.76190     56.31880      3.35430      0.19800      2.51400
    774.49700      8.76190     56.25980      3.47770      0.19950      2.50960
    774.64940      8.76880     56.85560      3.60130      0.20240      2.50540
    774.80180      8.76190     53.87400      3.66220      0.20520      2.50480
    774.95420      8.75560     51.13090      3.67120      0.20750      2.50800
    775.10660      8.77150     46.98950      3.71870      0.20980      2.51290
    775.25900      8.77150     43.76550      3.69820      0.21270      2.51690
    775.41140      8.77150     43.60260      3.87450      0.21540      2.51850
    775.56380      8.78740     43.62320      3.82680      0.21660      2.51750
    775.71620      8.78740     43.87030      3.79120      0.21550      2.51560
    775.86860      8.77940     46.31770      3.66390      0.21320      2.51490
    776.02100      8.77940     45.91240      3.67370      0.21120      2.51690
    776.17340      8.78740     45.50160      3.75230      0.20920      2.52140
    776.32580      8.77940     43.83740      3.84990      0.20610      2.52560
    776.47820      8.79220     42.06800      4.00930      0.20220      2.52740
    776.63060      8.80010     40.39810      4.22410      0.19910      2.52680
    776.78300      8.80650     41.53080      4.07580      0.19860      2.52570
    776.93540      8.81920     42.56280      3.99120      0.20070      2.52640
    777.08780      8.83510     44.57510      3.82510      0.20360      2.52930
    777.24020      8.84150     46.07390      3.70780      0.20500      2.53370
    777.39260      8.84150     46.60350      3.62310      0.20410      2.53750
    777.54500      8.84790     45.67940      3.62750      0.20190      2.53820
    777.69740      8.83510     43.98960      3.68410      0.19990      2.53470
    777.84980      8.83510     44.15230      3.64210      0.19900      2.52800
    778.00220      8.83510     46.39220      3.71570      0.19900      2.51970
    778.15460      8.84310     47.99860      3.67390      0.19980      2.51240
    778.30700      8.84310     48.29850      3.61170      0.20070      2.50750
    778.45940      8.85110     47.99310      3.62940      0.20170      2.50490
    778.61180      8.85110     46.09840      3.57250      0.20240      2.50440
    778.76420      8.85110     45.21160      3.56710      0.20220      2.50660
    778.91660      8.85110     44.53780      3.51060      0.20000      2.51140
    779.06900      8.85110     43.10320      3.55610      0.19580      2.51850
    779.22140      8.85110     41.00350      3.55700      0.19090      2.52660
    779.37380      8.83510     41.55790      3.56030      0.18780      2.53330
    779.52620      8.82240     43.03000      3.54810      0.18800      2.53620
    779.67860      8.79850     45.11840      3.52400      0.19020      2.53460
    779.83100      8.77620     45.46930      3.50500      0.19280      2.52970
    779.98340      8.75560     43.81570      3.46760      0.19540      2.52310
    780.13580      8.74760     40.73790      3.47540      0.19800      2.51700
    780.28820      8.74120     39.28720      3.50130      0.20050      2.51310
    780.44060      8.74120     39.58270      3.46330      0.20210      2.51260
    780.59300      8.74440     40.68800      3.44160      0.20240      2.51500
    780.74540      8.74120     42.94870      3.48740      0.20150      2.51880
    780.89780      8.74120     45.13770      3.43120      0.20070      2.52260
    781.05020      8.74120     46.22140      3.42540      0.20300      2.52530
    781.20260      8.74920     45.96060      3.46480      0.20790      2.52610
    781.35500      8.74920     43.98330      3.45060      0.21120      2.52500
    781.50740      8.75710     42.13640      3.44600      0.21050      2.52390
    781.65980      8.75710     41.36440      3.46800      0.20860      2.52320
    781.81220      8.75710     42.02240      3.44710      0.21010      2.52310
    781.96460      8.74120     41.05660      3.42900      0.21420      2.52350
    782.11700      8.73810     40.17840      3.52100      0.21570      2.52210
    782.26940      8.73330     37.68440      3.50910      0.21260      2.52020
    782.42180      8.73330     38.47750      3.53120      0.20710      2.52020
    782.57420      8.73810     41.82380      3.58180      0.20350      2.52100
    782.72660      8.74920     45.76110      3.64390      0.20220      2.51870
    782.87900      8.75710     47.40410      3.64860      0.20240      2.51340
    783.03140      8.75710     47.05280      3.59420      0.20220      2.51070
    783.18380      8.76510     44.13390      3.53590      0.20110      2.51060
    783.33620      8.76030     42.85890      3.46800      0.20070      2.51300
    783.48860      8.75710     44.63260      3.43690      0.20270      2.51670
    783.64100      8.75710     45.31560      3.44040      0.20570      2.52000
    783.79340      8.75710     47.02490      3.47980      0.20720      2.52130
    783.94580      8.74920     47.29590      3.52350      0.20690      2.52030
    784.09820      8.74920     46.20500      3.54690      0.20600      2.51770
    784.25060      8.75710     44.60960      3.52380      0.20610      2.51480
    784.40300      8.75710     43.79280      3.55550      0.20800      2.51230
    784.55540      8.76350     42.96870      3.56750      0.21110      2.51070
    784.70780      8.76350     45.10670      3.60400      0.21450      2.50880
    784.86020      8.76640     47.69270      3.55100      0.21690      2.50580
    785.01260      8.76990     49.78240      3.61170      0.21810      2.50290
    785.16500      8.76990     52.45160      3.52800      0.21960      2.50170
    785.31740      8.77500     53.22910      3.49380      0.22260      2.50250
    785.46980      8.77790     51.83410      3.43930      0.22800      2.50480
    785.62220      8.77930     49.56720      3.38460      0.23480      2.50700
    785.77460      8.79090     47.86060      3.26950      0.23990      2.50680
    785.92700      8.80160     48.09270      3.18560      0.24130      2.50440
    786.07940      8.81030     50.65430      3.06100      0.24020      2.50270
    786.23180      8.81600     52.52580      2.98860      0.23910      2.50440
    786.38420      8.81600     51.82760      3.05320      0.23970      2.50960
    786.53660      8.82880     51.75660      2.99780      0.24110      2.51380
    786.68900      8.83670     51.93130      2.97050      0.24240      2.51080
    786.84140      8.84470     53.65860      2.86330      0.24470      2.49650
    786.99380      8.85110     55.24160      2.75890      0.24840      2.47550
    787.14620      8.86700     56.43740      2.69540      0.25280      2.45560
    787.29860      8.89240     58.21400      2.69710      0.25540      2.44360
    787.45100      8.89240     61.73220      2.69930      0.25560      2.43920
    787.60340      8.88450     62.96360      2.68920      0.25420      2.44070
    787.75580      8.89090     61.96450      2.74040      0.25250      2.44270
    787.90820      8.89090     57.55450      2.73290      0.25130      2.44450
    788.06060      8.86540     53.32420      2.62360      0.25080      2.44740
    788.21300      8.86540     51.34900      2.55550      0.25130      2.45170
