~VERSION INFORMATION
VERS.         2.0        : CWLS LOG ASCII STANDARD VERSION 2.0
WRAP.         NO         : ONE LINE PER DEPTH STEP
~WELL INFORMATION
STRT.M     197.66300                                                            :START DEPTH
STOP.M    1425.24500                                                            :STOP DEPTH
STEP.M       0.15240                                                            :STEP
NULL.          -999.25                                                          : NULL VALUE
WELL.          B-3                                                              : WELL NAME
~CURVE INFORMATION
DEPT.m          00 000 00 00                                                     : Depth Index
CALI.in         00 000 00 00                                                     :
GR.gAPI         00 000 00 00                                                     :
LLD.ohmm        00 000 00 00                                                     :
NPHI.m3/m3      00 000 00 00                                                     :
RHOB.g/cm3      00 000 00 00                                                     :
~Ascii Log Data
# ...
   1130.35100     11.39450    126.74770      1.44870      0.40700      2.14670
   1130.50340     11.15100    126.16480      1.46080      0.39970      2.17440
   1130.65580     11.13510    127.19670      1.49400      0.39140      2.19400
   1130.80820     11.11920    129.62160      1.44130      0.38080      2.20060
   1130.96060     10.95520    130.91030      1.42360      0.36450      2.20000
   1131.11300     10.68780    130.86230      1.38180      0.34370      2.19990
   1131.26540     10.53660    128.13260      1.31500      0.34020      2.19820
   1131.41780     10.63210    123.29410      1.27230      0.36210      2.18940
   1131.57020     10.71170    120.87930      1.23090      0.39630      2.17360
   1131.72260     10.85970    120.38510      1.22820      0.42390      2.15970
   1131.87500     10.92340    121.88650      1.35590      0.43520      2.16340
   1132.02740     10.80400    123.63340      1.52890      0.43630      2.19290
   1132.17980     10.44750    127.72890      1.54980      0.43630      2.24050
   1132.33220     10.05750    129.08260      1.57990      0.43960      2.29040
   1132.48460      9.72330    126.48050      1.63040      0.44450      2.33020
   1132.63700      9.51320    122.27710      1.70310      0.45150      2.35420
   1132.78940      9.44950    118.72140      1.71290      0.45020      2.36660
   1132.94180      9.43680    117.57170      1.70000      0.43320      2.37140
   1133.09420      9.46070    118.60090      1.62670      0.40680      2.37180
   1133.24660      9.48140    121.11940      1.56470      0.38530      2.36890
   1133.39900      9.51640    121.91090      1.48020      0.37820      2.36580
   1133.55140      9.52750    123.76360      1.41040      0.39020      2.36240
   1133.70380      9.53070    126.10000      1.39340      0.41490      2.35970
   1133.85620      9.52750    128.89330      1.39550      0.43740      2.35670
   1134.00860      9.53070    129.56190      1.39650      0.44600      2.35440
   1134.16100      9.52750    127.01950      1.40520      0.44070      2.35360
   1134.31340      9.51640    122.54440      1.42910      0.43140      2.35650
   1134.46580      9.50680    115.26510      1.64280      0.41820      2.36500
   1134.61820      9.51000    105.58230      1.95550      0.38690      2.38040
   1134.77060      9.50680     94.91320      2.27940      0.34350      2.40100
   1134.92300      9.51000     87.74400      2.58830      0.31130      2.42160
   1135.07540      9.52750     86.90860      2.72560      0.30660      2.43110
   1135.22780      9.53710     94.64280      2.24600      0.32270      2.42200
   1135.38020      9.55300    107.85210      1.87190      0.34190      2.39560
   1135.53260      9.59600    119.87000      1.60360      0.36070      2.36280
   1135.68500      9.65170    126.26020      1.55070      0.38390      2.33580
   1135.83740      9.72810    126.82590      1.47910      0.41370      2.32330
   1135.98980      9.83150    125.94070      1.38220      0.43590      2.32010
   1136.14220      9.93970    124.12160      1.26650      0.44170      2.31810
   1136.29460     10.01140    119.54540      1.34110      0.44440      2.31070
   1136.44700      9.95880    112.71060      1.43090      0.45560      2.29050
   1136.59940      9.83310    106.59810      1.41780      0.47460      2.25540
   1136.75180      9.89840    104.63910      1.39050      0.49470      2.20930
   1136.90420     10.08460    109.40640      1.34840      0.50270      2.15770
   1137.05660     10.33920    118.81340      1.20090      0.49470      2.11030
   1137.20900     10.84540    122.91710      0.98180      0.48440      2.07870
   1137.36140     11.27040    122.99940      1.06710      0.47790      2.06590
   1137.51380     11.34830    119.39290      1.12550      0.47230      2.07550
   1137.66620     11.31490    115.89380      1.18800      0.47400      2.10520
   1137.81860     11.27510    111.18080      1.30210      0.48600      2.14440
   1137.97100     11.16370    108.98280      1.37170      0.49680      2.18000
   1138.12340     11.02520    107.25950      1.47200      0.49670      2.20610
   1138.27580     10.95360    106.26690      1.50490      0.48510      2.22230
   1138.42820     11.02680    107.72940      1.48140      0.46810      2.23140
   1138.58060     11.15420    111.34220      1.46820      0.46000      2.23240
   1138.73300     11.30700    115.22920      1.43360      0.46740      2.22200
   1138.88540     11.68100    118.08310      1.31150      0.47840      2.20120
   1139.03780     11.95480    121.36750      1.31380      0.47620      2.17970
   1139.19020     12.16170    120.70610      1.37950      0.46510      2.16860
   1139.34260     12.32240    119.52910      1.43990      0.45310      2.17300
   1139.49500     12.40840    115.66980      1.51910      0.43490      2.18970
   1139.64740     12.19830    108.63390      1.65520      0.41210      2.21200
   1139.79980     11.84490    100.53120      1.83240      0.39330      2.22450
   1139.95220     11.59030     94.45440      1.98900      0.38710      2.21270
   1140.10460     11.23850     90.14520      2.05510      0.39320      2.17070
   1140.25700     11.04430     91.28790      1.91440      0.39280      2.10960
   1140.40940     11.10320     93.02020      1.75420      0.36720      2.05430
   1140.56180     11.34200     95.93290      1.83120      0.33310      2.02790
   1140.71420     11.32610     97.60060      2.18520      0.31760      2.03400
   1140.86660     11.43590     98.66770      2.45580      0.32950      2.06160
   1141.01900     11.36740    100.49650      2.37630      0.35800      2.09420
   1141.17140     11.37220    106.20190      2.03470      0.37990      2.12230
   1141.32380     11.46770    111.78030      1.80230      0.38260      2.15010
   1141.47620     11.51550    117.71440      1.65720      0.37950      2.17670
   1141.62860     11.24170    119.04870      1.69400      0.38360      2.19060
   1141.78100     10.93930    117.00140      1.73500      0.38900      2.17890
   1141.93340     10.60190    113.61170      1.77250      0.37980      2.14210
   1142.08580     10.28350    110.40330      1.97850      0.35420      2.09980
   1142.23820      9.92060    106.83080      2.28970      0.32780      2.08580
   1142.39060      9.72650    103.99520      2.56000      0.31430      2.11540
   1142.54300      9.71530    100.42390      2.50040      0.32140      2.16730
   1142.69540      9.92860    101.17620      2.09940      0.34660      2.20260
   1142.84780     10.36790    101.35850      1.82590      0.37620      2.19600
   1143.00020     11.01730    103.93200      1.73090      0.39290      2.15580
   1143.15260     11.71440    103.04270      1.73920      0.39520      2.11440
   1143.30500     12.00410    101.56580      2.01980      0.39230      2.10280
   1143.45740     12.08370     98.24000      2.32590      0.40070      2.12200
   1143.60980     12.06620    101.41670      2.36910      0.41990      2.14970
   1143.76220     12.04710    102.98400      2.25900      0.43970      2.16180
   1143.91460     12.08210    108.01530      1.98970      0.44610      2.15010
   1144.06700     12.30810    110.32040      2.03840      0.43630      2.12310
   1144.21940     12.30010    112.53620      2.11010      0.41860      2.09750
   1144.37180     12.28420    111.92610      2.03240      0.40670      2.08260
   1144.52420     12.18870    114.23100      2.00620      0.41110      2.07510
   1144.67660     12.11710    113.13640      1.84840      0.42900      2.07050
   1144.82900     12.14260    115.18650      1.79780      0.44310      2.06740
   1144.98140     11.99140    115.31860      1.72300      0.42740      2.07240
   1145.13380     11.84650    113.35020      1.90480      0.38800      2.08910
   1145.28620     11.80200    110.05090      2.22960      0.35170      2.11020
   1145.43860     11.80040    105.05890      2.31700      0.34430      2.12090
   1145.59100     11.84330     98.05300      2.29700      0.36950      2.11610
   1145.74340     12.02800     96.83700      2.08790      0.40200      2.10120
