~VERSION INFORMATION
VERS.         2.0        : CWLS LOG ASCII STANDARD VERSION 2.0
WRAP.         NO         : ONE LINE PER DEPTH STEP
~WELL INFORMATION
STRT.M     197.66300                                                            :START DEPTH
STOP.M    1425.24500                                                            :STOP DEPTH
STEP.M       0.15240                                                            :STEP
NULL.          -999.25                                                          : NULL VALUE
WELL.          B-3                                                              : WELL NAME
~CURVE INFORMATION
DEPT.m          00 000 00 00                                                     : Depth Index
CALI.in         00 000 00 00                                                     :
GR.gAPI         00 000 00 00                                                     :
LLD.ohmm        00 000 00 00                                                     :
NPHI.m3/m3      00 000 00 00                                                     :
RHOB.g/cm3      00 000 00 00                                                     :
~Ascii Log Data
# ...
    912.72380      8.88310     82.05260      2.27930      0.35100      2.14100
    912.87620      9.15270     92.47780      2.09450      0.38840      2.10770
    913.02860      9.36920    103.46070      1.67790      0.36910      2.08000
    913.18100      9.55080    110.74950      1.38450      0.36720      2.05490
    913.33340      9.76010    113.29740      1.39720      0.38940      2.02890
    913.48580      9.71750    111.96080      1.39860      0.42330      2.00450
    913.63820      9.55250    113.20000      1.43410      0.45230      1.98930
    913.79060      9.44210    115.31750      1.40760      0.46410      1.98830
    913.94300      9.35850    115.46510      1.37720      0.46240      2.00070
    914.09540      9.17730    112.94930      1.34130      0.44680      2.01950
    914.24780      9.10620    108.62250      1.31060      0.42160      2.03520
    914.40020      9.22160    103.57180      1.29170      0.39840      2.04220
    914.55260      9.36360    103.20690      1.35570      0.38300      2.04150
    914.70500      9.47100    102.55650      1.32950      0.38240      2.03570
    914.85740      9.60780    102.27900      1.36810      0.38430      2.02400
    915.00980      9.76590    105.06740      1.35400      0.38710      2.00350
    915.16220      9.77730    107.89630      1.27200      0.39010      1.97460
    915.31460      9.77110    108.84650      1.32670      0.39570      1.94550
    915.46700      9.74240    109.66180      1.36980      0.40390      1.92920
    915.61940      9.60430    106.41070      1.33860      0.41130      1.93570
    915.77180      9.42800    100.95390      1.46320      0.41730      1.96480
    915.92420      9.37700     99.09450      1.46240      0.42250      2.00600
    916.07660      9.55930     98.92760      1.50330      0.42800      2.04280
    916.22900      9.83670     97.99860      1.45760      0.43300      2.06310
    916.38140     10.10720     96.07200      1.52010      0.43620      2.06360
    916.53380     10.32070     95.65260      1.46050      0.42570      2.05260
    916.68620     10.28630     98.58280      1.42860      0.40200      2.04600
    916.83860     10.03380    103.61770      1.35640      0.37500      2.05450
    916.99100      9.77850    107.07220      1.34150      0.35310      2.07830
    917.14340      9.64740    107.33540      1.37130      0.33730      2.10170
    917.29580      9.58630    102.25360      1.39070      0.33100      2.10590
    917.44820      9.63980     97.33610      1.49450      0.33540      2.08290
    917.60060      9.70210     94.94740      1.67270      0.35150      2.04400
    917.75300      9.80390     94.96160      1.71040      0.37310      2.01090
    917.90540     10.01110     93.68530      1.73290      0.38910      2.00540
    918.05780     10.16140     95.96770      1.69400      0.39770      2.03310
    918.21020     10.22000    101.50140      1.55550      0.40310      2.08180
    918.36260     10.12590    107.36780      1.50820      0.40760      2.13000
    918.51500      9.94100    113.43730      1.48140      0.41520      2.16540
    918.66740      9.61740    115.27580      1.41110      0.42590      2.18320
    918.81980      9.33430    110.50470      1.28260      0.43600      2.18860
    918.97220      9.20110    105.56760      1.38780      0.43940      2.18920
    919.12460      9.25780    103.84830      1.37640      0.44290      2.18960
    919.27700      9.32130    104.17410      1.38020      0.44770      2.19100
    919.42940      9.41740    106.80910      1.36790      0.44910      2.19210
    919.58180      9.56790    108.45700      1.35060      0.44510      2.19270
    919.73420      9.67420    109.32650      1.32040      0.43680      2.19210
    919.88660      9.71020    113.96480      1.28780      0.42850      2.18820
    920.03900      9.71410    118.51040      1.28620      0.42560      2.17660
    920.19140      9.65140    120.41980      1.31930      0.42050      2.15380
    920.34380      9.61470    115.62330      1.32100      0.40590      2.12010
    920.49620      9.74470    109.96430      1.36480      0.39130      2.08110
    920.64860      9.91900    102.51180      1.43370      0.38820      2.04490
    920.80100     10.18490     97.97200      1.50960      0.40200      2.01570
    920.95340     10.63350     95.10400      1.53610      0.43250      1.99380
    921.10580     11.17400     92.85710      1.57060      0.46640      1.97740
    921.25820     11.66260     91.30120      1.59380      0.48690      1.96790
    921.41060     12.09080     92.64150      1.53150      0.48290      1.96940
    921.56300     12.28380     96.27490      1.46340      0.45800      1.98760
    921.71540     12.18760     98.84370      1.40300      0.42580      2.02210
    921.86780     11.91490    104.24450      1.33090      0.39780      2.06360
    922.02020     11.66300    106.28730      1.34390      0.38160      2.09920
    922.17260     11.45600    107.52740      1.44110      0.37400      2.12270
    922.32500     11.29700    105.78720      1.39430      0.36310      2.13650
    922.47740     11.06660    104.22350      1.41380      0.35090      2.14810
    922.62980     10.73500    101.09580      1.46380      0.33940      2.16290
    922.78220     10.30460    103.13840      1.44850      0.32930      2.17920
    922.93460      9.87890    102.13480      1.37840      0.32060      2.19280
    923.08700      9.62280    100.83510      1.41830      0.31370      2.20440
    923.23940      9.57980     97.25610      1.44530      0.30960      2.21620
    923.39180      9.63240     92.59830      1.58750      0.30960      2.22950
    923.54420      9.70310     86.01490      1.92700      0.32140      2.24380
    923.69660      9.89270     81.47710      2.21020      0.33870      2.25680
    923.84900     10.19560     77.25500      2.32230      0.37140      2.26680
    924.00140     10.55620     75.39270      2.34040      0.40460      2.27400
    924.15380     10.90710     73.54230      2.31050      0.42070      2.27860
    924.30620     11.17610     75.29410      2.29710      0.42680      2.27810
    924.45860     11.38320     77.78260      2.21870      0.42790      2.27030
    924.61100     11.57220     80.57560      2.10530      0.42390      2.25540
    924.76340     11.71900     84.03330      1.94890      0.41920      2.23650
    924.91580     11.85090     87.74890      1.76200      0.42060      2.21860
    925.06820     11.96860     89.46400      1.61220      0.43030      2.20490
    925.22060     11.88770     94.26380      1.55000      0.44610      2.19550
    925.37300     11.60160     98.95470      1.50130      0.46190      2.18780
    925.52540     11.36610    101.19330      1.39370      0.46810      2.17930
    925.67780     11.20030    100.27570      1.32230      0.46050      2.16940
    925.83020     11.01980     97.34590      1.34010      0.44360      2.15880
    925.98260     10.93870     94.46960      1.37850      0.42240      2.14660
    926.13500     10.95950     93.71390      1.34140      0.40190      2.13370
    926.28740     10.91770     97.37330      1.27290      0.38360      2.11990
    926.43980     10.75540    101.60910      1.26700      0.37010      2.10470
    926.59220     10.51000    103.03900      1.29060      0.36420      2.09120
    926.74460     10.26650    100.23460      1.29300      0.36500      2.08360
    926.89700     10.07470     98.44610      1.30000      0.37030      2.08600
    927.04940      9.86300     96.76060      1.23900      0.37980      2.10020
    927.20180      9.72330     98.45220      1.24940      0.39090      2.12040
    927.35420      9.77290    101.20400      1.24000      0.39720      2.13520
    927.50660      9.84070    105.26850      1.11870      0.39400      2.13550
    927.65900      9.81670    107.79430      1.15410      0.38230      2.12010
    927.81140      9.78850    108.15350      1.22370      0.36980      2.09700
    927.96380      9.80560    104.82930      1.39560      0.36460      2.07360
    928.11620      9.87850     99.34770      1.61840      0.37010      2.05000
