~VERSION INFORMATION
VERS.         2.0        : CWLS LOG ASCII STANDARD VERSION 2.0
WRAP.         NO         : ONE LINE PER DEPTH STEP
~WELL INFORMATION
STRT.M     197.66300                                                            :START DEPTH
STOP.M    1425.24500                                                            :STOP DEPTH
STEP.M       0.15240                                                            :STEP
NULL.          -999.25                                                          : NULL VALUE
WELL.          B-3                                                              : WELL NAME
~CURVE INFORMATION
DEPT.m          00 000 00 00                                                     : Depth Index
CALI.in         00 000 00 00                                                     :
GR.gAPI         00 000 00 00                                                     :
LLD.ohmm        00 000 00 00                                                     :
NPHI.m3/m3      00 000 00 00                                                     :
RHOB.g/cm3      00 000 00 00                                                     :
~Ascii Log Data
# ...
   1332.43340      8.23650     96.44790      5.44770      0.18230      2.41720
   1332.58580      8.24320     89.34620      8.90740      0.19530      2.45440
   1332.73820      8.24280     84.87730     14.78600      0.21280      2.47860
   1332.89060      8.24090     88.52230     13.11240      0.23180      2.47580
   1333.04300      8.23860    102.36580      7.06960      0.25090      2.44660
   1333.19540      8.24360    121.54840      4.73120      0.26720      2.40670
   1333.34780      8.24000    137.76190      3.66970      0.27160      2.37730
   1333.50020      8.23760    148.96610      3.60020      0.27020      2.37100
   1333.65260      8.24220    152.93770      4.41800      0.26770      2.38640
   1333.80500      8.24880    151.24410      5.50210      0.26470      2.41070
   1333.95740      8.24680    147.67140      6.71450      0.26100      2.42970
   1334.10980      8.25060    145.65560      7.95770      0.25780      2.43750
   1334.26220      8.25590    141.95170      8.56450      0.25750      2.43590
   1334.41460      8.24470    139.73750      7.35790      0.26160      2.43090
   1334.56700      8.24500    138.38590      6.61090      0.26830      2.42890
   1334.71940      8.25130    136.79370      6.67800      0.27240      2.43180
   1334.87180      8.25900    137.22830      6.75290      0.27280      2.43790
   1335.02420      8.26210    138.38000      7.15430      0.27230      2.44350
   1335.17660      8.28610    138.05370      7.52830      0.27320      2.44360
   1335.32900      8.29630    138.03080      6.97360      0.27500      2.43650
   1335.48140      8.29440    140.89820      6.53500      0.27750      2.42580
   1335.63380      8.29540    142.83710      6.58220      0.28080      2.41640
   1335.78620      8.29950    144.85420      6.63050      0.28450      2.41170
   1335.93860      8.29540    144.42350      6.62890      0.28610      2.41250
   1336.09100      8.29280    143.05970      6.56010      0.28340      2.41560
   1336.24340      8.29930    142.83170      6.59050      0.27610      2.41930
   1336.39580      8.29530    142.41680      6.73540      0.26680      2.42260
   1336.54820      8.28920    140.91110      6.79890      0.26070      2.42420
   1336.70060      8.28160    139.54020      6.82620      0.26070      2.42350
   1336.85300      8.27520    140.02160      6.83410      0.26560      2.42110
   1337.00540      8.26780    141.13500      6.95200      0.27090      2.41830
   1337.15780      8.26550    143.46700      6.74320      0.27310      2.41730
   1337.31020      8.26940    141.80500      6.61960      0.27210      2.41910
   1337.46260      8.27020    141.22160      6.63380      0.27180      2.42170
   1337.61500      8.27070    139.31280      6.79760      0.27670      2.42480
   1337.76740      8.27470    139.72550      6.96970      0.28380      2.42830
   1337.91980      8.28150    137.57070      7.19480      0.28800      2.43370
   1338.07220      8.29440    137.23620      7.43030      0.28930      2.44150
   1338.22460      8.31790    137.01980      7.42260      0.29350      2.44880
   1338.37700      8.36240    140.23750      6.92650      0.30240      2.45020
   1338.52940      8.41340    142.27430      5.93440      0.30770      2.43920
   1338.68180      8.46390    143.91540      5.06830      0.30490      2.39640
   1338.83420      8.51130    142.42120      4.60880      0.29760      2.30770
   1338.98660      8.54880    142.74280      4.32520      0.29390      2.17620
   1339.13900      8.57500    144.49860      4.19940      0.29920      2.02320
   1339.29140      8.60170    146.45110      4.40960      0.31200      1.87740
   1339.44380      8.63010    147.44640      4.94920      0.33750      1.76090
   1339.59620      8.64990    148.55280      5.60710      0.34190      1.67190
   1339.74860      8.66770    149.24490      6.33710      0.34230      1.59600
   1339.90100      8.76040    148.22990      7.34980      0.40340      1.52260
   1340.05340      8.99110    148.48390      6.49250      0.53530      1.45000
   1340.20580      9.71690    143.67620      4.99510      0.61640      1.38150
   1340.35820     10.95840    134.43680      3.57720      0.68230      1.32320
   1340.51060     12.50550    122.00940      2.61450      0.71860      1.27850
   1340.66300     14.23080    108.77420      2.08910      0.72640      1.24760
   1340.81540     15.99750     97.05970      1.79910      0.72130      1.22840
   1340.96780     17.27080     90.93720      1.64750      0.71400      1.21830
   1341.12020     18.04270     85.26970      1.74670      0.70580      1.21560
   1341.27260     18.50110     80.50030      1.95400      0.69530      1.22180
   1341.42500     18.69850     81.24470      2.23330      0.67930      1.24020
   1341.57740     18.70650     84.52080      2.43770      0.65320      1.27180
   1341.72980     18.70010     90.06600      2.58080      0.60200      1.31090
   1341.88220     18.67620     93.40800      2.57810      0.54400      1.34610
   1342.03460     18.62530     93.41400      2.59420      0.48840      1.36950
   1342.18700     18.24330     92.08330      2.51840      0.44170      1.38840
   1342.33940     17.47130     93.75380      2.33220      0.40620      1.42580
   1342.49180     16.10890     98.17490      2.32060      0.37150      1.51200
   1342.64420     14.20690    105.36700      2.82400      0.33220      1.66440
   1342.79660     12.21260    114.90950      3.76730      0.30310      1.87050
   1342.94900     10.55090    126.73010      5.64920      0.29310      2.08640
   1343.10140      9.26970    134.72840      9.97780      0.29810      2.26970
   1343.25380      8.59480    138.44850     11.54150      0.30460      2.39300
   1343.40620      8.45160    136.43050     10.79160      0.30080      2.45540
   1343.55860      8.44040    136.31390     10.59090      0.28780      2.47450
   1343.71100      8.42490    134.67400      9.71030      0.27340      2.47120
   1343.86340      8.40930    138.19350      7.65870      0.26030      2.45480
   1344.01580      8.39370    140.11930      6.95670      0.25550      2.43210
   1344.16820      8.38260    144.14260      6.60770      0.26080      2.40870
   1344.32060      8.37980    144.56590      6.43320      0.27290      2.38870
   1344.47300      8.38740    145.38150      6.52750      0.28320      2.37660
   1344.62540      8.40120    137.57590      7.03010      0.28530      2.37690
   1344.77780      8.41050    130.60870      7.57740      0.28090      2.39080
   1344.93020      8.42610    125.41860      8.09300      0.27770      2.41300
   1345.08260      8.43570    123.62800      8.48710      0.27630      2.43490
   1345.23500      8.43850    124.20610      8.43110      0.27720      2.44950
   1345.38740      8.42930    130.24750      7.89380      0.28170      2.45360
   1345.53980      8.42890    134.60890      6.78600      0.28830      2.44760
   1345.69220      8.42290    139.40000      6.22670      0.29020      2.43610
   1345.84460      8.42290    142.69530      6.16350      0.28120      2.42390
   1345.99700      8.42290    143.01660      5.89150      0.26890      2.41460
   1346.14940      8.42410    141.00310      5.25640      0.26080      2.41090
   1346.30180      8.43320    142.51170      5.22470      0.25480      2.41160
   1346.45420      8.43770    141.96680      5.32830      0.25280      2.41420
   1346.60660      8.43990    140.69230      5.22660      0.25740      2.41790
   1346.75900      8.43780    139.03270      5.53100      0.26790      2.42220
   1346.91140      8.43840    138.22810      6.68070      0.27850      2.42780
   1347.06380      8.42980    137.44870      6.80520      0.28100      2.43610
   1347.21620      8.42720    139.91120      7.29120      0.27640      2.44680
   1347.36860      8.43170    141.65880      8.17650      0.27000      2.45780
   1347.52100      8.43320    141.72200      7.96090      0.26630      2.46650
   1347.67340      8.43180    142.17270      7.37350      0.26690      2.47020
   1347.82580      8.43550    141.97880      7.09370      0.26860      2.46850
