~VERSION INFORMATION
VERS.         2.0        : CWLS LOG ASCII STANDARD VERSION 2.0
WRAP.         NO         : ONE LINE PER DEPTH STEP
~WELL INFORMATION
STRT.M     197.66300                                                            :START DEPTH
STOP.M    1425.24500                                                            :STOP DEPTH
STEP.M       0.15240                                                            :STEP
NULL.          -999.25                                                          : NULL VALUE
WELL.          B-3                                                              : WELL NAME
~CURVE INFORMATION
DEPT.m          00 000 00 00                                                     : Depth Index
CALI.in         00 000 00 00                                                     :
GR.gAPI         00 000 00 00                                                     :
LLD.ohmm        00 000 00 00                                                     :
NPHI.m3/m3      00 000 00 00                                                     :
RHOB.g/cm3      00 000 00 00                                                     :
~Ascii Log Data
# ...
   1410.15740      8.41020    200.00230      3.30690      0.39960      2.45650
   1410.30980      8.38630    195.05060      2.99670      0.38820      2.49550
   1410.46220      8.38630    175.73610      3.02470      0.36510      2.54520
   1410.61460      8.38630    152.73380      3.37240      0.33770      2.59310
   1410.76700      8.40540    138.92990      3.60350      0.31920      2.62180
   1410.91940      8.41500    141.20400      3.52090      0.31610      2.61740
   1411.07180      8.42290    156.52540      3.42290      0.32710      2.58260
   1411.22420      8.40380    181.41790      2.87330      0.34540      2.53170
   1411.37660      8.39590    203.77280      2.63930      0.36840      2.48280
   1411.52900      8.39590    218.08330      2.75410      0.38750      2.44630
   1411.68140      8.40380    224.06390      2.91290      0.39640      2.42070
   1411.83380      8.41970    220.98100      3.08420      0.39480      2.40140
   1411.98620      8.44520    214.25080      3.18210      0.38550      2.38830
   1412.13860      8.46110    216.18920      2.88520      0.36910      2.38160
   1412.29100      8.48660    223.94130      2.67470      0.35070      2.37620
   1412.44340      8.59000    228.65560      2.24990      0.33030      2.36370
   1412.59580      8.63780    223.66190      2.11740      0.30430      2.33770
   1412.74820      8.66960    206.22200      2.11720      0.28190      2.30460
   1412.90060      8.66960    181.49260      2.50640      0.27560      2.28300
   1413.05300      8.66330    159.71360      3.60420      0.28880      2.29150
   1413.20540      8.59160    139.67260      4.43190      0.33090      2.33530
   1413.35780      8.62660    123.89890      4.82510      0.39820      2.40270
   1413.51020      8.67280    115.13160      4.58820      0.46010      2.47130
   1413.66260      8.76040    119.06440      3.59750      0.49090      2.51630
   1413.81500      8.94500    133.23440      2.51520      0.49360      2.51800
   1413.96740      9.27130    149.72870      1.97860      0.48020      2.46750
   1414.11980      9.46230    161.71110      1.81410      0.45630      2.37630
   1414.27220      9.60550    163.13120      1.76170      0.42810      2.27300
   1414.42460      9.80450    161.46140      1.82930      0.39890      2.19250
   1414.57700      9.92540    163.46370      1.93200      0.36770      2.15500
   1414.72940      9.77420    172.04060      1.95930      0.33540      2.16160
   1414.88180      9.48770    177.99760      2.02730      0.30810      2.19350
   1415.03420      9.21710    184.32300      2.19990      0.29390      2.23230
   1415.18660      8.86700    179.52970      2.31830      0.29520      2.27040
   1415.33900      8.47230    166.95140      2.32670      0.30450      2.30810
   1415.49140      8.18580    149.19620      2.16490      0.30900      2.34170
   1415.64380      8.10940    130.29540      1.88020      0.30330      2.36860
   1415.79620      8.08550    110.85270      1.63810      0.29490      2.38310
   1415.94860      8.06960     99.84210      1.37790      0.28990      2.38240
   1416.10100      8.06960     94.66020      1.37210      0.29020      2.37010
   1416.25340      8.07750     91.42680      1.44870      0.29210      2.35490
   1416.40580      8.10300     91.65780      1.53710      0.29160      2.34380
   1416.55820      8.13480     92.02370      1.70280      0.28930      2.34420
   1416.71060      8.19850     97.52450      1.98710      0.28990      2.35680
   1416.86300      8.25580    105.90550      2.39220      0.29790      2.37690
   1417.01540      8.30350    116.34450      2.87570      0.31140      2.39810
   1417.16780      8.31630    126.84660      3.23790      0.32380      2.41790
   1417.32020      8.30830    138.07990      3.23500      0.33060      2.43480
   1417.47260      8.28760    164.87530      3.04130      0.33540      2.44800
   1417.62500      8.28920    167.55040      2.97810      0.34000      2.45470
   1417.77740      8.28920    142.17500      3.06210      0.34730      2.45330
   1417.92980      8.31470     90.57090      3.30280      0.34980      2.44630
   1418.08220      8.35450     39.50710      3.71870      0.34420      2.43990
   1418.23460      8.38310      0.00000      3.97620      0.33700      2.43950
   1418.38700      8.36880      0.00000      3.97730      0.33670      2.44790
   1418.53940      8.35290      0.00000      3.96760      0.34870      2.46530
   1418.69180      8.32740      0.00000      3.96180      0.36980      2.48600
   1418.84420      8.32740      0.00000      4.11740      0.39390      2.50270
   1418.99660      8.33540      0.00000      4.26730      0.41090      2.50800
   1419.14900      8.36090      0.00000      4.30110      0.42010      2.49810
   1419.30140      8.40860      0.00000      4.26890      0.38930      2.47520
   1419.45380      8.44680      0.00000      4.00800      0.34030      2.44880
   1419.60620      8.45480      0.00000      3.78210      0.31810      2.42680
   1419.75860      8.44680      0.00000      3.38780      0.35730      2.41330
   1419.91100      8.45320      0.00000      3.12550      0.47840      2.40780
   1420.06340      8.44520      0.00000      2.96340      1.02300      2.40730
   1420.21580      8.44520      0.00000      2.88470      1.02300      2.40830
   1420.36820      8.44520      0.00000      2.70350      1.02260      2.41150
   1420.52060      8.44520      0.00000      2.63580     -0.03420      2.42230
   1420.67300      8.43880      0.00000      2.50010     -0.03470      2.44850
   1420.82540      8.42290      0.00000      2.71640     -0.03490      2.49460
   1420.97780      8.42770      0.00000      2.93740     -0.03520      2.55490
   1421.13020      8.42290      0.00000      3.47770     -0.03540      2.60580
   1421.28260      8.43090      0.00000     70.49280     -0.03550      2.62070
   1421.43500      8.43090      0.00000     70.49280     -0.03570      2.58760
   1421.58740      8.43880      0.00000     70.49280     -0.03610      2.51950
   1421.73980      8.43880      0.00000     70.49280     -0.03650      2.44170
   1421.89220      8.43880      0.00000     70.49280     -0.03710      2.37910
   1422.04460      8.43090      0.00000     70.49280     -0.03730      2.33860
   1422.19700      8.42450      0.00000     70.49280     -0.03740      2.31490
   1422.34940      8.42450      0.00000     70.49280     -0.03740      2.29930
   1422.50180      8.42450      0.00000     70.49280     -0.03530      2.29110
   1422.65420      8.41070      0.00000     70.49280     -0.02970      2.28610
   1422.80660      8.40120      0.00000     70.49280     -0.02400      2.27240
   1422.95900      8.40970      0.00000     70.49280     -0.02010      2.23640
   1423.11140      8.40970      0.00000     70.49280     -0.01410      2.17810
   1423.26380      8.39850      0.00000     70.49280     -0.00900      2.11660
   1423.41620      8.40680      0.00000     70.49280     -0.00900      2.08240
   1423.56860      8.41870      0.00000     70.49280   -999.25000      2.09760
   1423.72100      8.40810      0.00000     70.49280   -999.25000      2.16120
   1423.87340      8.40580      0.00000     70.49280   -999.25000      2.24920
   1424.02580      8.40900      0.00000     70.49280   -999.25000      2.28460
   1424.17820      8.40950      0.00000     70.49280   -999.25000      1.99570
   1424.33060      8.40610      0.00000     70.49280   -999.25000      1.44380
   1424.48300      8.40730      0.00000     70.49280   -999.25000      0.78440
   1424.63540      8.39780      0.00000     70.49280   -999.25000      0.26150
   1424.78780      8.38120      0.00000     70.49280   -999.25000   -999.25000
   1424.94020      8.34270      0.00000     70.49280   -999.25000   -999.25000
   1425.09260      8.27110   -999.25000     70.49280   -999.25000   -999.25000
   1425.24500   -999.25000   -999.25000     70.49280   -999.25000   -999.25000
