~VERSION INFORMATION
VERS.         2.0        : CWLS LOG ASCII STANDARD VERSION 2.0
WRAP.         NO         : ONE LINE PER DEPTH STEP
~WELL INFORMATION
STRT.M     197.66300                                                            :START DEPTH
STOP.M    1425.24500                                                            :STOP DEPTH
STEP.M       0.15240                                                            :STEP
NULL.          -999.25                                                          : NULL VALUE
WELL.          B-3                                                              : WELL NAME
~CURVE INFORMATION
DEPT.m          00 000 00 00                                                     : Depth Index
CALI.in         00 000 00 00                                                     :
GR.gAPI         00 000 00 00                                                     :
LLD.ohmm        00 000 00 00                                                     :
NPHI.m3/m3      00 000 00 00                                                     :
RHOB.g/cm3      00 000 00 00                                                     :
~Ascii Log Data
# ...
    990.44780     10.72120    105.75300      1.52110      0.31180      2.10930
    990.60020     10.71330    102.86920      1.71350      0.29250      2.12010
    990.75260     10.68780    100.79840      1.88490      0.27720      2.13770
    990.90500     10.72760     97.06940      2.06020      0.27110      2.15320
    991.05740     10.67670     93.99980      2.36700      0.27210      2.15100
    991.20980     10.42040     91.46550      2.67550      0.29910      2.12380
    991.36220     10.19440     92.83550      2.21030      0.33550      2.08520
    991.51460     10.01140     97.11980      1.94610      0.34140      2.05720
    991.66700      9.78100     99.41940      1.82690      0.31790      2.05530
    991.81940      9.64330    100.00430      1.66120      0.28940      2.07470
    991.97180      9.71740     98.66040      1.64200      0.27430      2.10090
    992.12420      9.85710     98.14150      1.80660      0.27390      2.12150
    992.27660      9.95820     94.47920      1.92690      0.28020      2.13530
    992.42900     10.16510     94.00800      2.16870      0.28950      2.14640
    992.58140     10.39080     94.27460      2.27500      0.29650      2.15170
    992.73380     10.51380     95.37920      2.20540      0.30070      2.13700
    992.88620     10.40120     97.32950      2.09710      0.30820      2.09370
    993.03860     10.40750     97.44140      2.13020      0.32430      2.03030
    993.19100     10.49870     98.18250      2.07440      0.34510      1.96670
    993.34340     10.59770     98.60280      2.06810      0.35840      1.92600
    993.49580     10.69370    101.35180      1.96800      0.36210      1.91560
    993.64820     10.99620    102.95660      1.79310      0.36040      1.92740
    993.80060     11.15600    104.51640      1.60080      0.35910      1.94660
    993.95300     11.27520    106.04460      1.49130      0.36040      1.96300
    994.10540     11.45220    108.43930      1.46230      0.36270      1.97060
    994.25780     11.70270    110.56440      1.43880      0.36600      1.97100
    994.41020     11.83700    111.86640      1.40840      0.37280      1.96710
    994.56260     11.97170    111.85030      1.37100      0.38380      1.96460
    994.71500     11.94210    110.13300      1.35770      0.40130      1.96570
    994.86740     11.79960    111.66000      1.34910      0.42670      1.97450
    995.01980     11.68270    111.59930      1.33500      0.45150      1.99280
    995.17220     11.56620    113.49720      1.33450      0.46010      2.01960
    995.32460     11.39520    114.37590      1.41990      0.45190      2.04880
    995.47700     11.20630    116.97270      1.52560      0.43600      2.07420
    995.62940     10.98780    120.25700      1.41610      0.41760      2.09020
    995.78180     10.81420    125.47260      1.30960      0.40050      2.09980
    995.93420     10.78950    129.17700      1.15550      0.38810      2.10900
    996.08660     10.84050    132.53970      1.03930      0.38700      2.12040
    996.23900     10.91720    133.44830      1.08380      0.38610      2.13110
    996.39140     11.02460    134.47740      1.17400      0.38340      2.13710
    996.54380     11.02440    134.51860      1.20030      0.38100      2.13420
    996.69620     10.92230    130.43090      1.25890      0.38200      2.12020
    996.84860     10.74910    124.03140      1.35560      0.39120      2.09530
    997.00100     10.57410    117.56870      1.41510      0.40660      2.06450
    997.15340     10.53970    113.93500      1.44460      0.42270      2.03450
    997.30580     10.66930    113.71600      1.34940      0.43350      2.01790
    997.45820     10.92300    116.17820      1.29180      0.43490      2.02210
    997.61060     11.18280    116.19340      1.22100      0.42570      2.04350
    997.76300     11.43790    113.90580      1.25660      0.40980      2.06880
    997.91540     11.68270    110.93370      1.15360      0.39560      2.08680
    998.06780     11.83850    108.76810      1.14010      0.39780      2.08880
    998.22020     11.80600    110.10370      1.12840      0.41340      2.07780
    998.37260     11.83240    113.70540      1.13980      0.43200      2.06000
    998.52500     12.02190    118.01150      1.14950      0.44130      2.04150
    998.67740     12.20690    120.28400      1.13080      0.44510      2.02480
    998.82980     12.29670    118.27880      1.12920      0.44690      2.01450
    998.98220     12.40380    114.50160      1.11850      0.43440      2.01240
    999.13460     12.59740    110.27830      1.14040      0.40910      2.01970
    999.28700     12.62580    109.74110      1.18770      0.39400      2.03590
    999.43940     12.40370    111.05780      1.20910      0.39570      2.05900
    999.59180     12.12940    113.64970      1.23450      0.40130      2.08640
    999.74420     11.83850    115.60110      1.23980      0.40860      2.11610
    999.89660     11.47640    117.94180      1.22150      0.42120      2.14520
   1000.04900     11.11860    119.40380      1.23870      0.43180      2.17060
   1000.20140     10.81960    123.50210      1.22860      0.42760      2.19210
   1000.35380     10.62940    126.88950      1.28890      0.40780      2.21050
   1000.50620     10.58970    126.71750      1.27670      0.38880      2.22590
   1000.65860     10.60840    123.49350      1.27350      0.38600      2.23550
   1000.81100     10.66690    120.41790      1.28190      0.39190      2.23730
   1000.96340     10.78430    120.48220      1.33720      0.38610      2.23270
   1001.11580     10.83780    121.91380      1.34820      0.37410      2.22650
   1001.26820     10.68830    122.70750      1.38210      0.36300      2.22250
   1001.42060     10.50210    123.35900      1.34650      0.35400      2.22010
   1001.57300     10.41880    122.68720      1.32270      0.34620      2.21550
   1001.72540     10.35220    123.08640      1.42980      0.33480      2.20710
   1001.87780     10.32870    121.94300      1.53240      0.32580      2.19560
   1002.03020     10.39040    114.01630      1.63660      0.32930      2.17590
   1002.18260     10.37580    104.27660      1.77720      0.34440      2.14420
   1002.33500     10.30030     97.19850      1.89960      0.36310      2.10080
   1002.48740     10.27100     95.48950      1.97800      0.38550      2.05310
   1002.63980     10.28150     97.50660      2.03280      0.40870      2.01220
   1002.79220     10.39180     99.47780      2.02790      0.42660      1.98520
   1002.94460     10.70360     99.25810      1.92170      0.43800      1.96590
   1003.09700     11.00060     99.38300      1.79330      0.44100      1.95070
   1003.24940     11.28950    103.43190      1.60180      0.43680      1.94020
   1003.40180     11.63250    110.35340      1.36950      0.42950      1.93570
   1003.55420     11.98120    117.83890      1.17420      0.42170      1.93300
   1003.70660     12.04390    120.77370      1.08810      0.41480      1.92420
   1003.85900     11.99120    118.92460      1.07440      0.40940      1.90250
   1004.01140     11.91740    114.35970      1.09800      0.41010      1.87390
   1004.16380     11.79550    113.97470      1.22230      0.41860      1.85120
   1004.31620     11.49570    113.64950      1.36240      0.42910      1.84850
   1004.46860     11.30730    113.84100      1.39680      0.43370      1.87120
   1004.62100     11.28960    111.34030      1.37640      0.42730      1.91650
   1004.77340     11.20660    105.06280      1.36730      0.41240      1.97080
   1004.92580     10.91980     99.19170      1.31670      0.39710      2.01570
   1005.07820     10.68820    101.28000      1.25200      0.39010      2.03370
   1005.23060     10.55540    107.35010      1.25300      0.39520      2.01920
   1005.38300     10.44780    114.05410      1.16350      0.40880      1.97830
   1005.53540     10.38040    118.47100      1.16140      0.42250      1.92890
   1005.68780     10.44230    118.02700      1.14660      0.42960      1.89110
   1005.84020     10.52830    114.73190      1.16820      0.42540      1.88020
