~VERSION INFORMATION
VERS.         2.0        : CWLS LOG ASCII STANDARD VERSION 2.0
WRAP.         NO         : ONE LINE PER DEPTH STEP
~WELL INFORMATION
STRT.M     197.66300                                                            :START DEPTH
STOP.M    1425.24500                                                            :STOP DEPTH
STEP.M       0.15240                                                            :STEP
NULL.          -999.25                                                          : NULL VALUE
WELL.          B-3                                                              : WELL NAME
~CURVE INFORMATION
DEPT.m          00 000 00 00                                                     : Depth Index
CALI.in         00 000 00 00                                                     :
GR.gAPI         00 000 00 00                                                     :
LLD.ohmm        00 000 00 00                                                     :
NPHI.m3/m3      00 000 00 00                                                     :
RHOB.g/cm3      00 000 00 00                                                     :
~Ascii Log Data
# ...
    430.83500      8.44520     34.29260      2.93090      0.34880      2.13630
    430.98740      8.41500     33.70280      3.03300      0.35750      2.14870
    431.13980      8.39870     34.69100      3.25480      0.35310      2.16460
    431.29220      8.38580     34.83960      3.46540      0.34570      2.17570
    431.44460      8.38150     32.50650      3.59230      0.33990      2.17670
    431.59700      8.38470     29.42100      3.70020      0.34020      2.16960
    431.74940      8.38470     26.92260      3.58020      0.34880      2.16310
    431.90180      8.38790     27.92480      3.72090      0.36200      2.16420
    432.05420      8.39430     29.97680      3.92760      0.37390      2.17190
    432.20660      8.39430     31.29920      4.00630      0.36520      2.17910
    432.35900      8.39110     31.55710      3.83650      0.34570      2.17980
    432.51140      8.39590     33.38780      3.54780      0.33320      2.17390
    432.66380      8.40380     34.11370      3.41860      0.32700      2.16710
    432.81620      8.41940     35.36710      3.43120      0.32360      2.16490
    432.96860      8.42500     34.23650      3.59310      0.31920      2.17040
    433.12100      8.42610     32.72530      3.85500      0.31330      2.18300
    433.27340      8.42350     30.99100      4.02310      0.30600      2.20170
    433.42580      8.41350     30.79420      4.20430      0.29750      2.22650
    433.57820      8.39850     30.93930      4.48310      0.28860      2.25740
    433.73060      8.38860     31.04480      4.65350      0.28000      2.29130
    433.88300      8.39070     30.22490      5.19130      0.27160      2.32040
    434.03540      8.38790     30.11760      5.52580      0.26240      2.33640
    434.18780      8.40520     29.68630      5.61310      0.25460      2.33670
    434.34020      8.41650     30.55300      5.41450      0.24860      2.32750
    434.49260      8.42450     33.16030      5.12060      0.24480      2.31960
    434.64500      8.42630     35.79960      5.06200      0.24280      2.32050
    434.79740      8.42200     37.29680      5.01870      0.24250      2.32990
    434.94980      8.42250     38.26950      4.96480      0.24460      2.34280
    435.10220      8.42770     36.86340      4.79910      0.24900      2.35410
    435.25460      8.43790     36.40740      4.65420      0.25110      2.36310
    435.40700      8.45610     36.65280      4.68950      0.24700      2.37190
    435.55940      8.47630     37.96450      4.92030      0.23840      2.38250
    435.71180      8.50000     40.67420      5.21470      0.22980      2.39440
    435.86420      8.53730     42.30600      5.49120      0.22530      2.40550
    436.01660      8.57590     42.56930      5.64100      0.22560      2.41360
    436.16900      8.61230     42.75320      5.70500      0.22850      2.41800
    436.32140      8.63890     42.70510      5.76780      0.23070      2.41960
    436.47380      8.65080     41.42730      5.82840      0.23010      2.42030
    436.62620      8.63260     40.37470      6.19680      0.22690      2.42150
    436.77860      8.60980     36.31770      6.81250      0.21930      2.42420
    436.93100      8.58140     33.81110      7.52690      0.20830      2.42770
    437.08340      8.56730     32.38390      8.31500      0.19540      2.43010
    437.23580      8.57410     32.74320      8.60440      0.19100      2.42940
    437.38820      8.59000     31.93760      8.54470      0.19530      2.42730
    437.54060      8.61390     32.56910      8.40210      0.19990      2.42670
    437.69300      8.63940     33.13640      8.44890      0.19740      2.43000
    437.84540      8.64730     34.89760      8.37130      0.19210      2.43600
    437.99780      8.65530     36.35630      8.02270      0.18790      2.44230
    438.15020      8.65530     37.60060      7.67180      0.18550      2.44610
    438.30260      8.65530     37.12720      7.40030      0.18380      2.44690
    438.45500      8.66320     39.42390      6.83840      0.18370      2.44550
    438.60740      8.67120     42.05770      6.42080      0.18580      2.44410
    438.75980      8.67760     44.30130      6.09690      0.18940      2.44460
    438.91220      8.68550     46.61120      5.77590      0.19460      2.44920
    439.06460      8.68550     46.99910      5.72740      0.20110      2.45760
    439.21700      8.67760     45.00570      5.85980      0.20850      2.46570
    439.36940      8.66960     43.07830      5.91920      0.21350      2.46960
    439.52180      8.66320     41.15740      5.87840      0.21750      2.46830
    439.67420      8.65530     40.50160      5.95680      0.21930      2.46320
    439.82660      8.65640     43.86340      5.88770      0.21880      2.45800
    439.97900      8.66320     47.02750      5.65190      0.21640      2.45590
    440.13140      8.66320     48.87120      5.65950      0.21260      2.45740
    440.28380      8.65870     47.62180      5.83920      0.20670      2.46210
    440.43620      8.65530     44.42670      6.01760      0.19780      2.46790
    440.58860      8.64170     40.97790      6.27480      0.19220      2.47040
    440.74100      8.63940     39.11750      6.73300      0.19260      2.46600
    440.89340      8.62920     38.30870      7.28560      0.19790      2.45470
    441.04580      8.62660     37.27210      7.58940      0.20350      2.43940
    441.19820      8.62030     36.05680      7.44850      0.20610      2.42530
    441.35060      8.60980     35.35790      6.96490      0.20690      2.41560
    441.50300      8.60600     34.90340      6.73010      0.20860      2.40940
    441.65540      8.59960     34.26830      7.08470      0.21120      2.40470
    441.80780      8.59610     34.33630      7.26250      0.21540      2.40110
    441.96020      8.59290     34.51450      7.11530      0.22060      2.39980
    442.11260      8.59000     34.63510      7.04730      0.22480      2.40130
    442.26500      8.59000     33.68490      7.09210      0.22560      2.40490
    442.41740      8.56300     32.51180      7.23930      0.22220      2.40840
    442.56980      8.52640     30.88290      7.28140      0.21580      2.41110
    442.72220      8.50250     29.86590      7.24870      0.21030      2.41370
    442.87460      8.46750     31.15920      7.18530      0.20740      2.41680
    443.02700      8.44520     33.92800      7.00610      0.20770      2.41960
    443.17940      8.43720     36.78500      6.66470      0.21060      2.42090
    443.33180      8.44200     39.79900      6.34640      0.21550      2.41940
    443.48420      8.43720     40.36020      6.17640      0.22150      2.41410
    443.63660      8.44520     39.16340      5.94920      0.22740      2.40510
    443.78900      8.44360     36.97010      5.75370      0.23270      2.39350
    443.94140      8.44360     34.72080      5.70700      0.23700      2.38090
    444.09380      8.43880     32.35540      5.79320      0.24000      2.37220
    444.24620      8.44360     30.82850      5.91500      0.24170      2.36900
    444.39860      8.43560     30.40110      5.98560      0.24220      2.37090
    444.55100      8.43720     30.90240      5.98120      0.24230      2.37550
    444.70340      8.44520     30.62490      5.95820      0.24150      2.37960
    444.85580      8.45000     29.50080      5.81200      0.23960      2.38240
    445.00820      8.44520     28.87700      5.67860      0.23740      2.38360
    445.16060      8.45310     27.98390      5.56200      0.23650      2.38230
    445.31300      8.45310     29.66460      5.31660      0.23840      2.37840
    445.46540      8.45310     31.90130      5.02750      0.24280      2.37100
    445.61780      8.45310     34.38460      4.77940      0.24800      2.36110
    445.77020      8.45950     36.20710      4.49250      0.25640      2.35190
    445.92260      8.45950     39.13700      4.48280      0.26440      2.34680
    446.07500      8.45810     41.93790      4.57970      0.27070      2.34650
    446.22740      8.45170     43.39920      4.77310      0.27000      2.34930
