~VERSION INFORMATION
VERS.         2.0        : CWLS LOG ASCII STANDARD VERSION 2.0
WRAP.         NO         : ONE LINE PER DEPTH STEP
~WELL INFORMATION
STRT.M     197.66300                                                            :START DEPTH
STOP.M    1425.24500                                                            :STOP DEPTH
STEP.M       0.15240                                                            :STEP
NULL.          -999.25                                                          : NULL VALUE
WELL.          B-3                                                              : WELL NAME
~CURVE INFORMATION
DEPT.m          00 000 00 00                                                     : Depth Index
CALI.in         00 000 00 00                                                     :
GR.gAPI         00 000 00 00                                                     :
LLD.ohmm        00 000 00 00                                                     :
NPHI.m3/m3      00 000 00 00                                                     :
RHOB.g/cm3      00 000 00 00                                                     :
~Ascii Log Data
# ...
    710.64140     10.59340     71.72950      3.52320      0.27870      2.23250
    710.79380     10.43790     72.18950      3.27290      0.28650      2.23110
    710.94620     10.35830     75.99620      3.16760      0.29910      2.21680
    711.09860     10.50590     82.22750      2.97890      0.31130      2.18800
    711.25100     10.83090     86.86910      2.81030      0.32050      2.14670
    711.40340     11.09860     90.45210      2.63560      0.34200      2.10000
    711.55580     11.19810     88.56000      2.45160      0.35900      2.06100
    711.70820     11.18440     84.56310      2.32380      0.36670      2.04390
    711.86060     11.05620     81.92160      2.22340      0.36660      2.05840
    712.01300     10.77180     81.55170      2.16980      0.35020      2.10110
    712.16540     10.43990     80.80650      2.36870      0.32320      2.15770
    712.31780     10.23070     83.83280      2.91030      0.29760      2.20800
    712.47020     10.15650     83.83610      3.59830      0.28210      2.23940
    712.62260     10.09590     83.05620      4.00100      0.27520      2.25180
    712.77500     10.05110     79.29170      4.14940      0.27480      2.25430
    712.92740     10.06410     74.22140      3.50330      0.28160      2.25380
    713.07980     10.18680     69.58030      3.07480      0.29170      2.24990
    713.23220     10.41290     72.77240      3.04090      0.30130      2.23660
    713.38460     10.60410     77.49360      2.97690      0.30970      2.21490
    713.53700     10.56940     84.84790      2.86230      0.31630      2.19170
    713.68940     10.50990     90.27830      2.73360      0.31930      2.17430
    713.84180     10.47190     90.62130      2.65390      0.32250      2.16390
    713.99420     10.34710     89.28290      2.55680      0.32590      2.15710
    714.14660     10.23310     89.31650      2.53470      0.33220      2.14890
    714.29900     10.44450     90.01110      2.57580      0.34200      2.13920
    714.45140     10.70830     91.61090      2.51830      0.35660      2.12890
    714.60380     10.88830     91.34470      2.48110      0.37310      2.12060
    714.75620     10.84000     91.93110      2.40920      0.38930      2.11070
    714.90860     10.76600     94.51560      2.26800      0.40300      2.09840
    715.06100     10.57160    100.12340      1.91870      0.40670      2.08370
    715.21340     10.33160    106.32700      1.78290      0.40980      2.06750
    715.36580     10.10340    108.32040      1.72940      0.41590      2.05430
    715.51820     10.04090    107.16480      1.68530      0.41690      2.04880
    715.67060     10.13130    107.07480      1.69950      0.41620      2.05310
    715.82300     10.36490    105.61390      1.68570      0.41810      2.06750
    715.97540     10.68230    102.72480      1.58940      0.40370      2.09050
    716.12780     10.79710     99.32380      1.62840      0.38440      2.12200
    716.28020     10.84670     95.27380      1.91160      0.37090      2.14370
    716.43260     10.74480     94.46140      2.21990      0.37360      2.14790
    716.58500     10.49840     97.75770      2.09660      0.39380      2.13660
    716.73740     10.19510    103.33750      1.76440      0.41870      2.11670
    716.88980     10.03520    108.23340      1.73120      0.43280      2.09470
    717.04220      9.87290    112.14470      1.71650      0.43180      2.07670
    717.19460      9.76500    111.71970      1.71460      0.42580      2.06820
    717.34700      9.77220    109.38030      1.72130      0.42300      2.07270
    717.49940      9.79010    109.68430      1.79420      0.42360      2.08990
    717.65180      9.85740    108.99080      1.89320      0.42340      2.11100
    717.80420     10.04920    108.57270      1.93030      0.42200      2.12390
    717.95660     10.21520    106.06940      1.95680      0.42310      2.12250
    718.10900     10.27390    101.96640      1.91110      0.42940      2.10850
    718.26140     10.30950     99.10050      1.85890      0.43770      2.08980
    718.41380     10.31730    102.12300      1.80630      0.44250      2.07500
    718.56620     10.24110    104.74990      1.81460      0.44370      2.06600
    718.71860     10.13920    107.31170      1.80610      0.44810      2.06250
    718.87100     10.04230    106.60070      1.81910      0.46200      2.06210
    719.02340      9.92730    107.02430      1.71700      0.48550      2.06310
    719.17580      9.87650    106.76830      1.67240      0.50970      2.06340
    719.32820      9.97830    108.12330      1.62400      0.52540      2.06160
    719.48060     10.23510    108.25690      1.61700      0.52480      2.05560
    719.63300     10.58460    106.50160      1.61770      0.50860      2.04620
    719.78540     11.01820    104.00320      1.76010      0.48410      2.03560
    719.93780     11.43030    103.62630      1.88520      0.45740      2.02860
    720.09020     11.59030    103.01690      2.02720      0.43250      2.03000
    720.24260     11.31560    103.85900      2.15750      0.41280      2.04170
    720.39500     10.96200    106.69860      2.18260      0.39830      2.06350
    720.54740     10.64120    110.02990      2.19190      0.38480      2.09060
    720.69980     10.26100    113.60600      2.18070      0.37250      2.11540
    720.85220      9.84280    114.62710      2.23960      0.36630      2.12860
    721.00460      9.80180    113.01200      2.29180      0.36790      2.12390
    721.15700      9.97850    108.64180      2.36950      0.37510      2.10240
    721.30940     10.09280    105.61230      2.48800      0.38270      2.07520
    721.46180     10.22180    102.96510      2.65310      0.38670      2.05670
    721.61420     10.43850    102.14580      2.78980      0.38070      2.05750
    721.76660     10.48550    102.72030      2.71640      0.36940      2.07500
    721.91900     10.31370    105.51340      2.62250      0.36020      2.09810
    722.07140     10.13920    109.86320      2.49480      0.35550      2.11360
    722.22380     10.03840    112.35610      2.28140      0.35410      2.11030
    722.37620     10.09030    111.11330      2.18990      0.35660      2.08350
    722.52860     10.42510    103.99850      2.21190      0.37380      2.03620
    722.68100     10.67780     96.59280      2.11830      0.39820      1.97270
    722.83340     10.70870     92.35740      2.15030      0.42050      1.90260
    722.98580     10.81860     93.58360      2.15390      0.43580      1.84010
    723.13820     10.94700     95.45980      2.26290      0.44240      1.79890
    723.29060     11.02810     95.84350      2.26540      0.44240      1.78970
    723.44300     11.15990     93.15990      2.36140      0.44230      1.81550
    723.59540     11.28720     91.06600      2.38860      0.44220      1.86410
    723.74780     11.22450     93.09900      2.18510      0.43910      1.91650
    723.90020     11.03330     94.29930      2.10750      0.42950      1.95560
    724.05260     10.87770     93.59040      2.10980      0.41970      1.97160
    724.20500     10.80330     91.17620      2.00510      0.42140      1.96380
    724.35740     10.87390     88.70530      2.04280      0.44140      1.93650
    724.50980     10.98400     88.45580      1.94750      0.46370      1.89810
    724.66220     11.19310     93.77160      1.91760      0.46950      1.86230
    724.81460     11.43740     99.84610      1.79890      0.46540      1.84230
    724.96700     11.63750    105.77260      1.67140      0.46240      1.84520
    725.11940     11.78550    108.96560      1.67830      0.46630      1.86320
    725.27180     11.90280    107.88130      1.64480      0.47330      1.88050
    725.42420     11.89560    103.97060      1.58850      0.48410      1.88650
    725.57660     11.65080    101.79500      1.57950      0.49450      1.88320
    725.72900     11.35950    102.89330      1.46730      0.50540      1.87730
    725.88140     11.19260    104.87020      1.43990      0.52470      1.87360
    726.03380     11.10140    105.98980      1.39040      0.54860      1.87000
