~VERSION INFORMATION
VERS.         2.0        : CWLS LOG ASCII STANDARD VERSION 2.0
WRAP.         NO         : ONE LINE PER DEPTH STEP
~WELL INFORMATION
STRT.M     197.66300                                                            :START DEPTH
STOP.M    1425.24500                                                            :STOP DEPTH
STEP.M       0.15240                                                            :STEP
NULL.          -999.25                                                          : NULL VALUE
WELL.          B-3                                                              : WELL NAME
~CURVE INFORMATION
DEPT.m          00 000 00 00                                                     : Depth Index
CALI.in         00 000 00 00                                                     :
GR.gAPI         00 000 00 00                                                     :
LLD.ohmm        00 000 00 00                                                     :
NPHI.m3/m3      00 000 00 00                                                     :
RHOB.g/cm3      00 000 00 00                                                     :
~Ascii Log Data
# ...
    353.11100      8.33170     80.29710      0.63270   -999.25000   -999.25000
    353.26340      8.29980     81.89450      0.77080   -999.25000   -999.25000
    353.41580      8.25740     80.55400      0.89800   -999.25000   -999.25000
    353.56820      8.22550     78.54060      1.09440   -999.25000   -999.25000
    353.72060      8.20430     75.83430      1.28120   -999.25000   -999.25000
    353.87300      8.17780     75.72890      1.44250   -999.25000   -999.25000
    354.02540      8.15660     76.96970      1.65300   -999.25000   -999.25000
    354.17780      8.16720     81.08030      1.86770   -999.25000   -999.25000
    354.33020      8.16720     84.46380      1.83860   -999.25000   -999.25000
    354.48260      8.13000     88.12300      1.86410   -999.25000   -999.25000
    354.63500      8.13000     89.16940      1.82770   -999.25000   -999.25000
    354.78740      8.21490     89.71410      1.65310   -999.25000   -999.25000
    354.93980      8.36880     87.82380      1.67000   -999.25000   -999.25000
    355.09220      8.62350     86.46070      1.73750   -999.25000      1.87860
    355.24460      8.93120     83.94830      1.71590   -999.25000      1.87900
    355.39700      9.13810     83.63970      1.74670   -999.25000      1.87850
    355.54940      9.23890     82.01640      1.86390      0.55700      1.88290
    355.70180      9.24950     82.64140      1.75710      0.55550      1.89870
    355.85420      9.14340     79.95230      1.79560      0.53170      1.92490
    356.00660      8.98950     76.99090      1.92220      0.49750      1.94850
    356.15900      8.88870     71.74260      2.31600      0.47150      1.95430
    356.31140      8.83040     70.18260      2.54460      0.46620      1.94090
    356.46380      8.80910     68.85670      2.32730      0.48630      1.91830
    356.61620      8.83570     69.67810      2.03670      0.51790      1.90730
    356.76860      8.91520     68.37280      2.05140      0.53210      1.92690
    356.92100      8.96300     65.54460      2.71780      0.51390      1.98390
    357.07340      8.92590     60.55190      3.94910      0.46950      2.06880
    357.22580      8.81970     54.36400      4.98290      0.41800      2.15840
    357.37820      8.72850     49.59310      8.61770      0.36890      2.22160
    357.53060      8.57730     46.02390     11.56250      0.33410      2.23980
    357.68300      8.45950     48.68720      9.05180      0.31510      2.21020
    357.83540      8.44520     54.30440      5.43540      0.31370      2.14650
    357.98780      8.46910     64.94290      3.52540      0.32740      2.06720
    358.14020      8.56140     75.82510      2.52880      0.35670      1.98960
    358.29260      8.66010     84.35490      1.85210      0.39660      1.92610
    358.44500      8.77150     84.56620      1.68510      0.44500      1.88560
    358.59740      8.83360     79.62480      1.86640      0.48420      1.86590
    358.74980      8.83510     70.49050      2.21210      0.50040      1.85980
    358.90220      8.76350     62.10830      2.64310      0.49500      1.85620
    359.05460      8.73650     57.00110      3.52660      0.48180      1.84940
    359.20700      8.81920     57.53320      3.82390      0.46570      1.83840
    359.35940      8.98640     62.64330      3.04670      0.45430      1.82300
    359.51180      9.15190     70.22690      2.41120      0.44900      1.80280
    359.66420      9.36670     76.16260      1.96170      0.45550      1.78080
    359.81660      9.51800     79.47110      1.62320      0.48860      1.76250
    359.96900      9.45110     78.38300      1.47500      0.54860      1.75410
    360.12140      9.30470     78.10180      1.47870      0.60610      1.75870
    360.27380      9.17740     78.93180      1.52760      0.62810      1.77510
    360.42620      8.97840     81.98380      1.55330      0.61560      1.79840
    360.57860      8.74600     81.24150      1.67900      0.59270      1.82240
    360.73100      8.61070     77.18520      1.80240      0.57700      1.84120
    360.88340      8.55820     70.23660      1.96330      0.57750      1.85050
    361.03580      8.58370     64.26010      2.17810      0.58660      1.84740
    361.18820      8.78260     60.72960      2.47130      0.58920      1.83350
    361.34060      9.23780     59.60480      3.18160      0.57380      1.81630
    361.49300      9.79650     57.57840      4.01650      0.54220      1.80500
    361.64540     10.32970     54.73640      5.07840      0.50550      1.80570
    361.79780     10.63050     54.88190      4.85150      0.47520      1.81700
    361.95020     10.72600     59.25430      3.31000      0.45850      1.82970
    362.10260     10.48730     68.03240      2.31900      0.45540      1.83210
    362.25500     10.16730     74.28460      1.85310      0.46290      1.82250
    362.40740      9.85220     77.98800      1.57440      0.47880      1.80650
    362.55980      9.62940     80.44590      1.48170      0.49940      1.78940
    362.71220      9.48610     79.17800      1.61600      0.52450      1.76920
    362.86460      9.45430     76.94070      2.01430      0.54360      1.74340
    363.01700      9.29510     73.13180      2.50360      0.55880      1.71600
    363.16940      9.21240     66.71870      3.47750      0.56950      1.70290
    363.32180      9.42090     61.69630      4.44790      0.56210      1.72220
    363.47420      9.52430     61.56430      4.60340      0.51930      1.77630
    363.62660      9.61190     63.81480      3.90480      0.45670      1.84060
    363.77900      9.59440     68.49450      2.89660      0.40630      1.88230
    363.93140      9.41130     73.85650      1.97250      0.39220      1.88740
    364.08380      8.98800     77.41180      2.85420      0.43720      1.86980
    364.23620      8.65210     78.21710      1.72490      0.48450      1.86240
    364.38860      8.35770     75.40910      2.90220      0.48310      1.89240
    364.54100      8.31150     69.88880      3.22920      0.43280      1.95940
    364.69340      8.39900     63.59370      8.44330      0.38300      2.04340
    364.84580      8.58210     64.79870     18.40850      0.34180      2.12120
    364.99820      8.84630     72.87960      7.91200      0.31830      2.17250
    365.15060      9.09780     82.84060      3.40440      0.31740      2.18240
    365.30300      9.33650     88.06490      8.80940      0.34880      2.14560
    365.45540      9.44790     86.19410      1.86400      0.40790      2.06920
    365.60780      9.52270     80.83600      1.56980      0.47260      1.97600
    365.76020      9.51480     75.37140      0.58430      0.53220      1.89420
    365.91260      9.43840     72.38020      2.42680      0.57230      1.84110
    366.06500      9.30950     70.99200      4.01110      0.60190      1.81730
    366.21740      9.23780     72.74630      2.73530      0.61890      1.81300
    366.36980      9.09140     79.39730      1.77460      0.62870      1.81590
    366.52220      8.95610     87.62260      1.71310      0.63180      1.81810
    366.67460      8.88450     92.60020      1.75690      0.63120      1.81600
    366.82700      8.83830     93.76420      1.69090      0.63030      1.80900
    366.97940      8.80490     92.70490      1.62280      0.63170      1.79930
    367.13180      8.78100     89.73460      1.61490      0.63540      1.79150
    367.28420      8.71740     88.76570      1.65640      0.63790      1.78950
    367.43660      8.62980     86.66760      1.65590      0.62910      1.79350
    367.58900      8.53430     84.53890      1.69730      0.59530      1.80050
    367.74140      8.42450     83.65500      1.72530      0.55630      1.80570
    367.89380      8.34650     84.61890      1.73610      0.53610      1.80610
    368.04620      8.29880     85.44390      1.81260      0.54850      1.80110
    368.19860      8.30670     85.38500      1.77380      0.58160      1.79410
    368.35100      8.42930     83.58500      1.77010      0.60840      1.78860
    368.50340      8.58050     83.01210      1.63020      0.61270      1.78790
