~VERSION INFORMATION
VERS.         2.0        : CWLS LOG ASCII STANDARD VERSION 2.0
WRAP.         NO         : ONE LINE PER DEPTH STEP
~WELL INFORMATION
STRT.M     197.66300                                                            :START DEPTH
STOP.M    1425.24500                                                            :STOP DEPTH
STEP.M       0.15240                                                            :STEP
NULL.          -999.25                                                          : NULL VALUE
WELL.          B-3                                                              : WELL NAME
~CURVE INFORMATION
DEPT.m          00 000 00 00                                                     : Depth Index
CALI.in         00 000 00 00                                                     :
GR.gAPI         00 000 00 00                                                     :
LLD.ohmm        00 000 00 00                                                     :
NPHI.m3/m3      00 000 00 00                                                     :
RHOB.g/cm3      00 000 00 00                                                     :
~Ascii Log Data
# ...
   1270.25420      8.56620    150.09550      3.90730      0.34910      2.58550
   1270.40660      8.54070    148.65350      3.71610      0.33920      2.56740
   1270.55900      8.50890    149.48180      3.77180      0.33150      2.54360
   1270.71140      8.50890    149.15520      4.04070      0.32640      2.52780
   1270.86380      8.50890    146.47490      4.38230      0.32460      2.53050
   1271.01620      8.49450    142.94730      4.57670      0.32730      2.54940
   1271.16860      8.49450    137.30000      4.91250      0.33510      2.57370
   1271.32100      8.50250    135.89540      5.58420      0.34760      2.58940
   1271.47340      8.50890    137.97900      5.72830      0.36180      2.59660
   1271.62580      8.51680    139.45900      5.84360      0.37390      2.59950
   1271.77820      8.53120    142.18310      5.42690      0.38220      2.60320
   1271.93060      8.53910    142.25080      4.66180      0.38580      2.60500
   1272.08300      8.53750    145.30560      4.13430      0.38460      2.60190
   1272.23540      8.53120    150.17630      3.94160      0.37900      2.58550
   1272.38780      8.53910    155.37100      3.95240      0.37050      2.55900
   1272.54020      8.53910    154.99720      4.22120      0.36330      2.52820
   1272.69260      8.54710    156.13830      4.71530      0.35910      2.50410
   1272.84500      8.55340    151.44900      5.10270      0.35840      2.49390
   1272.99740      8.55500    148.70280      5.16380      0.36180      2.50280
   1273.14980      8.55190    146.45460      4.88050      0.36960      2.52530
   1273.30220      8.55340    147.37930      4.41980      0.38050      2.55420
   1273.45460      8.55030    151.74830      4.07190      0.39190      2.58050
   1273.60700      8.54550    158.11170      3.90980      0.39580      2.59140
   1273.75940      8.55030    164.95850      3.85440      0.39030      2.58030
   1273.91180      8.54550    167.40850      3.87100      0.37960      2.55550
   1274.06420      8.54410    164.17540      3.96280      0.37070      2.53440
   1274.21660      8.54020    157.02950      4.09470      0.36970      2.53110
   1274.36900      8.53800    149.68030      4.24370      0.37450      2.54610
   1274.52140      8.53490    142.94460      4.34640      0.38170      2.56460
   1274.67380      8.53200    141.67040      4.30810      0.38890      2.56980
   1274.82620      8.53170    146.01450      4.21150      0.39570      2.55990
   1274.97860      8.53240    153.43180      4.01570      0.40110      2.54590
   1275.13100      8.53040    159.99620      3.97110      0.40230      2.54110
   1275.28340      8.52480    165.00090      4.06780      0.39590      2.55020
   1275.43580      8.52340    167.47560      4.19510      0.38290      2.56630
   1275.58820      8.51830    170.42780      4.51430      0.36700      2.57860
   1275.74060      8.51580    169.43640      4.92880      0.35090      2.58680
   1275.89300      8.51170    170.24660      5.18280      0.33870      2.59400
   1276.04540      8.50890    164.73200      5.16190      0.33200      2.60190
   1276.19780      8.50940    157.14900      4.86940      0.33220      2.60750
   1276.35020      8.51050    150.48990      4.37380      0.33640      2.60700
   1276.50260      8.51060    149.99220      3.88280      0.34060      2.60040
   1276.65500      8.51210    152.77400      3.60560      0.34300      2.59250
   1276.80740      8.51210    157.83980      3.41150      0.34340      2.58760
   1276.95980      8.51820    158.74340      3.23670      0.34670      2.58500
   1277.11220      8.51900    157.99530      3.14280      0.35600      2.58310
   1277.26460      8.52290    156.59650      2.95250      0.36810      2.58120
   1277.41700      8.52850    154.18750      2.79840      0.37810      2.58190
   1277.56940      8.53120    154.14840      2.85400      0.38500      2.58490
   1277.72180      8.53080    151.21890      2.82840      0.39080      2.58670
   1277.87420      8.52890    146.84650      2.83480      0.39450      2.58360
   1278.02660      8.52320    146.75940      2.95470      0.39290      2.57580
   1278.17900      8.51610    149.33640      3.04520      0.38370      2.56800
   1278.33140      8.50530    151.53890      3.06060      0.36850      2.56750
   1278.48380      8.50680    154.36760      3.17600      0.35030      2.57820
   1278.63620      8.50090    155.63510      3.43940      0.33300      2.60010
   1278.78860      8.49450    152.47360      3.68200      0.31460      2.62550
   1278.94100      8.49450    144.51140      4.19180      0.29910      2.64190
   1279.09340      8.49600    132.47300      4.85550      0.29190      2.63910
   1279.24580      8.50020    122.78980      5.36100      0.30980      2.61530
   1279.39820      8.49450    121.02550      6.08130      0.34610      2.58310
   1279.55060      8.50250    126.32630      5.56160      0.37670      2.55810
   1279.70300      8.50250    132.13760      4.28380      0.38320      2.54830
   1279.85540      8.51050    135.59490      3.37390      0.38460      2.55140
   1280.00780      8.50410    136.89030      2.82870      0.39140      2.55980
   1280.16020      8.50410    138.27900      2.76260      0.40050      2.56790
   1280.31260      8.49610    143.14040      3.04210      0.39490      2.57640
   1280.46500      8.49610    150.22230      3.54340      0.36520      2.58850
   1280.61740      8.48820    157.35990      4.02980      0.33200      2.60390
   1280.76980      8.48820    163.96030      4.15180      0.30490      2.61820
   1280.92220      8.49440    167.80840      4.46820      0.29450      2.62610
   1281.07460      8.50140    161.26540      5.35620      0.29750      2.62800
   1281.22700      8.50410    154.17730      6.05580      0.30760      2.62670
   1281.37940      8.50690    150.66960      6.66940      0.31580      2.62320
   1281.53180      8.50780    150.71540      6.77000      0.32650      2.61580
   1281.68420      8.50210    151.70030      6.37210      0.34470      2.60470
   1281.83660      8.50090    152.59330      6.45470      0.36540      2.59450
   1281.98900      8.50090    148.63380      6.79030      0.38430      2.59000
   1282.14140      8.50090    148.21860      6.92010      0.39670      2.59170
   1282.29380      8.49450    150.05620      6.42530      0.40110      2.59510
   1282.44620      8.50250    153.71460      6.03760      0.39900      2.59560
   1282.59860      8.50250    156.64670      5.88230      0.39060      2.59380
   1282.75100      8.50250    160.63970      5.74010      0.37790      2.59220
   1282.90340      8.50250    163.63040      5.57450      0.36480      2.59370
   1283.05580      8.50250    166.68230      5.97360      0.35550      2.59680
   1283.20820      8.50890    164.54580      6.16630      0.35290      2.59990
   1283.36060      8.51140    158.86180      6.11050      0.35730      2.60140
   1283.51300      8.51680    153.26240      6.00320      0.36630      2.60040
   1283.66540      8.52230    151.01610      5.88160      0.37660      2.59510
   1283.81780      8.53050    151.76480      5.86560      0.38610      2.58490
   1283.97020      8.53000    152.71300      5.59570      0.39040      2.57190
   1284.12260      8.53090    149.89040      5.10880      0.38960      2.56220
   1284.27500      8.53750    144.89210      4.59060      0.38420      2.56170
   1284.42740      8.53280    144.07600      4.00700      0.37480      2.57190
   1284.57980      8.53120    148.28340      3.58120      0.36530      2.59020
   1284.73220      8.53280    154.15470      3.37180      0.35690      2.61210
   1284.88460      8.53750    158.74360      3.25250      0.34820      2.63230
   1285.03700      8.53910    160.55820      3.19320      0.33960      2.64500
   1285.18940      8.53750    163.42340      3.31910      0.33380      2.64630
   1285.34180      8.54710    168.67180      3.62010      0.33020      2.63710
   1285.49420      8.54550    174.25740      4.01930      0.32720      2.62290
   1285.64660      8.54800    172.27520      4.25040      0.32400      2.61250
