~VERSION INFORMATION
VERS.         2.0        : CWLS LOG ASCII STANDARD VERSION 2.0
WRAP.         NO         : ONE LINE PER DEPTH STEP
~WELL INFORMATION
STRT.M     197.66300                                                            :START DEPTH
STOP.M    1425.24500                                                            :STOP DEPTH
STEP.M       0.15240                                                            :STEP
NULL.          -999.25                                                          : NULL VALUE
WELL.          B-3                                                              : WELL NAME
~CURVE INFORMATION
DEPT.m          00 000 00 00                                                     : Depth Index
CALI.in         00 000 00 00                                                     :
GR.gAPI         00 000 00 00                                                     :
LLD.ohmm        00 000 00 00                                                     :
NPHI.m3/m3      00 000 00 00                                                     :
RHOB.g/cm3      00 000 00 00                                                     :
~Ascii Log Data
# ...
    632.91740      8.38430     39.17800      2.16680      0.25920      2.24460
    633.06980      8.37140     40.91470      1.90780      0.26820      2.23180
    633.22220      8.34930     42.39660      1.72810      0.27750      2.23390
    633.37460      8.33700     41.89040      1.79830      0.28700      2.25830
    633.52700      8.33700     39.17640      2.01890      0.29570      2.29960
    633.67940      8.33700     36.80800      2.25430      0.30240      2.34070
    633.83180      8.36080     34.51870      2.51770      0.30850      2.36220
    633.98420      8.38630     32.94600      2.73030      0.31500      2.35730
    634.13660      8.41020     33.27840      2.44840      0.31800      2.33680
    634.28900      8.44200     34.26990      2.30940      0.31620      2.31710
    634.44140      8.47380     34.73150      2.31760      0.31520      2.30800
    634.59380      8.51360     34.97860      2.36090      0.31810      2.30770
    634.74620      8.59840     36.35520      2.43490      0.32670      2.30800
    634.89860      8.74520     39.44150      2.36890      0.34230      2.30390
    635.05100      8.94970     47.19580      2.24940      0.35620      2.30190
    635.20340      9.25420     57.89270      1.95060      0.35900      2.31130
    635.35580      9.60230     66.86830      1.90510      0.35070      2.33880
    635.50820      9.91520     69.48290      2.02860      0.33350      2.38520
    635.66060     10.14480     66.58720      2.40430      0.31350      2.43990
    635.81300     10.25360     62.28140      3.19360      0.29730      2.48370
    635.96540     10.28190     59.62690      4.49870      0.28810      2.50300
    636.11780     10.24220     59.64070      4.56240      0.28460      2.49040
    636.27020     10.08300     60.66780      4.06040      0.28380      2.45240
    636.42260      9.90790     61.28850      3.53740      0.28140      2.40280
    636.57500      9.75030     61.59440      3.49590      0.27490      2.35370
    636.72740      9.53390     62.21690      3.73260      0.26330      2.31080
    636.87980      9.21550     59.78800      4.24940      0.25010      2.27970
    637.03220      9.01820     55.65690      5.02250      0.24230      2.26300
    637.18460      8.85900     52.90500      5.44180      0.24340      2.26520
    637.33700      8.75400     53.45670      5.47280      0.24880      2.28620
    637.48940      8.74120     57.24420      5.69010      0.25010      2.32080
    637.64180      8.74920     60.29680      5.54960      0.24590      2.36060
    637.79420      8.74920     61.02430      5.55230      0.24220      2.39830
    637.94660      8.74920     61.66610      5.56030      0.24230      2.42950
    638.09900      8.75240     60.94400      5.68050      0.24390      2.45250
    638.25140      8.74120     60.45430      5.65610      0.24380      2.46950
    638.40380      8.73010     59.21120      5.81120      0.24200      2.48360
    638.55620      8.72690     58.05320      5.68520      0.23990      2.49760
    638.70860      8.72690     56.22790      5.81820      0.23880      2.51260
    638.86100      8.71420     55.93420      6.06960      0.23900      2.52780
    639.01340      8.70620     55.66720      6.58820      0.24020      2.53750
    639.16580      8.70620     56.67750      7.34610      0.24230      2.53880
    639.31820      8.71420     58.21130      7.51960      0.24440      2.52970
    639.47060      8.71420     60.42010      6.97020      0.24610      2.51360
    639.62300      8.73960     64.27420      6.49380      0.24850      2.49660
    639.77540      8.76350     68.00320      6.05150      0.25220      2.48540
    639.92780      8.78260     70.71070      5.88760      0.25740      2.48250
    640.08020      8.78260     68.69730      6.27020      0.26330      2.48810
    640.23260      8.80650     65.13770      6.16130      0.26810      2.49040
    640.38500      8.81290     60.81670      5.82980      0.27040      2.47090
    640.53740      8.86060     60.42660      5.64100      0.27080      2.41530
    640.68980      8.91790     62.30110      5.41060      0.27230      2.32420
    640.84220      9.03730     62.34750      4.98810      0.27630      2.21580
    640.99460      9.11210     60.78960      4.68060      0.28330      2.11540
    641.14700      9.29670     60.01140      4.42090      0.29130      2.04020
    641.29940      9.47180     61.13960      4.16010      0.29640      1.99180
    641.45180      9.64370     63.65100      3.94690      0.29670      1.96910
    641.60420      9.68350     66.97090      4.05610      0.29390      1.96690
    641.75660      9.76620     67.32050      4.13670      0.29090      1.97750
    641.90900      9.74240     67.17480      4.10930      0.28890      1.98730
    642.06140      9.61030     66.11400      4.15160      0.28950      1.98650
    642.21380      9.55680     65.77400      4.21780      0.29430      1.97180
    642.36620      9.75040     66.69260      4.20250      0.29960      1.95400
    642.51860      9.90250     67.04390      4.22590      0.30090      1.94960
    642.67100      9.91550     66.20690      4.07880      0.29550      1.96830
    642.82340      9.98180     63.56460      3.98520      0.28440      2.00830
    642.97580      9.99330     60.80130      3.99470      0.27820      2.05910
    643.12820      9.81870     59.69270      4.03050      0.28450      2.10440
    643.28060      9.62990     60.44160      4.08380      0.29830      2.13120
    643.43300      9.56920     61.11380      4.19140      0.30880      2.13580
    643.58540      9.57530     61.61630      4.22570      0.31170      2.11870
    643.73780      9.59760     61.29210      4.19440      0.30930      2.08620
    643.89020      9.55700     62.56820      4.14050      0.30370      2.04810
    644.04260      9.53630     63.40810      4.18090      0.29800      2.01660
    644.19500      9.50730     64.16380      4.21260      0.29210      2.00130
    644.34740      9.40510     63.39000      4.14770      0.28480      2.00620
    644.49980      9.26810     61.40200      4.23270      0.27850      2.02290
    644.65220      9.21050     58.93060      4.34130      0.27820      2.03710
    644.80460      9.17150     58.55020      4.32820      0.28210      2.04070
    644.95700      9.16300     58.92420      4.28090      0.28990      2.03590
    645.10940      9.23600     60.39540      4.23430      0.29800      2.03040
    645.26180      9.35910     62.13300      4.21140      0.30070      2.02910
    645.41420      9.44650     61.73930      4.22210      0.29730      2.03030
    645.56660      9.54080     61.65180      4.10360      0.29090      2.03060
    645.71900      9.63280     62.35870      4.06450      0.28310      2.03380
    645.87140      9.65800     64.72960      4.10830      0.27750      2.04380
    646.02380      9.58290     66.37200      3.95000      0.27360      2.05560
    646.17620      9.50090     66.80310      3.93910      0.27100      2.05740
    646.32860      9.40880     66.38050      3.92900      0.27000      2.03940
    646.48100      9.32020     65.74810      3.95660      0.27160      2.00450
    646.63340      9.26620     64.32060      3.93790      0.27630      1.96760
    646.78580      9.24810     62.29280      3.98980      0.28000      1.94140
    646.93820      9.24580     59.67970      3.99110      0.28100      1.93250
    647.09060      9.25550     58.75810      3.99560      0.27780      1.94340
    647.24300      9.25410     59.58270      3.91380      0.27130      1.97500
    647.39540      9.25830     61.37240      3.93180      0.26390      2.02170
    647.54780      9.28320     61.44950      3.96250      0.25950      2.06840
    647.70020      9.33710     60.92760      3.90280      0.26020      2.08870
    647.85260      9.42200     58.86430      3.95130      0.26450      2.07020
    648.00500      9.49470     58.77040      3.89750      0.27240      2.02010
    648.15740      9.56420     60.03490      3.82830      0.28550      1.96450
    648.30980      9.68460     62.93690      3.81350      0.30310      1.92970
