~VERSION INFORMATION
VERS.         2.0        : CWLS LOG ASCII STANDARD VERSION 2.0
WRAP.         NO         : ONE LINE PER DEPTH STEP
~WELL INFORMATION
STRT.M     197.66300                                                            :START DEPTH
STOP.M    1425.24500                                                            :STOP DEPTH
STEP.M       0.15240                                                            :STEP
NULL.          -999.25                                                          : NULL VALUE
WELL.          B-3                                                              : WELL NAME
~CURVE INFORMATION
DEPT.m          00 000 00 00                                                     : Depth Index
CALI.in         00 000 00 00                                                     :
GR.gAPI         00 000 00 00                                                     :
LLD.ohmm        00 000 00 00                                                     :
NPHI.m3/m3      00 000 00 00                                                     :
RHOB.g/cm3      00 000 00 00                                                     :
~Ascii Log Data
# ...
   1192.53020      9.67040    132.63570      2.97070      0.34230      1.93220
   1192.68260      9.27220    127.51940      3.23490      0.34250      1.89480
   1192.83500      9.14300    125.04300      3.36860      0.34500      1.85630
   1192.98740      9.32440    125.53870      3.31810      0.35370      1.80680
   1193.13980      9.71180    128.77370      2.96190      0.36880      1.75520
   1193.29220      9.99140    134.78950      2.93340      0.38640      1.72490
   1193.44460     10.30610    139.14940      2.76900      0.39960      1.73540
   1193.59700     10.68230    140.21390      2.65380      0.40090      1.78800
   1193.74940     10.80910    139.12780      2.60710      0.38730      1.86870
   1193.90180     10.55250    139.04630      2.64000      0.36630      1.95740
   1194.05420     10.25320    142.66020      2.75590      0.34750      2.03930
   1194.20660      9.99040    146.48320      2.68590      0.33270      2.10970
   1194.35900      9.74450    148.07500      2.62220      0.31930      2.16780
   1194.51140      9.51290    148.73720      2.60470      0.31030      2.21060
   1194.66380      9.32190    148.41200      2.60500      0.30940      2.22940
   1194.81620      9.38090    145.43280      2.52540      0.31870      2.21050
   1194.96860      9.63360    141.99000      2.60400      0.33610      2.14570
   1195.12100      9.89580    137.42750      2.96400      0.35770      2.04290
   1195.27340     10.04470    135.14050      3.01840      0.38050      1.92710
   1195.42580     10.11120    137.03830      3.01350      0.40090      1.83330
   1195.57820     10.10420    139.03800      2.79800      0.40890      1.78590
   1195.73060     10.00410    136.82040      2.60470      0.40470      1.79060
   1195.88300      9.98160    132.58070      2.63310      0.40210      1.83410
   1196.03540     10.21820    130.42490      2.77070      0.40710      1.89850
   1196.18780     10.73680    131.95360      2.60940      0.42120      1.97100
   1196.34020     11.36610    134.17070      2.40370      0.44600      2.04310
   1196.49260     11.92080    138.86020      2.25850      0.47640      2.10630
   1196.64500     12.26250    138.91200      2.13000      0.50140      2.14860
   1196.79740     12.39880    139.11380      2.07470      0.51010      2.15700
   1196.94980     12.48440    142.29710      2.05600      0.49550      2.12540
   1197.10220     12.62320    149.02830      1.95580      0.46840      2.06220
   1197.25460     12.72500    151.71590      1.84760      0.45060      1.98620
   1197.40700     12.74950    152.39170      1.74750      0.45300      1.92090
   1197.55940     12.72220    143.83680      1.71980      0.47100      1.88360
   1197.71180     12.61170    132.77890      1.69040      0.48820      1.87960
   1197.86420     12.39480    127.18830      1.66350      0.48810      1.90520
   1198.01660     12.09970    129.03880      1.70640      0.46810      1.95320
   1198.16900     11.85300    133.09500      1.77500      0.44330      2.01600
   1198.32140     11.74150    136.93510      1.74080      0.43390      2.08570
   1198.47380     11.75170    138.62020      1.69810      0.45510      2.14950
   1198.62620     11.74940    139.16750      1.65660      0.49550      2.19360
   1198.77860     11.75650    141.55170      1.57610      0.51920      2.21120
   1198.93100     11.79880    144.00070      1.52300      0.50540      2.20580
   1199.08340     11.75870    143.76790      1.55630      0.47160      2.18830
   1199.23580     11.66820    143.17050      1.58090      0.44760      2.17200
   1199.38820     11.61490    143.15410      1.59930      0.44000      2.16370
   1199.54060     11.61470    142.04640      1.64340      0.43740      2.15930
   1199.69300     11.70400    141.91150      1.69310      0.43200      2.14510
   1199.84540     11.95890    141.19270      1.68400      0.42540      2.10480
   1199.99780     12.34510    139.98170      1.68910      0.42390      2.03870
   1200.15020     12.72400    141.65320      1.66740      0.43660      1.96670
   1200.30260     12.92940    141.51610      1.61270      0.45870      1.91970
   1200.45500     12.83300    139.42580      1.59530      0.47330      1.92050
   1200.60740     12.48150    138.36780      1.62510      0.46790      1.97050
   1200.75980     11.98190    137.56820      1.68880      0.43940      2.04600
   1200.91220     11.52540    135.82190      1.68250      0.39450      2.12330
   1201.06460     11.20940    137.49370      1.74190      0.34920      2.18650
   1201.21700     10.96500    136.62560      1.86690      0.31640      2.23170
   1201.36940     10.66320    133.26850      2.12860      0.30620      2.25670
   1201.52180     10.26210    129.28200      2.67320      0.30570      2.26420
   1201.67420      9.91590    124.79480      3.62490      0.31150      2.25450
   1201.82660      9.78440    120.32220      4.65070      0.31970      2.23760
   1201.97900      9.87390    120.34400      5.22180      0.32600      2.22390
   1202.13140     10.12070    126.13530      4.98260      0.33030      2.22210
   1202.28380     10.49300    134.77860      4.49340      0.33370      2.22590
   1202.43620     10.70930    145.55190      4.22030      0.33760      2.22570
   1202.58860     10.67040    149.74790      4.07700      0.34300      2.20890
   1202.74100     10.66050    148.38330      4.03930      0.35100      2.16610
   1202.89340     10.72600    146.25120      3.90760      0.36810      2.09400
   1203.04580     10.89000    147.69190      3.74510      0.38720      2.00900
   1203.19820     11.14810    151.50840      3.57640      0.40190      1.93820
   1203.35060     11.27660    158.18770      3.47640      0.40520      1.91080
   1203.50300     11.22390    161.16150      3.46710      0.39960      1.93620
   1203.65540     11.01700    160.82350      3.54010      0.39270      1.99210
   1203.80780     10.62960    161.13580      3.57280      0.38680      2.03700
   1203.96020     10.33290    161.88850      3.49150      0.38460      2.04350
   1204.11260     10.36360    162.23750      3.41440      0.38620      2.01480
   1204.26500     10.43790    161.72190      3.37130      0.39120      1.97910
   1204.41740     10.63760    160.77310      3.35820      0.39570      1.96480
   1204.56980     10.98420    157.69650      3.38110      0.39750      1.97940
   1204.72220     11.16800    154.58260      3.44730      0.39700      2.00870
   1204.87460     11.29000    152.91350      3.45580      0.39480      2.03370
   1205.02700     11.45070    151.24450      3.41950      0.39260      2.04620
   1205.17940     11.45270    150.21210      3.40480      0.39240      2.05320
   1205.33180     11.34090    152.06090      3.36590      0.39510      2.06520
   1205.48420     11.11700    157.68120      3.34910      0.39760      2.08820
   1205.63660     10.59560    161.55230      3.42170      0.39380      2.11870
   1205.78900     10.17050    162.83040      3.45900      0.38370      2.14150
   1205.94140      9.98050    161.43290      3.44210      0.37840      2.14280
   1206.09380      9.89200    158.69860      3.45710      0.38440      2.12250
   1206.24620      9.96620    157.02550      3.48350      0.39380      2.08640
   1206.39860     10.36870    158.82020      3.40030      0.40070      2.04670
   1206.55100     10.68590    160.97190      3.30030      0.41120      2.01470
   1206.70340     10.94920    158.19400      3.17270      0.42800      1.99600
   1206.85580     11.18990    155.69620      2.70780      0.43160      1.99150
   1207.00820     11.35730    151.44260      2.34860      0.41630      2.00030
   1207.16060     11.41820    147.81120      2.09760      0.40440      2.01450
   1207.31300     11.52820    147.01710      1.96600      0.41210      2.02890
   1207.46540     11.55080    150.76300      2.00160      0.43080      2.04470
   1207.61780     11.45310    155.12100      2.11040      0.44110      2.06130
   1207.77020     11.40640    159.75860      2.16550      0.43940      2.07470
   1207.92260     11.42530    161.31690      2.25910      0.43720      2.07780
