~VERSION INFORMATION
VERS.         2.0        : CWLS LOG ASCII STANDARD VERSION 2.0
WRAP.         NO         : ONE LINE PER DEPTH STEP
~WELL INFORMATION
STRT.M     197.66300                                                            :START DEPTH
STOP.M    1425.24500                                                            :STOP DEPTH
STEP.M       0.15240                                                            :STEP
NULL.          -999.25                                                          : NULL VALUE
WELL.          B-3                                                              : WELL NAME
~CURVE INFORMATION
DEPT.m          00 000 00 00                                                     : Depth Index
CALI.in         00 000 00 00                                                     :
GR.gAPI         00 000 00 00                                                     :
LLD.ohmm        00 000 00 00                                                     :
NPHI.m3/m3      00 000 00 00                                                     :
RHOB.g/cm3      00 000 00 00                                                     :
~Ascii Log Data
# ...
   1052.62700     14.98600    110.25460      1.41870      0.33940      1.84810
   1052.77940     14.46290    118.89190      1.58400      0.32900      1.84650
   1052.93180     14.09050    121.92210      1.87310      0.32840      1.88150
   1053.08420     13.77230    119.54130      1.78550      0.34400      1.93420
   1053.23660     13.78660    112.79330      1.61780      0.38300      1.98950
   1053.38900     14.14800    107.56870      1.56820      0.44260      2.03610
   1053.54140     14.63170    106.08750      1.30040      0.49230      2.06730
   1053.69380     15.36880    108.96510      1.28480      0.51460      2.08140
   1053.84620     16.05390    110.82800      1.29530      0.49780      2.07700
   1053.99860     16.43220    111.52360      1.28810      0.46490      2.06090
   1054.15100     16.66910    108.94430      1.29680      0.44700      2.04680
   1054.30340     16.68040    105.99610      1.29990      0.45790      2.04590
   1054.45580     16.58070    104.83180      1.32490      0.49390      2.06080
   1054.60820     16.53940    106.77780      1.35770      0.52870      2.08540
   1054.76060     16.64550    107.53410      1.30680      0.53000      2.09980
   1054.91300     16.77820    109.23580      1.15480      0.49670      2.08170
   1055.06540     17.17840    111.25860      1.11690      0.45100      2.02050
   1055.21780     17.67480    112.55940      1.09810      0.41370      1.93010
   1055.37020     17.85790    111.31860      1.10050      0.39130      1.84010
   1055.52260     17.56310    107.83140      1.23620      0.37660      1.78230
   1055.67500     17.40140    102.53470      1.41030      0.37020      1.76820
   1055.82740     17.12010    101.59440      1.51220      0.37730      1.78700
   1055.97980     16.51710    104.06720      1.58350      0.39910      1.82020
   1056.13220     16.05130    107.50960      1.57910      0.42290      1.85830
   1056.28460     15.77320    106.59510      1.61680      0.43080      1.90270
   1056.43700     15.45670    102.75000      1.76750      0.42880      1.95800
   1056.58940     15.24200     99.25390      1.73450      0.44420      2.02820
   1056.74180     15.23890     96.60960      1.58760      0.47780      2.10190
   1056.89420     15.48230     93.19320      1.75320      0.51180      2.15900
   1057.04660     15.95530     93.40900      1.79440      0.52170      2.18010
   1057.19900     16.30150     95.32370      1.75880      0.50660      2.15860
   1057.35140     16.40240     99.50620      1.53160      0.48260      2.10460
   1057.50380     16.32710    107.41570      1.38240      0.46120      2.03660
   1057.65620     16.25360    110.97070      1.59300      0.43620      1.96890
   1057.80860     16.30960    110.96490      1.59620      0.40650      1.90920
   1057.96100     16.34160    112.04470      1.61610      0.37330      1.86540
   1058.11340     16.40470    113.32060      1.66550      0.34110      1.84660
   1058.26580     16.59370    112.10190      1.68300      0.32410      1.86650
   1058.41820     16.51800    111.25880      1.67370      0.32510      1.91540
   1058.57060     15.70670    106.29850      1.68140      0.34000      1.96200
   1058.72300     14.93870     99.82290      1.73430      0.36380      1.98030
   1058.87540     14.65250     97.83560      1.81220      0.38960      1.95850
   1059.02780     14.56190     99.52850      1.84690      0.41130      1.90290
   1059.18020     14.70230    103.25170      1.78490      0.42160      1.83600
   1059.33260     15.02780    108.07020      1.63500      0.42860      1.77900
   1059.48500     15.15890    110.08450      1.63430      0.43810      1.74690
   1059.63740     14.91470    109.60260      1.68620      0.44500      1.75060
   1059.78980     14.51800    110.14170      1.67320      0.43850      1.79380
   1059.94220     14.05360    107.04250      1.66310      0.40830      1.86890
   1060.09460     14.36930    103.16260      1.62810      0.35770      1.95690
   1060.24700     14.63980     98.53080      1.48310      0.31420      2.03050
   1060.39940     14.35130     93.91620      1.37170      0.28440      2.06740
   1060.55180     14.24720     92.50540      1.45300      0.27250      2.06040
   1060.70420     14.16620     93.76600      1.58410      0.27250      2.01720
   1060.85660     13.94490     94.74180      1.70520      0.27660      1.95660
   1061.00900     13.78450     95.69580      1.73710      0.27600      1.89920
   1061.16140     14.04220     97.83580      1.86930      0.26760      1.85770
   1061.31380     14.16450     96.88440      1.92450      0.25230      1.83650
   1061.46620     14.14530     97.50200      1.64370      0.23490      1.83910
   1061.61860     14.17820     96.68240      1.81650      0.22450      1.86850
   1061.77100     13.90290     95.44340      2.04980      0.21850      1.92800
   1061.92340     13.10620     93.41600      2.12030      0.21150      2.01900
   1062.07580     12.54880     94.47220      2.34250      0.21070      2.13190
   1062.22820     12.51120     95.10750      2.79730      0.22510      2.24020
   1062.38060     12.50320     96.12860      3.25370      0.25260      2.32390
   1062.53300     12.64280     94.66440      3.16630      0.27920      2.37560
   1062.68540     13.33070     89.34740      3.13950      0.28870      2.40140
   1062.83780     14.05440     82.45610      3.37610      0.28340      2.40210
   1062.99020     14.27620     77.55990      3.76300      0.27930      2.35110
   1063.14260     14.35720     76.65460      4.10710      0.28290      2.21620
   1063.29500     14.60400     77.42530      4.13510      0.29930      2.00480
   1063.44740     15.00890     80.44170      5.04990      0.32090      1.77170
   1063.59980     15.34490     83.69390      4.22430      0.33960      1.58710
   1063.75220     15.03570     87.80260      2.29940      0.34810      1.50110
   1063.90460     14.31870     90.86100      1.65470      0.36150      1.51190
   1064.05700     13.40210     93.49700      1.48840      0.39440      1.58360
   1064.20940     12.52110     95.43340      1.39780      0.41990      1.66370
   1064.36180     11.56240     95.55270      1.52220      0.42780      1.71100
   1064.51420     11.19680     95.34920      2.13030      0.42960      1.71520
   1064.66660     11.05070     95.84030      2.29340      0.43600      1.69280
   1064.81900     11.06910     93.87900      2.08270      0.44740      1.67500
   1064.97140     10.99870     91.28730      2.13890      0.46150      1.68230
   1065.12380     11.22600     90.40810      1.78670      0.46560      1.70770
   1065.27620     11.74510     92.46190      1.90220      0.45380      1.72700
   1065.42860     12.62110     93.79800      1.54630      0.43180      1.72660
   1065.58100     13.57950     97.44620      1.30480      0.40620      1.71310
   1065.73340     14.47210     98.08590      1.23550      0.39000      1.70950
   1065.88580     14.77490     96.16460      1.16550      0.37060      1.74100
   1066.03820     14.63800     93.25860      1.17540      0.34860      1.81340
   1066.19060     14.36900     95.41590      1.16050      0.32430      1.90460
   1066.34300     13.89950     96.10070      1.13290      0.30140      1.97870
   1066.49540     12.93570     97.66410      1.08270      0.28060      2.00990
   1066.64780     11.94060     98.05950      1.22650      0.26210      1.99300
   1066.80020     11.16680     94.78850      1.41660      0.24680      1.94840
   1066.95260     10.41480     90.69610      1.37780      0.23420      1.90590
   1067.10500      9.77680     89.59050      1.30550      0.22390      1.88270
   1067.25740      9.47540     88.60120      1.57210      0.21580      1.88360
   1067.40980      9.38810     87.04390      1.78100      0.20950      1.90740
   1067.56220      9.28590     86.31380      2.21930      0.20790      1.95330
   1067.71460      9.19880     84.69250      3.00370      0.20880      2.03090
   1067.86700      9.03580     85.20670      3.67370      0.21070      2.14940
   1068.01940      8.81630     88.61350      3.80730      0.21500      2.27940
