~VERSION INFORMATION
VERS.         2.0        : CWLS LOG ASCII STANDARD VERSION 2.0
WRAP.         NO         : ONE LINE PER DEPTH STEP
~WELL INFORMATION
STRT.M     197.66300                                                            :START DEPTH
STOP.M    1425.24500                                                            :STOP DEPTH
STEP.M       0.15240                                                            :STEP
NULL.          -999.25                                                          : NULL VALUE
WELL.          B-3                                                              : WELL NAME
~CURVE INFORMATION
DEPT.m          00 000 00 00                                                     : Depth Index
CALI.in         00 000 00 00                                                     :
GR.gAPI         00 000 00 00                                                     :
LLD.ohmm        00 000 00 00                                                     :
NPHI.m3/m3      00 000 00 00                                                     :
RHOB.g/cm3      00 000 00 00                                                     :
~Ascii Log Data
# ...
    850.54460      9.54180     64.76410      4.54720      0.26770      2.40910
    850.69700      9.49730     63.45120      4.05620      0.26000      2.41730
    850.84940      9.54500     66.73970      3.62340      0.26720      2.41100
    851.00180      9.59280     72.94290      2.78280      0.27850      2.39400
    851.15420      9.65640     78.95900      2.34070      0.27990      2.36990
    851.30660      9.71210     83.45210      1.99630      0.27800      2.34330
    851.45900      9.73120     82.76290      1.83330      0.28230      2.31770
    851.61140      9.72330     78.66420      1.86530      0.29220      2.30340
    851.76380      9.78530     73.83720      1.96580      0.29380      2.30610
    851.91620      9.81720     72.68290      2.14990      0.28340      2.32440
    852.06860      9.81720     73.97690      2.38650      0.27380      2.33820
    852.22100      9.88720     77.57410      2.20350      0.27330      2.33340
    852.37340      9.97470     79.05280      2.13800      0.28430      2.30550
    852.52580      9.91270     80.27520      2.00450      0.29460      2.26300
    852.67820      9.88080     82.99770      2.05830      0.29890      2.22360
    852.83060      9.92860     87.58000      2.06500      0.29720      2.20140
    852.98300      9.94130     92.33120      2.10420      0.29490      2.19020
    853.13540     10.06070     93.81050      2.01000      0.29920      2.17860
    853.28780     10.30740     91.19250      1.91340      0.30390      2.16360
    853.44020     10.43470     87.46770      1.94710      0.30600      2.15150
    853.59260     10.39490     82.82920      2.11420      0.30360      2.15690
    853.74500     10.38860     79.71100      2.39810      0.29620      2.18670
    853.89740     10.34880     76.25110      2.69990      0.27940      2.23040
    854.04980     10.31690     73.89300      2.96820      0.26240      2.26250
    854.20220     10.43630     73.66410      2.85680      0.25240      2.27120
    854.35460     10.68300     77.57360      2.58040      0.25190      2.26020
    854.50700     10.77850     80.42000      2.32140      0.25990      2.24660
    854.65940     10.77850     83.92910      2.18790      0.27120      2.24320
    854.81180     10.73400     85.92000      2.15320      0.27920      2.25270
    854.96420     10.62250     86.46070      2.28820      0.27720      2.25990
    855.11660     10.50320     85.65250      2.32730      0.26970      2.25610
    855.26900     10.49040     83.57990      2.39210      0.26310      2.23820
    855.42140     10.44270     80.05710      2.42550      0.25840      2.21100
    855.57380     10.43000     76.54510      2.24340      0.25840      2.18270
    855.72620     10.44590     75.89260      2.17860      0.26300      2.16340
    855.87860     10.46180     77.56680      2.22660      0.26850      2.15720
    856.03100     10.48090     79.97240      2.35070      0.26970      2.16620
    856.18340     10.48880     80.45970      2.52770      0.27400      2.18600
    856.33580     10.45700     81.46190      2.45400      0.29290      2.20820
    856.48820     10.50480     82.10210      2.34590      0.32350      2.22520
    856.64060     10.63850     83.81820      2.07480      0.34350      2.23080
    856.79300     10.75310     85.98350      1.93760      0.34050      2.22450
    856.94540     10.89630     88.67310      1.85630      0.32070      2.21210
    857.09780     11.08730     87.76640      1.95150      0.29910      2.19740
    857.25020     11.12710     86.58590      1.95580      0.29040      2.18200
    857.40260     11.05070     84.01890      2.01740      0.28870      2.16460
    857.55500     10.86770     81.73070      2.07830      0.28520      2.14220
    857.70740     10.62890     80.58370      2.03260      0.28080      2.11800
    857.85980     10.42520     81.08150      2.01480      0.27650      2.10160
    858.01220     10.27400     80.18550      2.06700      0.27330      2.09960
    858.16460     10.14660     79.43360      2.10480      0.27630      2.11140
    858.31700     10.25010     78.60040      2.19520      0.28000      2.12910
    858.46940     10.48880     79.57670      2.13500      0.28230      2.14100
    858.62180     10.57160     80.57380      2.01830      0.28250      2.14280
    858.77420     10.66710     81.90350      1.89330      0.28160      2.14070
    858.92660     10.76900     81.13640      1.90120      0.28910      2.14720
    859.07900     10.60980     79.30790      1.97700      0.31420      2.17110
    859.23140     10.53820     79.46390      2.08080      0.34710      2.21210
    859.38380     10.62730     82.91150      2.06310      0.36520      2.25710
    859.53620     10.73870     85.21720      2.04850      0.37090      2.28970
    859.68860     10.72600     86.82920      1.96480      0.36870      2.29800
    859.84100     10.70210     85.68730      1.89940      0.36230      2.28230
    859.99340     10.60340     83.57700      1.81820      0.35440      2.25120
    860.14580     10.50950     84.59220      1.73140      0.34640      2.21950
    860.29820     10.51430     88.79900      1.63080      0.34040      2.19940
    860.45060     10.55090     90.63530      1.49160      0.33720      2.19790
    860.60300     10.67830     93.40370      1.37430      0.33470      2.21430
    860.75540     10.70370     93.95630      1.40050      0.33170      2.24530
    860.90780     10.63210     91.31360      1.51690      0.32690      2.28420
    861.06020     10.49840     89.35260      1.73700      0.32150      2.32320
    861.21260     10.64960     88.00420      1.96310      0.31790      2.35330
    861.36500     10.88040     86.45780      2.05200      0.31760      2.36770
    861.51740     11.07780     85.81500      1.80760      0.31840      2.36470
    861.66980     11.22890     85.85430      1.63910      0.31540      2.34980
    861.82220     11.19870     84.06110      1.59890      0.30760      2.32910
    861.97460     10.95360     83.78940      1.62350      0.29590      2.30530
    862.12700     10.62730     82.09480      1.82400      0.28590      2.27940
    862.27940     10.46820     80.62280      2.00580      0.28000      2.25490
    862.43180     10.41240     78.43820      2.12560      0.27880      2.23920
    862.58420     10.51910     77.75240      2.24690      0.28070      2.23730
    862.73660     10.54140     77.28820      2.32470      0.28180      2.24250
    862.88900     10.56520     78.72180      2.24580      0.27910      2.23940
    863.04140     10.50160     79.82610      2.09830      0.27180      2.21720
    863.19380     10.35040     82.01160      1.98160      0.26540      2.18200
    863.34620     10.12750     83.12770      1.96350      0.26420      2.15350
    863.49860     10.00020     84.10890      2.15550      0.26460      2.15230
    863.65100      9.93660     83.95690      2.25170      0.26320      2.18420
    863.80340      9.88560     83.12730      2.38790      0.25990      2.24100
    863.95580      9.84580     78.21670      2.67420      0.25490      2.30540
    864.10820      9.77580     71.89110      3.00700      0.24860      2.36310
    864.26060      9.73600     66.56480      3.22880      0.24240      2.40400
    864.41300      9.72010     65.16510      3.31990      0.23750      2.42570
    864.56540      9.71370     69.70760      3.24810      0.23360      2.43450
    864.71780      9.76150     74.90340      3.29800      0.23030      2.44160
    864.87020      9.90790     77.91090      2.99230      0.22760      2.45280
    865.02260     10.14660     78.19650      2.90380      0.22540      2.46440
    865.17500     10.37740     78.12580      2.71790      0.22430      2.46550
    865.32740     10.54300     78.80050      2.21970      0.22510      2.44770
    865.47980     10.61460     82.23530      1.85990      0.22830      2.41330
    865.63220     10.65280     87.31650      1.71650      0.23440      2.37350
    865.78460     10.49360     91.50540      1.63210      0.24460      2.33920
    865.93700     10.37110     93.82270      1.57110      0.25690      2.31550
