~VERSION INFORMATION
VERS.         2.0        : CWLS LOG ASCII STANDARD VERSION 2.0
WRAP.         NO         : ONE LINE PER DEPTH STEP
~WELL INFORMATION
STRT.M     197.66300                                                            :START DEPTH
STOP.M    1425.24500                                                            :STOP DEPTH
STEP.M       0.15240                                                            :STEP
NULL.          -999.25                                                          : NULL VALUE
WELL.          B-3                                                              : WELL NAME
~CURVE INFORMATION
DEPT.m          00 000 00 00                                                     : Depth Index
CALI.in         00 000 00 00                                                     :
GR.gAPI         00 000 00 00                                                     :
LLD.ohmm        00 000 00 00                                                     :
NPHI.m3/m3      00 000 00 00                                                     :
RHOB.g/cm3      00 000 00 00                                                     :
~Ascii Log Data
# ...
    570.73820      9.39870     75.12290      3.75950      0.36020      2.24770
    570.89060      9.64500     68.28980      2.87820      0.35830      2.18490
    571.04300      9.91150     62.63240      2.55660      0.36150      2.12090
    571.19540     10.13720     59.74200      2.58340      0.36980      2.07280
    571.34780     10.29250     59.53750      2.58500      0.37720      2.04740
    571.50020     10.34400     60.93780      2.64310      0.37910      2.04070
    571.65260     10.31250     63.20040      2.84620      0.37780      2.04410
    571.80500     10.21810     64.62380      2.80930      0.37510      2.05000
    571.95740     10.11310     64.28210      2.77340      0.37100      2.05580
    572.10980     10.06350     62.09890      2.75080      0.36560      2.06110
    572.26220     10.06160     61.38770      2.70950      0.36120      2.06510
    572.41460     10.03650     59.15120      2.68040      0.36050      2.06800
    572.56700      9.98980     57.05750      2.67130      0.36260      2.07170
    572.71940      9.95840     54.69480      2.64930      0.36130      2.07720
    572.87180      9.90920     52.81410      2.61620      0.35160      2.08410
    573.02420      9.83520     51.29130      2.43840      0.33690      2.09100
    573.17660      9.78610     51.43770      2.38730      0.32390      2.09670
    573.32900      9.79080     50.43680      2.41140      0.32090      2.10040
    573.48140      9.82650     52.22130      2.46640      0.32950      2.10150
    573.63380      9.88530     55.85100      2.63190      0.34460      2.09980
    573.78620      9.95700     61.95090      2.71840      0.35980      2.09640
    573.93860     10.02140     67.70780      2.70190      0.36750      2.09470
    574.09100     10.05220     73.44590      2.59640      0.36930      2.09830
    574.24340     10.02460     76.44600      2.49380      0.37180      2.10840
    574.39580      9.89990     79.03380      2.46730      0.38220      2.12300
    574.54820      9.67490     77.88550      2.45780      0.40080      2.13860
    574.70060      9.45380     75.23920      2.49540      0.41890      2.15100
    574.85300      9.30340     71.89520      2.51560      0.42090      2.15740
    575.00540      9.24920     72.08940      2.47250      0.41220      2.15610
    575.15780      9.28890     75.44400      2.43510      0.40220      2.14610
    575.31020      9.39840     79.44750      2.38080      0.39540      2.12890
    575.46260      9.51820     81.82500      2.46820      0.38790      2.10820
    575.61500      9.59260     82.98850      2.52490      0.37490      2.08980
    575.76740      9.55050     83.07870      2.65110      0.35870      2.07950
    575.91980      9.44140     82.78300      2.70260      0.34530      2.08050
    576.07220      9.38410     85.91730      2.69280      0.33490      2.08790
    576.22460      9.36450     87.24110      2.59840      0.32390      2.09040
    576.37700      9.38050     86.98280      2.61190      0.31390      2.08130
    576.52940      9.46350     85.59820      3.08890      0.31080      2.06580
    576.68180      9.54580     80.36510      3.56400      0.32190      2.05710
    576.83420      9.45110     73.14630      3.65310      0.34730      2.06280
    576.98660      9.28320     68.39540      3.50470      0.37210      2.07170
    577.13900      9.21080     63.44940      2.87010      0.37890      2.06140
    577.29140      9.35530     60.65590      2.54540      0.36770      2.02680
    577.44380      9.66440     60.06520      2.57630      0.35310      1.98780
    577.59620      9.99360     59.63680      2.46650      0.34700      1.97350
    577.74860     10.28420     60.73850      2.33220      0.35270      1.99850
    577.90100     10.31590     63.07290      2.32790      0.36580      2.04710
    578.05340     10.01900     64.08900      2.32610      0.37940      2.08970
    578.20580      9.63150     67.32420      2.40340      0.38940      2.10990
    578.35820      9.37210     69.42830      2.58540      0.40020      2.11120
    578.51060      9.15010     71.61100      2.69690      0.41030      2.10740
    578.66300      9.04340     70.78260      2.75830      0.41890      2.11020
    578.81540      9.03800     69.19340      2.83540      0.42450      2.11990
    578.96780      9.06610     65.50350      2.78850      0.42570      2.13000
    579.12020      9.11760     63.91520      2.74130      0.42030      2.13330
    579.27260      9.22650     59.88030      2.79760      0.40750      2.12480
    579.42500      9.42840     58.68830      2.78900      0.38820      2.10590
    579.57740      9.65940     57.65170      2.83790      0.36590      2.08430
    579.72980      9.82200     56.77970      2.96100      0.34560      2.07110
    579.88220      9.82320     54.73380      3.04270      0.32910      2.07630
    580.03460      9.72290     52.44640      3.05540      0.31470      2.10350
    580.18700      9.53320     49.07350      3.20780      0.30200      2.14560
    580.33940      9.32680     49.10680      3.33710      0.29150      2.18900
    580.49180      9.20530     50.95100      3.17850      0.28460      2.21910
    580.64420      9.24190     53.69330      3.03160      0.28220      2.22480
    580.79660      9.36700     57.71310      2.88240      0.28850      2.20420
    580.94900      9.54080     59.82160      2.72210      0.30790      2.16600
    581.10140      9.75540     59.90510      2.58120      0.33830      2.12460
    581.25380      9.88680     60.08010      2.55860      0.36380      2.09370
    581.40620      9.86450     59.50480      2.56070      0.37400      2.08240
    581.55860      9.76180     60.73610      2.52390      0.37130      2.09020
    581.71100      9.57900     64.31720      2.48190      0.36450      2.10920
    581.86340      9.29380     67.36930      2.46600      0.35800      2.12890
    582.01580      8.99270     69.57880      2.41460      0.35550      2.14210
    582.16820      8.79310     69.55110      2.39710      0.36080      2.14660
    582.32060      8.68770     66.26540      2.45160      0.37050      2.14450
    582.47300      8.63250     63.07880      2.41970      0.37320      2.13860
    582.62540      8.62350     62.40920      2.50600      0.37180      2.13040
    582.77780      8.63760     66.89430      2.54990      0.36820      2.12010
    582.93020      8.66450     71.27900      2.49900      0.36130      2.10960
    583.08260      8.70080     71.74250      2.52710      0.35370      2.10210
    583.23500      8.73310     68.06050      2.56010      0.34640      2.10050
    583.38740      8.76440     63.49590      2.59980      0.33860      2.10580
    583.53980      8.81880     59.65190      2.59650      0.33090      2.11640
    583.69220      8.90820     58.22710      2.64070      0.32050      2.12890
    583.84460      8.99190     59.13590      2.63920      0.30580      2.14020
    583.99700      9.06930     59.12890      2.56990      0.29870      2.14910
    584.14940      9.21300     57.94850      2.50550      0.30780      2.15590
    584.30180      9.41380     55.89720      2.46060      0.32710      2.16160
    584.45420      9.51620     52.68560      2.39400      0.34630      2.16590
    584.60660      9.54210     48.99300      2.31480      0.36110      2.16750
    584.75900      9.54770     48.24350      2.34490      0.37430      2.16530
    584.91140      9.44910     48.50810      2.34330      0.38570      2.15880
    585.06380      9.25110     49.31230      2.28020      0.38530      2.14840
    585.21620      9.09490     49.68940      2.34600      0.36810      2.13390
    585.36860      8.97610     50.60960      2.36630      0.34800      2.11670
    585.52100      8.87250     51.85260      2.32450      0.34670      2.10070
    585.67340      8.84640     54.43020      2.38340      0.37070      2.09140
    585.82580      8.87390     57.09840      2.43700      0.39760      2.09280
    585.97820      8.91780     61.93250      2.55000      0.39650      2.10470
    586.13060      8.97260     65.24230      2.48620      0.36490      2.12220
