~VERSION INFORMATION
VERS.         2.0        : CWLS LOG ASCII STANDARD VERSION 2.0
WRAP.         NO         : ONE LINE PER DEPTH STEP
~WELL INFORMATION
STRT.M     197.66300                                                            :START DEPTH
STOP.M    1425.24500                                                            :STOP DEPTH
STEP.M       0.15240                                                            :STEP
NULL.          -999.25                                                          : NULL VALUE
WELL.          B-3                                                              : WELL NAME
~CURVE INFORMATION
DEPT.m          00 000 00 00                                                     : Depth Index
CALI.in         00 000 00 00                                                     :
GR.gAPI         00 000 00 00                                                     :
LLD.ohmm        00 000 00 00                                                     :
NPHI.m3/m3      00 000 00 00                                                     :
RHOB.g/cm3      00 000 00 00                                                     :
~Ascii Log Data
# ...
    493.01420      9.53260     87.48280      2.73410      0.38840      2.22060
    493.16660      9.54140     86.52670      2.11320      0.37940      2.17970
    493.31900      9.58330     86.60830      1.70030      0.37840      2.13620
    493.47140      9.64540     87.92410      1.53360      0.38360      2.09870
    493.62380      9.72360     88.53660      1.49650      0.39350      2.07060
    493.77620      9.76450     89.40920      1.52530      0.40820      2.05300
    493.92860      9.76760     86.30480      1.56610      0.42590      2.04690
    494.08100      9.73070     81.89630      1.56820      0.44240      2.05320
    494.23340      9.69380     78.71570      1.72030      0.45090      2.08020
    494.38580      9.65060     77.89690      2.06750      0.45170      2.12760
    494.53820      9.64690     77.13540      2.40570      0.44610      2.18860
    494.69060      9.65020     75.01730      2.69140      0.43610      2.24370
    494.84300      9.66420     71.20640      2.61540      0.42180      2.27320
    494.99540      9.68530     69.44990      2.31390      0.40320      2.26730
    495.14780      9.74580     71.91250      1.77850      0.38290      2.23590
    495.30020      9.85570     75.58040      1.60330      0.36740      2.19900
    495.45260      9.98600     78.10670      1.65930      0.36310      2.17600
    495.60500     10.07860     76.35990      1.74010      0.38590      2.17250
    495.75740     10.12440     73.93780      1.92420      0.41270      2.18720
    495.90980     10.10670     72.73310      2.30910      0.43240      2.21120
    496.06220     10.00140     75.53580      1.95760      0.46170      2.22480
    496.21460      9.85110     82.34060      1.57670      0.48910      2.20670
    496.36700      9.71420     88.99580      1.21070      0.49700      2.14870
    496.51940      9.56390     92.22700      0.96620      0.50580      2.06270
    496.67180      9.37120     91.62080      0.84970      0.51660      1.98060
    496.82420      9.17420     85.38570      0.96480      0.53200      1.93520
    496.97660      9.00430     77.32790      1.31020      0.54980      1.94000
    497.12900      8.91950     70.59350      1.54150      0.56350      1.98420
    497.28140      8.95600     67.68400      1.60900      0.57060      2.03770
    497.43380      9.09760     67.56380      1.56720      0.56090      2.06620
    497.58620      9.28160     71.42400      1.29390      0.54350      2.05390
    497.73860      9.44450     76.33470      1.03390      0.52460      2.01130
    497.89100      9.45590     80.05240      1.01860      0.50730      1.96280
    498.04340      9.31570     82.01080      1.04990      0.50730      1.93020
    498.19580      9.12140     82.06320      1.07850      0.53260      1.91760
    498.34820      8.96400     81.60340      1.09170      0.55720      1.91670
    498.50060      8.86880     81.43060      1.12390      0.56440      1.91930
    498.65300      8.85460     82.11080      1.14740      0.55700      1.92310
    498.80540      8.81490     81.25700      1.12270      0.54130      1.92870
    498.95780      8.73020     84.39640      1.11640      0.53010      1.93620
    499.11020      8.61270     88.17090      1.13860      0.53380      1.93980
    499.26260      8.46440     93.67320      1.15350      0.55120      1.93890
    499.41500      8.32960     97.36670      1.14870      0.57500      1.93330
    499.56740      8.31910     96.91360      1.16280      0.59500      1.92360
    499.71980      8.42760     93.74990      1.18910      0.60330      1.91160
    499.87220      8.59590     91.48680      1.20530      0.60090      1.90140
    500.02460      8.76660     91.57230      1.17920      0.59250      1.89690
    500.17700      8.94680     93.74420      1.25990      0.58130      1.89880
    500.32940      9.15400     94.31460      1.23780      0.56950      1.90770
    500.48180      9.31900     92.17740      1.18230      0.56040      1.92330
    500.63420      9.43670     87.90430      1.18900      0.54740      1.96050
    500.78660      9.57900     84.45830      1.21600      0.52310      1.99940
    500.93900      9.74180     85.82940      1.42090      0.48370      2.04210
    501.09140      9.83240     87.37190      1.75020      0.42920      2.11480
    501.24380      9.82840     83.35470      2.18270      0.36630      2.22360
    501.39620      9.76060     74.18740      2.72590      0.31100      2.34720
    501.54860      9.64370     62.19240      3.43910      0.27650      2.41850
    501.70100      9.49380     52.54930      4.43280      0.26300      2.45650
    501.85340      9.38190     48.96170      4.95570      0.24700      2.46500
    502.00580      9.35940     46.94580      5.61840      0.23380      2.45530
    502.15820      9.40910     46.35050      6.39260      0.22720      2.43810
    502.31060      9.49590     46.68620      6.88070      0.22950      2.41160
    502.46300      9.59960     49.58570      6.31360      0.23950      2.36700
    502.61540      9.74760     50.79390      6.07170      0.25820      2.30050
    502.76780      9.98340     51.26630      3.91020      0.29910      2.23280
    502.92020     10.26200     49.22990      2.12360      0.34540      2.17530
    503.07260     10.46910     47.15300      1.52410      0.36950      2.14590
    503.22500     10.53830     45.71670      1.58640      0.35750      2.15480
    503.37740     10.46850     46.00710      2.16250      0.32120      2.20030
    503.52980     10.26920     47.04440      3.42840      0.28240      2.26770
    503.68220     10.00070     47.03890      5.89780      0.25700      2.33420
    503.83460      9.78290     47.37380      6.47550      0.24830      2.37690
    503.98700      9.69890     46.04080      4.80250      0.25140      2.38070
    504.13940      9.73360     43.97530      3.37350      0.26450      2.33210
    504.29180      9.85540     42.83470      2.92170      0.27750      2.27240
    504.44420      9.98520     43.58120      3.00420      0.26240      2.24420
    504.59660     10.00710     43.38490      3.56320      0.23420      2.26470
    504.74900      9.93150     43.63430      5.37590      0.22080      2.31580
    504.90140      9.79970     42.27670      8.87610      0.22860      2.35860
    505.05380      9.59380     41.58000      6.24770      0.24690      2.36580
    505.20620      9.38290     42.44290      4.66440      0.25080      2.34440
    505.35860      9.28060     44.64980      3.84240      0.23530      2.32220
    505.51100      9.24990     46.55570      3.91940      0.21860      2.31750
    505.66340      9.22510     47.11420      4.44200      0.21470      2.33460
    505.81580      9.20410     47.18970      5.06940      0.22200      2.36390
    505.96820      9.18650     47.09590      6.82710      0.23330      2.39370
    506.12060      9.17730     47.42660      7.42540      0.24420      2.41850
    506.27300      9.17810     51.09160      7.18320      0.25310      2.43520
    506.42540      9.18430     56.92720      4.68820      0.26320      2.43860
    506.57780      9.20560     62.61500      3.20380      0.28150      2.42040
    506.73020      9.25790     66.67080      2.68580      0.30860      2.37390
    506.88260      9.33140     66.78560      2.34800      0.33860      2.30340
    507.03500      9.39610     64.38360      2.16100      0.36350      2.22570
    507.18740      9.47430     60.98210      2.27380      0.37810      2.15940
    507.33980      9.58770     59.94410      2.22000      0.38660      2.11570
    507.49220      9.68240     59.22370      2.14700      0.40030      2.09530
    507.64460      9.74540     58.96220      2.00250      0.42320      2.09360
    507.79700      9.91330     58.38800      1.58000      0.44250      2.10700
    507.94940     10.08850     58.55150      1.67240      0.41510      2.12790
    508.10180     10.07350     55.98150      1.74840      0.37950      2.14610
    508.25420      9.96250     54.39280      1.85830      0.39070      2.15560
    508.40660      9.86330     50.24480      2.33940      0.41340      2.16070
